Date/Time,Latitude,Longitude,PPPP [hPa],TTT grad [K],RH [%],Height [m],Pitch [deg],Roll [deg],Yaw [deg],SWD [W/m**2] (raw),SWU [W/m**2] (raw),LWD [W/m**2] (raw),LWU [W/m**2] (raw),SWD [W/m**2] (corrected),SWU [W/m**2] (corrected),LWD [W/m**2] (corrected),LWU [W/m**2] (corrected),Flag
2018-08-28 10:16:00,89.60469,29.67549,898.524,266.64,97.7,827.1,-0.69,-1.3,-173.7,64.86,51.76,274.29,295.35,64.38,51.81,274.86,296.21,1.0
2018-08-28 10:16:00,89.60469,29.6755,898.578,266.64,97.7,826.7,-1.32,-1.22,-173.62,63.42,51.97,274.48,296.31,65.19,51.81,274.89,296.28,1.0
2018-08-28 10:16:00,89.60469,29.67552,898.632,266.64,97.7,826.2,-3.91,-1.31,-173.59,63.87,52.11,274.39,296.21,65.9,51.82,274.92,296.33,1.0
2018-08-28 10:16:00,89.60469,29.67553,898.636,266.64,97.7,826.1,-5.08,-1.43,-173.6,64.72,51.97,274.67,296.31,66.45,51.84,274.87,296.37,1.0
2018-08-28 10:16:00,89.60469,29.67555,898.626,266.64,97.7,826.2,-4.4,-1.41,-173.63,64.99,51.97,274.68,295.92,66.8,51.88,274.82,296.4,1.0
2018-08-28 10:16:00,89.60469,29.67556,898.63,266.65,97.6,826.2,-2.48,-1.26,-173.65,65.77,51.97,274.87,296.02,66.97,51.95,274.84,296.42,1.0
2018-08-28 10:16:00,89.60469,29.67557,898.6,266.64,97.7,826.5,-0.52,-1.19,-173.59,64.99,51.97,274.76,296.02,66.97,52.04,274.89,296.46,1.0
2018-08-28 10:16:00,89.60469,29.67559,898.674,266.65,97.6,825.8,-0.62,-1.11,-173.83,65.12,51.97,274.77,296.12,66.86,52.15,274.89,296.41,1.0
2018-08-28 10:16:00,89.60469,29.6756,898.693,266.65,97.6,825.7,-0.84,-0.88,-174.16,65.05,51.83,274.58,295.92,66.68,52.27,274.97,296.34,1.0
2018-08-28 10:16:00,89.60469,29.67562,898.666,266.65,97.6,825.9,-1.42,-0.87,-174.46,64.33,51.97,274.93,296.2,66.5,52.39,274.99,296.26,1.0
2018-08-28 10:16:00,89.60469,29.67563,898.624,266.64,97.6,826.3,-2.03,-1.04,-174.68,64.53,52.11,275.18,296.0,66.35,52.51,274.94,296.17,1.0
2018-08-28 10:16:00,89.60469,29.67564,898.616,266.64,97.7,826.3,-2.17,-1.1,-174.81,65.97,52.11,274.49,296.02,66.23,52.6,274.88,296.09,1.0
2018-08-28 10:16:00,89.60469,29.67566,898.658,266.65,97.6,826.0,-2.46,-1.09,-174.7,65.77,52.04,274.59,296.3,66.16,52.66,274.83,296.04,1.0
2018-08-28 10:16:00,89.60469,29.67567,898.628,266.65,97.6,826.2,-3.22,-1.07,-174.32,64.2,52.04,275.55,296.0,66.09,52.67,274.79,296.01,1.0
2018-08-28 10:16:00,89.60469,29.67569,898.589,266.65,97.6,826.6,-3.46,-1.14,-174.15,65.38,51.97,275.27,296.2,66.01,52.63,274.77,296.01,1.0
2018-08-28 10:16:00,89.60469,29.67571,898.595,266.64,97.6,826.5,-2.79,-1.13,-174.25,64.27,52.18,274.68,296.21,65.87,52.54,274.74,296.03,1.0
2018-08-28 10:16:00,89.60469,29.67573,898.66,266.64,97.6,825.9,-1.75,-1.03,-174.53,65.64,52.04,274.86,295.92,65.65,52.41,274.72,296.09,1.0
2018-08-28 10:16:00,89.60469,29.67575,898.62,266.64,97.6,826.3,-2.27,-1.25,-174.76,64.2,51.97,274.86,296.2,65.34,52.26,274.78,296.15,1.0
2018-08-28 10:16:00,89.60469,29.67577,898.643,266.65,97.6,826.1,-3.74,-1.27,-174.5,66.03,52.18,274.69,296.5,64.94,52.1,274.86,296.22,1.0
2018-08-28 10:16:00,89.60469,29.67579,898.643,266.65,97.6,826.1,-3.8,-1.19,-174.73,66.3,52.25,274.77,296.12,64.51,51.96,274.92,296.23,1.0
2018-08-28 10:16:00,89.60469,29.67581,898.629,266.65,97.6,826.2,-2.09,-1.24,-174.91,65.58,52.18,274.67,296.01,64.08,51.86,275.05,296.25,1.0
2018-08-28 10:16:00,89.60469,29.67583,898.623,266.64,97.6,826.3,-0.68,-1.31,-174.81,65.25,52.18,274.77,296.2,63.72,51.8,275.16,296.28,1.0
2018-08-28 10:16:00,89.60469,29.67585,898.635,266.64,97.6,826.2,-2.79,-1.05,-174.64,64.53,52.18,274.58,296.21,63.5,51.8,275.17,296.27,1.0
2018-08-28 10:16:00,89.60469,29.67587,898.644,266.65,97.6,826.1,-3.59,-1.13,-174.92,64.53,52.11,274.86,296.2,63.46,51.85,275.14,296.24,1.0
2018-08-28 10:16:00,89.60469,29.67589,898.583,266.65,97.6,826.6,-4.02,-0.93,-175.11,64.33,51.97,275.48,295.49,63.63,51.95,275.09,296.19,1.0
2018-08-28 10:16:00,89.60469,29.6759,898.605,266.65,97.6,826.4,-4.31,-0.72,-175.17,65.18,51.76,275.85,295.85,64.0,52.09,275.0,296.15,1.0
2018-08-28 10:16:00,89.60469,29.67592,898.68,266.65,97.6,825.8,-4.1,-0.65,-175.09,64.86,51.83,275.21,296.11,64.54,52.24,274.92,296.12,1.0
2018-08-28 10:16:00,89.60469,29.67593,898.637,266.65,97.6,826.1,-2.89,-0.74,-174.97,64.99,51.97,274.38,295.99,65.19,52.37,274.84,296.1,1.0
2018-08-28 10:16:00,89.60469,29.67594,898.65,266.65,97.6,826.0,-0.25,-0.76,-175.06,64.46,52.11,274.86,296.1,65.84,52.49,274.8,296.09,1.0
2018-08-28 10:16:00,89.60469,29.67596,898.65,266.65,97.6,826.0,2.59,-0.79,-174.99,65.25,52.25,274.58,296.0,66.42,52.56,274.9,296.06,1.0
2018-08-28 10:16:00,89.60469,29.67597,898.663,266.64,97.6,825.9,4.7,-0.73,-174.8,64.79,52.18,274.86,296.3,66.82,52.58,274.93,296.09,1.0
2018-08-28 10:16:00,89.60469,29.67598,898.658,266.64,97.6,826.0,5.98,-0.78,-174.45,65.05,52.25,274.77,296.3,66.98,52.55,274.96,296.1,1.0
2018-08-28 10:16:00,89.60469,29.676,898.619,266.64,97.6,826.3,6.16,-0.93,-173.96,65.97,52.18,274.77,296.2,66.85,52.49,275.05,296.1,1.0
2018-08-28 10:16:00,89.60469,29.67601,898.634,266.64,97.6,826.2,4.69,-0.82,-173.33,64.86,52.25,274.77,296.16,66.45,52.39,275.18,296.08,1.0
2018-08-28 10:16:00,89.60469,29.67602,898.572,266.65,97.6,826.7,3.55,-0.92,-173.56,65.9,52.38,276.09,295.77,65.8,52.29,275.26,296.07,1.0
2018-08-28 10:16:00,89.60469,29.67604,898.588,266.65,97.6,826.6,3.77,-0.94,-173.87,64.46,51.97,275.63,295.43,64.99,52.19,275.31,296.05,1.0
2018-08-28 10:16:00,89.60469,29.67605,898.631,266.64,97.6,826.2,4.62,-0.93,-174.15,65.25,51.97,275.53,295.77,64.12,52.1,275.33,296.02,1.0
2018-08-28 10:16:00,89.60469,29.67606,898.639,266.64,97.6,826.1,5.43,-0.93,-174.32,64.79,52.04,275.39,296.13,63.31,52.04,275.3,295.99,1.0
2018-08-28 10:16:00,89.60469,29.67607,898.624,266.65,97.6,826.2,5.59,-0.96,-174.28,66.17,51.97,275.04,295.96,62.66,52.01,275.24,295.97,1.0
2018-08-28 10:16:00,89.60469,29.67608,898.652,266.64,97.6,826.0,5.35,-1.03,-173.93,65.77,52.25,274.61,296.18,62.28,52.0,275.15,295.97,1.0
2018-08-28 10:16:00,89.60469,29.67609,898.62,266.65,97.6,826.3,6.93,-1.02,-174.15,65.25,52.25,274.57,296.29,62.22,52.02,274.95,296.03,1.0
2018-08-28 10:16:00,89.60469,29.6761,898.593,266.65,97.6,826.5,7.47,-0.98,-174.54,63.74,52.11,274.85,296.2,62.5,52.05,274.78,296.1,1.0
2018-08-28 10:16:00,89.60469,29.67611,898.601,266.64,97.6,826.4,6.57,-1.02,-174.9,63.94,52.25,274.76,296.2,63.1,52.09,274.63,296.16,1.0
2018-08-28 10:16:00,89.60469,29.67612,898.639,266.64,97.6,826.1,4.28,-1.12,-175.11,64.86,52.11,274.95,296.1,63.93,52.12,274.53,296.2,1.0
2018-08-28 10:16:00,89.60469,29.67612,898.63,266.65,97.6,826.2,0.54,-0.93,-175.13,64.33,51.97,274.68,296.2,64.91,52.15,274.49,296.24,1.0
2018-08-28 10:16:00,89.60469,29.67613,898.63,266.64,97.6,826.2,1.27,-1.1,-175.66,64.92,52.18,274.66,296.29,65.9,52.17,274.52,296.23,1.0
2018-08-28 10:16:00,89.60469,29.67614,898.614,266.65,97.6,826.3,2.71,-1.09,-175.8,64.33,52.11,274.66,296.2,66.79,52.17,274.57,296.2,1.0
2018-08-28 10:16:00,89.60469,29.67615,898.645,266.65,97.6,826.1,4.07,-0.99,-175.48,65.9,52.18,274.57,296.2,67.48,52.16,274.65,296.14,1.0
2018-08-28 10:16:00,89.60469,29.67616,898.721,266.65,97.6,825.4,5.5,-1.01,-174.82,64.53,52.25,274.95,296.0,67.89,52.14,274.72,296.05,1.0
2018-08-28 10:16:00,89.60469,29.67617,898.661,266.65,97.6,825.9,8.04,-1.34,-173.98,64.33,51.97,274.58,295.81,67.98,52.11,274.74,295.95,1.0
2018-08-28 10:16:00,89.60469,29.67618,898.696,266.65,97.6,825.6,10.77,-1.32,-173.57,65.05,52.18,274.76,296.0,67.76,52.08,274.73,295.86,1.0
2018-08-28 10:16:00,89.60469,29.67618,898.623,266.65,97.6,826.3,12.23,-1.44,-173.44,65.77,52.18,274.67,296.1,67.27,52.04,274.7,295.79,1.0
2018-08-28 10:16:00,89.60469,29.67619,898.624,266.65,97.6,826.3,11.42,-1.44,-173.43,65.84,52.18,274.83,296.0,66.6,52.01,274.65,295.76,1.0
2018-08-28 10:16:00,89.60469,29.6762,898.688,266.65,97.6,825.7,9.57,-1.43,-173.45,66.17,51.97,274.81,296.0,65.84,51.98,274.6,295.76,1.0
2018-08-28 10:16:00,89.60469,29.67622,898.626,266.65,97.6,826.2,8.13,-1.54,-173.44,65.25,52.04,274.58,296.29,65.1,51.96,274.55,295.8,1.0
2018-08-28 10:16:00,89.60469,29.67623,898.633,266.64,97.6,826.2,5.6,-1.41,-173.04,65.71,52.11,274.66,296.58,64.47,51.96,274.53,295.88,1.0
2018-08-28 10:16:00,89.60469,29.67625,898.63,266.64,97.6,826.2,5.89,-1.41,-173.36,65.51,52.18,274.57,296.2,64.02,51.97,274.61,295.95,1.0
2018-08-28 10:16:00,89.60469,29.67626,898.627,266.64,97.6,826.2,6.14,-1.35,-173.78,64.07,52.04,274.66,296.1,63.79,52.0,274.72,296.04,1.0
2018-08-28 10:16:00,89.60469,29.67628,898.641,266.64,97.6,826.1,6.0,-1.27,-174.13,64.79,52.38,274.66,296.0,63.78,52.05,274.78,296.12,1.0
2018-08-28 10:16:00,89.60469,29.67629,898.671,266.65,97.6,825.8,5.74,-1.27,-174.2,64.07,52.18,274.76,296.2,63.98,52.12,274.82,296.18,1.0
2018-08-28 10:16:00,89.60469,29.67631,898.653,266.64,97.6,826.0,5.95,-1.53,-173.67,64.92,52.18,274.62,295.99,64.33,52.2,274.91,296.2,1.0
2018-08-28 10:16:00,89.60469,29.67632,898.652,266.64,97.6,826.0,6.13,-1.43,-173.06,66.17,51.83,275.58,295.85,64.76,52.29,274.99,296.19,1.0
2018-08-28 10:16:00,89.60469,29.67633,898.678,266.64,97.6,825.8,6.54,-1.44,-172.8,64.46,51.83,275.27,295.52,65.2,52.37,275.06,296.16,1.0
2018-08-28 10:16:00,89.60469,29.67634,898.657,266.64,97.6,826.0,7.01,-1.47,-172.82,65.12,52.11,274.81,296.0,65.6,52.44,275.11,296.1,1.0
2018-08-28 10:16:00,89.60469,29.67634,898.593,266.65,97.6,826.5,7.41,-1.41,-172.89,65.58,52.18,274.76,296.0,65.9,52.48,275.14,296.05,1.0
2018-08-28 10:16:00,89.60469,29.67635,898.6,266.65,97.6,826.5,7.59,-1.26,-172.8,65.84,52.18,274.58,296.3,66.07,52.5,275.15,296.0,1.0
2018-08-28 10:16:00,89.60469,29.67635,898.638,266.64,97.6,826.1,6.63,-1.33,-172.74,65.25,52.18,274.57,296.19,66.11,52.49,275.13,295.97,1.0
2018-08-28 10:16:00,89.60469,29.67636,898.626,266.65,97.6,826.2,4.16,-1.35,-173.27,64.86,52.38,274.57,296.0,66.03,52.45,275.12,295.99,1.0
2018-08-28 10:16:00,89.60469,29.67637,898.618,266.65,97.6,826.3,0.8,-1.38,-173.96,64.59,52.18,274.66,296.19,65.87,52.38,275.13,295.97,1.0
2018-08-28 10:16:00,89.60469,29.67637,898.62,266.65,97.6,826.3,-1.89,-1.53,-174.61,64.72,52.18,274.75,295.99,65.64,52.31,275.13,295.95,1.0
2018-08-28 10:16:00,89.60469,29.67638,898.614,266.65,97.6,826.3,-2.79,-1.83,-174.9,65.31,52.18,274.85,296.19,65.39,52.23,275.09,295.97,1.0
2018-08-28 10:16:00,89.60469,29.67639,898.631,266.65,97.6,826.2,-3.6,-2.0,-174.39,65.58,52.11,274.85,296.29,65.15,52.15,275.04,295.98,1.0
2018-08-28 10:16:00,89.60469,29.67639,898.646,266.65,97.6,826.1,-2.66,-1.78,-174.19,65.64,52.25,275.54,295.92,64.93,52.09,274.98,295.97,1.0
2018-08-28 10:16:00,89.60469,29.6764,898.664,266.65,97.6,825.9,-2.67,-1.8,-173.94,64.86,52.04,276.0,295.56,64.75,52.04,274.92,295.95,1.0
2018-08-28 10:16:00,89.60469,29.67639,898.657,266.64,97.6,826.0,-3.3,-1.85,-173.95,65.31,52.18,275.37,295.68,64.61,51.99,274.88,295.91,1.0
2018-08-28 10:16:00,89.60469,29.67638,898.626,266.64,97.6,826.2,-3.82,-1.76,-174.11,65.38,52.32,274.74,296.18,64.49,51.96,274.83,295.86,1.0
2018-08-28 10:16:00,89.60469,29.67637,898.682,266.64,97.6,825.7,-3.49,-1.57,-173.81,65.18,52.18,275.1,296.47,64.39,51.93,274.79,295.83,1.0
2018-08-28 10:16:00,89.60469,29.67636,898.65,266.65,97.6,826.0,-3.73,-1.77,-173.37,65.25,51.97,274.43,295.9,64.29,51.89,274.77,295.81,1.0
2018-08-28 10:16:00,89.60469,29.67635,898.669,266.65,97.6,825.9,-4.27,-1.75,-173.09,65.25,52.11,274.85,295.98,64.21,51.85,274.67,295.81,1.0
2018-08-28 10:16:00,89.60469,29.67634,898.664,266.65,97.6,825.9,-5.95,-1.79,-172.99,65.25,51.9,274.47,295.79,64.13,51.8,274.56,295.89,1.0
2018-08-28 10:16:00,89.60469,29.67634,898.636,266.64,97.6,826.1,-7.68,-1.9,-173.01,64.66,52.18,274.46,296.09,64.06,51.75,274.54,296.01,1.0
2018-08-28 10:16:00,89.60469,29.67632,898.73,266.64,97.6,825.3,-7.41,-1.93,-172.98,63.48,52.32,274.83,296.37,64.01,51.71,274.59,296.13,1.0
2018-08-28 10:16:00,89.60469,29.67632,898.711,266.64,97.6,825.5,-7.78,-2.11,-172.96,65.84,52.25,274.74,296.27,63.98,51.7,274.56,296.15,1.0
2018-08-28 10:16:00,89.60469,29.67631,898.657,266.64,97.6,826.0,-6.25,-1.92,-173.11,65.9,52.18,274.83,296.08,63.99,51.72,274.63,296.22,1.0
2018-08-28 10:16:00,89.60469,29.6763,898.683,266.64,97.6,825.7,-3.93,-1.96,-173.39,63.81,52.18,274.55,296.17,64.03,51.79,274.68,296.26,1.0
2018-08-28 10:16:00,89.60469,29.67629,898.71,266.65,97.6,825.5,-2.23,-1.96,-173.58,65.25,52.11,274.77,296.14,64.11,51.9,274.69,296.27,1.0
2018-08-28 10:16:00,89.60469,29.67628,898.635,266.64,97.6,826.1,-2.16,-1.72,-173.65,65.58,51.97,274.84,296.08,64.2,52.07,274.68,296.25,1.0
2018-08-28 10:16:00,89.60469,29.67626,898.611,266.64,97.6,826.4,-3.73,-1.3,-173.97,65.58,51.56,273.62,295.25,64.31,52.26,274.65,296.19,1.0
2018-08-28 10:16:00,89.60469,29.67625,898.619,266.64,97.6,826.3,-3.86,-1.66,-174.2,63.94,51.97,274.45,295.65,64.42,52.47,274.61,296.12,1.0
2018-08-28 10:16:00,89.60469,29.67623,898.606,266.65,97.6,826.4,-4.18,-1.71,-174.15,64.66,52.04,274.37,295.73,64.52,52.67,274.57,296.05,1.0
2018-08-28 10:16:00,89.60469,29.67622,898.63,266.65,97.6,826.2,-4.67,-1.65,-173.65,65.12,52.25,274.55,295.98,64.6,52.84,274.54,295.99,1.0
2018-08-28 10:16:00,89.60469,29.6762,898.692,266.65,97.6,825.7,-5.19,-1.74,-172.98,64.99,52.11,274.55,296.47,64.67,52.96,274.52,295.94,1.0
2018-08-28 10:16:00,89.60469,29.67619,898.651,266.65,97.6,826.0,-5.76,-1.99,-172.63,64.72,52.32,274.64,296.08,64.72,53.01,274.52,295.92,1.0
2018-08-28 10:16:00,89.60469,29.67617,898.703,266.65,97.6,825.6,-5.92,-1.54,-172.52,63.09,52.38,274.64,296.27,64.78,52.99,274.62,296.02,1.0
2018-08-28 10:16:00,89.60469,29.67616,898.665,266.64,97.6,825.9,-5.52,-1.68,-172.89,65.9,52.25,274.83,296.26,64.84,52.91,274.67,296.1,1.0
2018-08-28 10:16:00,89.60469,29.67614,898.62,266.64,97.6,826.3,-4.48,-1.73,-173.09,64.59,52.25,274.83,296.17,64.93,52.77,274.73,296.19,1.0
2018-08-28 10:16:00,89.60469,29.67613,898.625,266.65,97.6,826.2,-3.1,-1.52,-172.97,66.1,52.18,274.92,296.18,65.04,52.6,274.79,296.27,1.0
2018-08-28 10:16:00,89.60469,29.67611,898.695,266.65,97.6,825.6,-1.84,-1.2,-172.58,64.72,52.25,274.74,296.27,65.16,52.42,274.86,296.36,1.0
2018-08-28 10:16:00,89.60469,29.6761,898.696,266.64,97.6,825.6,-1.68,-1.51,-172.15,65.51,52.32,274.83,295.89,65.28,52.26,275.02,296.49,1.0
2018-08-28 10:16:00,89.60469,29.67608,898.748,266.64,97.6,825.2,0.88,-1.31,-171.94,64.86,52.18,274.45,295.88,65.37,52.12,275.1,296.49,1.0
2018-08-28 10:16:00,89.60469,29.67606,898.733,266.64,97.6,825.3,2.66,-1.13,-171.86,63.87,52.25,274.54,296.27,65.4,52.02,275.08,296.43,1.0
2018-08-28 10:16:00,89.60469,29.67604,898.696,266.64,97.6,825.6,3.54,-1.14,-171.89,65.44,52.18,274.65,296.18,65.35,51.95,275.0,296.33,1.0
2018-08-28 10:16:00,89.60469,29.67602,898.705,266.64,97.6,825.5,3.95,-1.26,-171.99,63.74,52.18,275.19,296.18,65.18,51.92,274.91,296.22,1.0
2018-08-28 10:16:00,89.60469,29.676,898.723,266.65,97.6,825.4,4.51,-1.15,-172.16,64.27,52.11,276.43,297.5,64.88,51.92,274.82,296.11,1.0
2018-08-28 10:16:00,89.60469,29.67598,898.735,266.64,97.6,825.3,4.56,-1.01,-172.04,65.58,52.18,275.9,296.36,64.47,51.93,274.74,296.01,1.0
2018-08-28 10:16:00,89.60469,29.67595,898.75,266.64,97.6,825.2,4.35,-1.12,-172.07,64.72,52.18,274.97,296.18,63.96,51.93,274.69,295.95,1.0
2018-08-28 10:16:00,89.60469,29.67593,898.739,266.64,97.6,825.3,4.63,-1.07,-172.33,66.62,52.38,274.54,296.17,63.42,51.93,274.67,295.92,1.0
2018-08-28 10:16:00,89.60469,29.67591,898.7,266.64,97.6,825.6,5.84,-1.0,-172.62,65.64,52.25,274.63,296.07,62.9,51.91,274.71,295.91,1.0
2018-08-28 10:16:00,89.60469,29.67589,898.683,266.65,97.6,825.7,7.74,-1.21,-172.73,64.33,52.18,274.83,295.88,62.47,51.89,274.76,295.92,1.0
2018-08-28 10:16:00,89.60469,29.67587,898.789,266.65,97.6,824.8,8.43,-1.25,-172.96,64.53,52.04,274.55,296.08,62.21,51.86,274.57,295.87,1.0
2018-08-28 10:16:00,89.60469,29.67585,898.756,266.64,97.6,825.1,7.55,-1.26,-172.55,64.33,52.18,274.72,296.0,62.17,51.83,274.56,296.01,1.0
2018-08-28 10:16:00,89.60469,29.67583,898.747,266.64,97.6,825.2,5.56,-1.3,-172.0,64.14,52.11,274.63,296.1,62.39,51.82,274.6,296.09,1.0
2018-08-28 10:16:00,89.60469,29.67581,898.772,266.64,97.6,825.0,3.62,-1.31,-171.7,64.27,52.18,274.71,295.9,62.86,51.84,274.63,296.11,1.0
2018-08-28 10:16:00,89.60469,29.67579,898.767,266.64,97.6,825.0,2.48,-1.28,-171.75,64.46,52.25,275.18,296.1,63.56,51.88,274.63,296.1,1.0
2018-08-28 10:16:00,89.60469,29.67576,898.719,266.64,97.6,825.4,1.62,-1.29,-171.6,63.81,51.97,273.31,295.99,64.43,51.95,274.63,296.06,1.0
2018-08-28 10:16:00,89.60469,29.67571,898.72,266.64,97.6,825.4,-0.2,-1.38,-171.55,63.55,51.97,274.85,296.94,65.38,52.05,274.61,296.02,1.0
2018-08-28 10:16:00,89.60469,29.67566,898.712,266.65,97.6,825.5,-1.38,-1.34,-172.0,65.25,52.11,274.51,296.52,66.32,52.16,274.59,295.97,1.0
2018-08-28 10:16:00,89.60469,29.67561,898.706,266.65,97.6,825.5,-1.51,-1.23,-172.58,65.44,52.18,274.64,295.98,67.13,52.27,274.58,295.94,1.0
2018-08-28 10:16:00,89.60469,29.67556,898.715,266.65,97.6,825.5,-0.21,-1.11,-173.03,64.79,52.11,274.64,296.26,67.74,52.37,274.56,295.94,1.0
2018-08-28 10:16:00,89.60469,29.67551,898.721,266.64,97.6,825.4,2.25,-1.02,-173.35,64.53,52.25,274.54,295.87,68.09,52.45,274.55,295.95,1.0
2018-08-28 10:16:00,89.60469,29.67546,898.684,266.65,97.6,825.7,0.15,-0.91,-173.12,64.27,52.11,274.63,296.35,68.15,52.51,274.7,295.98,1.0
2018-08-28 10:16:00,89.60468,29.67541,898.721,266.65,97.6,825.4,-1.15,-0.69,-173.2,64.92,52.18,274.82,295.96,67.94,52.54,274.73,295.93,1.0
2018-08-28 10:16:00,89.60468,29.67536,898.714,266.65,97.6,825.5,-2.25,-0.67,-173.4,65.71,52.25,274.54,295.96,67.51,52.54,274.79,295.96,1.0
2018-08-28 10:16:00,89.60468,29.67531,898.671,266.65,97.6,825.8,-3.49,-0.8,-173.64,63.87,52.18,274.91,295.96,66.94,52.53,274.87,296.05,1.0
2018-08-28 10:16:00,89.60468,29.67526,898.709,266.64,97.6,825.5,-5.2,-0.92,-173.83,66.49,52.04,274.54,295.96,66.34,52.5,274.93,296.13,1.0
2018-08-28 10:16:00,89.60468,29.67522,898.724,266.64,97.6,825.4,-7.88,-0.85,-173.76,65.58,52.25,274.64,295.77,65.79,52.47,274.97,296.19,1.0
2018-08-28 10:16:00,89.60468,29.67517,898.698,266.65,97.6,825.6,-9.26,-0.92,-174.05,65.12,52.25,274.73,295.96,65.39,52.44,274.99,296.22,1.0
2018-08-28 10:16:00,89.60468,29.67513,898.703,266.65,97.6,825.6,-5.87,-1.06,-174.25,65.77,52.25,274.63,296.26,65.19,52.41,274.97,296.24,1.0
2018-08-28 10:16:00,89.60468,29.67508,898.719,266.64,97.6,825.4,-1.81,-1.11,-174.26,64.53,52.18,274.54,295.87,65.19,52.38,274.93,296.23,1.0
2018-08-28 10:16:00,89.60468,29.67504,898.712,266.64,97.6,825.5,0.36,-1.03,-173.89,64.14,52.18,274.63,296.16,65.39,52.36,274.87,296.2,1.0
2018-08-28 10:16:00,89.60468,29.67499,898.685,266.64,97.6,825.7,1.87,-1.0,-172.82,65.38,52.25,274.65,295.97,65.71,52.34,274.79,296.17,1.0
2018-08-28 10:16:00,89.60468,29.67494,898.715,266.65,97.6,825.5,1.61,-0.86,-172.65,64.07,52.18,274.91,295.87,66.1,52.31,274.6,296.1,1.0
2018-08-28 10:16:00,89.60468,29.6749,898.759,266.64,97.6,825.1,3.67,-0.8,-172.83,66.36,52.18,274.73,295.97,66.45,52.28,274.5,296.07,1.0
2018-08-28 10:16:00,89.60468,29.67485,898.748,266.64,97.6,825.2,6.32,-0.87,-172.95,64.53,52.38,274.82,296.07,66.69,52.24,274.46,296.08,1.0
2018-08-28 10:16:00,89.60468,29.67481,898.704,266.65,97.6,825.5,7.45,-1.0,-172.9,65.64,52.25,274.82,295.97,66.76,52.19,274.43,296.09,1.0
2018-08-28 10:16:00,89.60468,29.67476,898.753,266.64,97.6,825.1,5.53,-1.06,-172.72,64.79,52.32,274.63,295.91,66.64,52.15,274.43,296.14,1.0
2018-08-28 10:16:00,89.60468,29.67472,898.693,266.64,97.6,825.6,3.36,-1.21,-172.52,66.43,51.97,272.97,295.71,66.34,52.11,274.56,296.29,1.0
2018-08-28 10:16:00,89.60468,29.67467,898.684,266.64,97.6,825.7,3.47,-1.21,-172.76,65.51,52.32,274.12,295.74,65.91,52.09,274.6,296.36,1.0
2018-08-28 10:16:00,89.60468,29.67462,898.738,266.64,97.6,825.3,4.72,-1.15,-172.82,64.86,52.25,274.64,296.17,65.42,52.09,274.61,296.4,1.0
2018-08-28 10:16:00,89.60468,29.67457,898.804,266.65,97.6,824.7,5.89,-1.18,-172.45,65.97,52.18,274.82,296.16,64.95,52.1,274.63,296.44,1.0
2018-08-28 10:16:00,89.60468,29.67452,898.821,266.65,97.6,824.5,6.5,-1.34,-171.75,66.1,52.18,274.68,296.38,64.59,52.14,274.64,296.46,1.0
2018-08-28 10:16:00,89.60468,29.67447,898.755,266.64,97.6,825.1,7.38,-1.12,-171.29,64.27,52.04,276.04,297.15,64.4,52.2,274.65,296.47,1.0
2018-08-28 10:16:00,89.60468,29.67443,898.682,266.64,97.6,825.7,8.71,-1.41,-171.37,64.92,52.32,274.89,296.19,64.4,52.27,274.62,296.48,1.0
2018-08-28 10:16:00,89.60468,29.67438,898.667,266.64,97.6,825.9,10.03,-1.41,-171.72,65.31,52.25,274.81,296.16,64.6,52.34,274.7,296.56,1.0
2018-08-28 10:16:00,89.60468,29.67433,898.701,266.64,97.6,825.6,9.65,-1.22,-172.18,65.51,52.25,274.71,296.07,64.94,52.4,274.81,296.66,1.0
2018-08-28 10:16:00,89.60468,29.67428,898.748,266.64,97.6,825.2,7.43,-1.06,-172.6,64.4,52.25,274.34,296.17,65.37,52.45,274.92,296.76,1.0
2018-08-28 10:16:00,89.60468,29.67423,898.768,266.64,97.6,825.0,4.46,-1.02,-172.88,65.31,52.18,274.6,296.13,65.79,52.48,275.0,296.83,1.0
2018-08-28 10:16:00,89.60468,29.67418,898.774,266.64,97.6,824.9,2.93,-1.13,-173.11,65.9,52.11,272.59,295.86,66.13,52.49,274.91,296.69,1.0
2018-08-28 10:16:00,89.60468,29.67413,898.734,266.64,97.6,825.3,3.28,-1.03,-173.29,65.51,52.18,274.88,297.04,66.31,52.47,274.98,296.65,1.0
2018-08-28 10:16:00,89.60468,29.67408,898.754,266.64,97.6,825.1,3.87,-1.01,-173.43,65.05,52.38,276.04,297.44,66.31,52.45,275.02,296.62,1.0
2018-08-28 10:16:00,89.60468,29.67403,898.779,266.64,97.6,824.9,4.07,-1.14,-173.43,64.4,52.32,275.9,297.66,66.12,52.41,275.03,296.6,1.0
2018-08-28 10:16:00,89.60468,29.67398,898.663,266.64,97.6,825.9,3.89,-1.29,-173.24,65.44,52.32,275.63,297.44,65.79,52.38,275.04,296.61,1.0
2018-08-28 10:16:00,89.60468,29.67393,898.695,266.64,97.6,825.6,3.16,-1.24,-173.34,66.36,52.25,275.09,296.46,65.37,52.35,275.07,296.72,1.0
2018-08-28 10:16:00,89.60468,29.67388,898.745,266.64,97.6,825.2,4.52,-1.27,-173.76,64.4,52.18,275.51,295.87,64.95,52.34,275.25,296.83,1.0
2018-08-28 10:16:00,89.60468,29.67383,898.774,266.64,97.6,824.9,5.23,-1.34,-174.12,67.47,52.25,275.1,296.45,64.62,52.34,275.23,296.82,1.0
2018-08-28 10:16:00,89.60468,29.67378,898.756,266.64,97.6,825.1,5.53,-1.35,-174.42,65.44,52.18,274.9,295.87,64.45,52.36,275.12,296.7,1.0
2018-08-28 10:16:00,89.60468,29.67373,898.704,266.64,97.6,825.5,5.44,-1.26,-174.6,65.31,52.38,274.52,296.6,64.47,52.38,275.0,296.54,1.0
2018-08-28 10:16:00,89.60468,29.67367,898.738,266.65,97.6,825.3,4.27,-1.14,-174.5,65.31,52.25,274.67,297.32,64.68,52.41,274.89,296.44,1.0
2018-08-28 10:16:00,89.60468,29.67362,898.776,266.64,97.6,824.9,3.41,-1.31,-174.78,62.76,52.32,274.71,297.35,65.05,52.43,274.81,296.39,1.0
2018-08-28 10:16:00,89.60468,29.67357,898.778,266.64,97.6,824.9,2.11,-1.13,-174.92,65.05,52.25,274.9,297.48,65.5,52.45,274.68,296.33,1.0
2018-08-28 10:16:00,89.60468,29.67353,898.796,266.64,97.6,824.8,1.03,-0.95,-174.98,65.64,52.25,274.71,296.4,65.95,52.44,274.65,296.28,1.0
2018-08-28 10:16:00,89.60468,29.6735,898.808,266.64,97.6,824.7,0.37,-0.9,-174.98,65.44,52.18,274.62,296.0,66.31,52.41,274.69,296.26,1.0
2018-08-28 10:16:00,89.60468,29.67347,898.711,266.64,97.6,825.5,0.18,-0.94,-174.95,65.31,52.25,274.72,296.84,66.48,52.37,274.73,296.24,1.0
2018-08-28 10:16:00,89.60468,29.67344,898.8,266.64,97.6,824.7,1.23,-0.61,-175.25,65.77,52.38,274.54,296.37,66.44,52.31,274.82,296.03,1.0
2018-08-28 10:16:00,89.60468,29.67341,898.788,266.65,97.6,824.8,0.63,-0.51,-175.51,66.1,52.38,274.62,296.14,66.16,52.24,274.81,295.89,1.0
2018-08-28 10:16:00,89.60468,29.67339,898.798,266.65,97.6,824.7,-0.12,-0.56,-175.84,65.38,52.45,275.48,296.15,65.69,52.17,274.8,295.78,1.0
2018-08-28 10:16:00,89.60468,29.67336,898.814,266.65,97.6,824.6,-0.7,-0.67,-176.14,65.51,52.25,275.75,296.4,65.08,52.1,274.78,295.67,1.0
2018-08-28 10:16:00,89.60468,29.67333,898.77,266.64,97.6,825.0,-1.24,-0.74,-176.3,66.1,52.11,275.73,296.37,64.44,52.06,274.8,295.59,1.0
2018-08-28 10:16:00,89.60468,29.6733,898.746,266.65,97.6,825.2,-2.46,-0.77,-176.39,65.51,52.32,276.14,295.33,63.87,52.03,274.96,295.68,1.0
2018-08-28 10:16:00,89.60468,29.67327,898.757,266.64,97.6,825.1,-0.83,-0.92,-176.63,63.22,52.38,274.85,296.06,63.46,52.03,275.02,295.84,1.0
2018-08-28 10:16:00,89.60468,29.67324,898.726,266.65,97.6,825.4,-0.35,-0.87,-176.44,66.1,52.04,274.72,295.87,63.28,52.05,275.13,295.93,1.0
2018-08-28 10:16:00,89.60468,29.67322,898.719,266.65,97.6,825.4,-0.09,-0.85,-176.22,65.9,52.25,274.27,295.02,63.37,52.08,275.16,295.99,1.0
2018-08-28 10:16:00,89.60468,29.67319,898.763,266.64,97.6,825.0,0.86,-0.95,-175.99,65.44,52.32,274.43,295.21,63.69,52.13,275.14,296.07,1.0
2018-08-28 10:16:00,89.60468,29.67316,898.776,266.65,97.6,824.9,3.16,-1.1,-175.53,64.27,52.11,275.8,297.26,64.21,52.19,275.19,296.2,1.0
2018-08-28 10:16:00,89.60468,29.67313,898.77,266.64,97.6,825.0,4.26,-0.82,-175.63,64.33,52.38,274.66,297.36,64.83,52.24,275.07,296.32,1.0
2018-08-28 10:16:00,89.60468,29.6731,898.771,266.64,97.6,825.0,3.86,-0.68,-175.68,64.33,52.25,275.03,296.43,65.46,52.28,275.04,296.38,1.0
2018-08-28 10:16:00,89.60468,29.67305,898.76,266.64,97.6,825.1,3.06,-0.59,-175.86,66.95,52.25,274.81,295.87,65.98,52.31,275.04,296.43,1.0
2018-08-28 10:16:00,89.60468,29.67297,898.745,266.64,97.6,825.2,3.22,-0.5,-175.92,65.25,52.11,275.21,296.31,66.33,52.33,275.07,296.52,1.0
2018-08-28 10:16:00,89.60468,29.67288,898.756,266.64,97.6,825.1,5.24,-0.4,-175.58,64.14,52.25,276.05,296.98,66.45,52.33,275.11,296.58,1.0
2018-08-28 10:16:00,89.60468,29.6728,898.766,266.64,97.6,825.0,8.07,-0.44,-175.26,64.07,52.45,274.57,295.92,66.33,52.32,275.1,296.45,1.0
2018-08-28 10:16:00,89.60468,29.67271,898.75,266.65,97.6,825.1,11.16,-0.59,-174.88,65.64,52.25,274.8,295.97,66.02,52.3,275.08,296.41,1.0
2018-08-28 10:16:00,89.60468,29.67263,898.755,266.64,97.6,825.1,12.03,-0.57,-174.59,67.15,52.25,274.8,296.16,65.56,52.28,275.02,296.39,1.0
2018-08-28 10:16:00,89.60467,29.67254,898.782,266.64,97.6,824.9,11.23,-0.55,-174.64,66.1,52.25,274.71,295.9,65.06,52.26,275.01,296.36,1.0
2018-08-28 10:16:00,89.60467,29.67246,898.808,266.65,97.6,824.6,8.65,-0.58,-175.06,65.31,52.25,274.85,295.82,64.6,52.25,274.97,296.28,1.0
2018-08-28 10:16:00,89.60467,29.67237,898.765,266.65,97.6,825.0,2.59,-0.52,-175.52,64.92,52.25,275.67,295.81,64.25,52.25,274.85,296.13,1.0
2018-08-28 10:16:00,89.60467,29.6723,898.689,266.65,97.6,825.7,-1.87,-0.46,-176.25,64.86,52.18,274.28,296.98,64.08,52.26,274.83,296.1,1.0
2018-08-28 10:16:00,89.60467,29.67223,898.692,266.65,97.6,825.6,-4.21,-0.67,-177.01,64.27,52.18,274.37,296.51,64.1,52.28,274.8,296.09,1.0
2018-08-28 10:16:00,89.60467,29.67217,898.75,266.65,97.6,825.1,-2.99,-0.82,-177.18,64.14,52.38,274.58,296.16,64.29,52.3,274.73,296.15,1.0
2018-08-28 10:16:00,89.60467,29.6721,898.809,266.64,97.6,824.6,0.08,-0.91,-176.71,66.1,52.25,274.68,295.86,64.61,52.33,274.6,296.25,1.0
2018-08-28 10:16:00,89.60467,29.67203,898.799,266.65,97.6,824.7,1.62,-1.08,-176.01,64.72,52.38,274.6,296.25,64.99,52.36,274.4,296.33,1.0
2018-08-28 10:16:00,89.60467,29.67197,898.787,266.64,97.6,824.8,0.01,-1.05,-175.57,65.38,52.18,274.79,296.16,65.34,52.39,274.27,296.5,1.0
2018-08-28 10:16:00,89.60467,29.6719,898.809,266.64,97.6,824.6,0.07,-1.05,-175.49,65.71,52.25,274.89,296.36,65.59,52.41,274.28,296.54,1.0
2018-08-28 10:16:00,89.60467,29.67184,898.842,266.64,97.6,824.3,2.39,-0.96,-175.49,64.99,52.25,274.38,296.89,65.71,52.43,274.3,296.4,1.0
2018-08-28 10:16:00,89.60467,29.67177,898.842,266.64,97.6,824.4,4.24,-0.91,-175.27,65.25,52.18,273.94,296.71,65.65,52.43,274.31,296.23,1.0
2018-08-28 10:16:00,89.60467,29.6717,898.769,266.64,97.6,825.0,3.9,-1.02,-174.73,65.51,52.25,273.26,296.09,65.42,52.42,274.32,296.12,1.0
2018-08-28 10:16:00,89.60467,29.67164,898.736,266.64,97.6,825.3,4.81,-1.27,-174.46,64.2,52.38,274.62,297.61,65.08,52.4,274.32,296.0,1.0
2018-08-28 10:16:00,89.60467,29.67157,898.764,266.65,97.6,825.0,3.97,-1.38,-174.48,65.44,52.45,274.8,297.01,64.66,52.36,274.39,295.92,1.0
2018-08-28 10:16:00,89.60467,29.67151,898.766,266.65,97.6,825.0,3.53,-1.5,-174.71,65.51,52.25,274.47,294.88,64.25,52.31,274.53,295.84,1.0
2018-08-28 10:16:00,89.60467,29.67144,898.76,266.65,97.6,825.1,3.29,-1.57,-174.92,64.99,52.38,274.72,293.8,63.91,52.25,274.61,295.7,1.0
2018-08-28 10:16:00,89.60467,29.67137,898.776,266.65,97.6,824.9,2.72,-1.48,-174.96,65.77,52.32,274.75,295.12,63.71,52.18,274.65,295.56,1.0
2018-08-28 10:16:00,89.60467,29.6713,898.794,266.64,97.6,824.8,1.33,-1.24,-174.81,65.25,52.04,274.37,294.95,63.66,52.12,274.73,295.46,1.0
2018-08-28 10:16:00,89.60467,29.67124,898.829,266.64,97.6,824.5,-0.17,-1.39,-174.53,64.92,52.25,275.06,295.61,63.8,52.08,274.68,295.28,1.0
2018-08-28 10:16:00,89.60467,29.67117,898.833,266.64,97.6,824.4,0.16,-1.39,-174.7,64.53,52.18,275.99,295.9,64.09,52.05,274.59,295.11,1.0
2018-08-28 10:16:00,89.60467,29.6711,898.807,266.64,97.6,824.6,1.02,-1.31,-174.92,64.4,52.38,275.47,295.94,64.52,52.04,274.53,295.13,1.0
2018-08-28 10:16:00,89.60467,29.67103,898.785,266.64,97.6,824.8,1.61,-1.31,-174.91,64.46,52.32,274.54,295.94,65.03,52.05,274.61,295.21,1.0
2018-08-28 10:16:00,89.60467,29.67097,898.81,266.64,97.6,824.6,1.82,-1.53,-174.6,65.25,52.25,274.73,296.14,65.58,52.09,274.81,295.26,1.0
2018-08-28 10:16:00,89.60467,29.6709,898.791,266.64,97.6,824.8,3.68,-1.72,-174.59,64.53,52.38,274.73,296.14,66.12,52.15,274.87,295.28,1.0
2018-08-28 10:16:00,89.60467,29.67083,898.855,266.65,97.6,824.2,2.32,-1.7,-174.73,65.44,52.25,274.28,295.56,66.63,52.22,274.89,295.32,1.0
2018-08-28 10:16:00,89.60467,29.67076,898.833,266.65,97.6,824.4,-0.47,-1.81,-175.07,65.51,52.38,274.49,295.08,67.08,52.29,274.84,295.36,1.0
2018-08-28 10:16:00,89.60467,29.6707,898.773,266.65,97.6,824.9,-4.12,-1.93,-175.27,65.84,52.11,275.42,294.83,67.48,52.36,274.85,295.39,1.0
2018-08-28 10:16:00,89.60467,29.67064,898.773,266.64,97.6,824.9,-7.56,-1.93,-175.34,64.0,51.83,276.17,294.93,67.83,52.42,274.93,295.43,1.0
2018-08-28 10:16:00,89.60467,29.67059,898.83,266.64,97.6,824.5,-8.97,-1.88,-175.96,65.77,52.18,274.19,294.55,68.15,52.46,274.98,295.47,1.0
2018-08-28 10:16:00,89.60467,29.67055,898.83,266.64,97.6,824.5,-7.24,-2.14,-176.11,65.05,52.45,274.5,295.3,68.42,52.48,275.0,295.5,1.0
2018-08-28 10:16:00,89.60467,29.6705,898.822,266.65,97.6,824.5,-5.73,-2.22,-176.0,64.79,52.38,274.62,295.64,68.67,52.49,275.04,295.54,1.0
2018-08-28 10:16:00,89.60467,29.67045,898.814,266.65,97.6,824.6,-3.77,-2.21,-175.7,66.69,52.25,274.72,295.79,68.86,52.48,275.09,295.59,1.0
2018-08-28 10:16:00,89.60467,29.6704,898.785,266.64,97.6,824.8,-2.5,-2.06,-175.43,66.17,52.38,274.64,295.92,68.98,52.47,275.05,295.62,1.0
2018-08-28 10:16:00,89.60467,29.67035,898.696,266.64,97.6,825.6,-3.75,-1.78,-175.45,64.72,52.32,274.54,295.84,68.99,52.46,274.91,295.7,1.0
2018-08-28 10:16:00,89.60467,29.67031,898.803,266.65,97.6,824.7,-4.71,-2.01,-175.56,65.38,52.52,274.73,295.67,68.87,52.46,274.75,295.81,1.0
2018-08-28 10:16:00,89.60467,29.67026,898.766,266.64,97.6,825.0,-5.65,-1.94,-175.83,65.9,52.25,274.54,296.15,68.59,52.46,274.69,295.84,1.0
2018-08-28 10:16:00,89.60467,29.67021,898.771,266.64,97.6,825.0,-8.02,-2.03,-175.99,65.71,52.25,275.4,295.23,68.12,52.47,274.66,295.87,1.0
2018-08-28 10:16:00,89.60466,29.67016,898.819,266.64,97.6,824.5,-11.58,-2.34,-176.12,66.03,52.04,275.79,295.43,67.49,52.49,274.65,295.89,1.0
2018-08-28 10:16:00,89.60466,29.67012,898.813,266.64,97.6,824.6,-15.47,-2.66,-176.33,67.34,52.25,275.4,295.89,66.72,52.5,274.66,295.92,1.0
2018-08-28 10:16:00,89.60466,29.67006,898.823,266.64,97.6,824.5,-18.5,-2.35,-176.61,66.69,52.38,273.41,296.23,65.86,52.5,274.69,295.94,1.0
2018-08-28 10:16:00,89.60466,29.67002,898.819,266.64,97.6,824.5,-21.18,-2.72,-176.19,66.03,52.18,274.41,296.0,64.98,52.48,274.72,295.97,1.0
2018-08-28 10:16:00,89.60466,29.66996,898.824,266.65,97.6,824.5,-22.5,-2.88,-176.01,65.58,52.38,274.82,296.24,64.14,52.45,274.74,296.01,1.0
2018-08-28 10:16:00,89.60466,29.66992,898.856,266.65,97.6,824.2,-23.73,-2.75,-176.17,65.51,52.52,274.73,296.14,63.42,52.39,274.71,296.09,1.0
2018-08-28 10:16:00,89.60466,29.66986,898.892,266.64,97.6,823.9,-24.61,-2.64,-176.42,65.64,52.38,274.63,295.94,62.89,52.33,274.56,296.18,1.0
2018-08-28 10:16:00,89.60466,29.66981,898.819,266.64,97.6,824.5,-23.28,-3.05,-176.29,65.44,52.25,274.63,295.94,62.58,52.27,274.36,296.21,1.0
2018-08-28 10:16:00,89.60466,29.66976,898.841,266.65,97.6,824.4,-22.92,-3.02,-176.09,66.3,52.45,274.54,295.74,62.51,52.21,274.43,296.18,1.0
2018-08-28 10:16:00,89.60466,29.66971,898.841,266.65,97.6,824.4,-21.76,-2.9,-176.07,65.58,52.38,274.54,296.23,62.67,52.18,274.36,296.24,1.0
2018-08-28 10:16:00,89.60466,29.66966,898.858,266.65,97.6,824.2,-19.99,-2.8,-176.06,64.46,52.25,274.64,295.95,63.03,52.18,274.21,296.27,1.0
2018-08-28 10:16:00,89.60466,29.66961,898.847,266.64,97.6,824.3,-18.44,-2.76,-176.03,65.64,52.25,274.17,296.35,63.53,52.2,274.05,296.24,1.0
2018-08-28 10:16:00,89.60466,29.66956,898.731,266.64,97.6,825.3,-17.73,-2.77,-176.05,65.9,52.18,273.58,296.46,64.11,52.26,273.93,296.22,1.0
2018-08-28 10:16:00,89.60466,29.66951,898.845,266.65,97.6,824.3,-16.56,-2.69,-176.17,64.66,52.38,274.5,295.94,64.7,52.33,273.86,296.21,1.0
2018-08-28 10:16:00,89.60466,29.66946,898.861,266.65,97.6,824.2,-14.51,-2.65,-176.21,65.58,52.25,274.15,297.25,65.25,52.41,273.71,296.19,1.0
2018-08-28 10:16:00,89.60466,29.66941,898.823,266.65,97.6,824.5,-14.49,-2.78,-176.34,65.25,52.32,273.68,296.67,65.71,52.48,273.65,296.17,1.0
2018-08-28 10:16:00,89.60466,29.66936,898.791,266.64,97.6,824.8,-16.49,-2.87,-176.82,65.12,52.18,273.2,296.25,66.06,52.51,273.65,296.16,1.0
2018-08-28 10:16:00,89.60466,29.66931,898.822,266.64,97.6,824.5,-18.47,-2.78,-177.5,65.25,52.32,273.82,296.36,66.31,52.51,273.72,296.16,1.0
2018-08-28 10:16:00,89.60466,29.66925,898.815,266.65,97.6,824.6,-17.32,-2.88,-177.5,65.44,52.38,274.32,296.79,66.46,52.46,273.85,296.15,1.0
2018-08-28 10:16:00,89.60466,29.6692,898.856,266.64,97.6,824.2,-15.47,-2.73,-177.22,65.71,52.38,273.34,296.16,66.54,52.37,273.83,296.18,1.0
2018-08-28 10:16:00,89.60466,29.66914,898.837,266.64,97.6,824.4,-12.33,-2.43,-176.73,65.05,52.45,274.0,296.18,66.58,52.25,273.86,296.08,1.0
2018-08-28 10:16:00,89.60466,29.66909,898.85,266.64,97.6,824.3,-9.69,-2.39,-176.21,67.47,52.32,274.44,295.94,66.59,52.13,274.04,296.02,1.0
2018-08-28 10:16:00,89.60466,29.66903,898.904,266.64,97.6,823.8,-7.88,-2.49,-175.81,65.12,52.52,274.63,295.84,66.59,52.01,274.27,296.01,1.0
2018-08-28 10:16:00,89.60466,29.66898,898.847,266.65,97.6,824.3,-6.46,-2.29,-175.68,64.86,52.32,274.73,295.71,66.58,51.93,274.34,295.96,1.0
2018-08-28 10:16:00,89.60466,29.66892,898.825,266.65,97.6,824.5,-8.09,-2.44,-175.93,65.58,52.38,273.8,295.61,66.53,51.9,274.38,295.85,1.0
2018-08-28 10:16:00,89.60466,29.66887,898.841,266.65,97.6,824.4,-11.05,-2.43,-176.03,64.72,52.32,273.59,295.36,66.41,51.93,274.53,295.78,1.0
2018-08-28 10:16:00,89.60466,29.66882,898.85,266.65,97.6,824.3,-13.38,-2.5,-176.11,66.17,52.04,274.95,295.31,66.19,52.02,274.59,295.71,1.0
2018-08-28 10:16:00,89.60466,29.66878,898.832,266.64,97.5,824.4,-14.47,-2.62,-176.15,65.31,51.83,275.02,295.88,65.85,52.15,274.6,295.65,1.0
2018-08-28 10:16:00,89.60466,29.66873,898.843,266.64,97.6,824.3,-15.15,-2.67,-176.07,66.3,52.32,273.99,295.63,65.37,52.32,274.6,295.61,1.0
2018-08-28 10:16:00,89.60466,29.66869,898.858,266.64,97.6,824.2,-16.21,-2.91,-175.7,65.44,52.25,274.59,295.47,64.77,52.5,274.61,295.59,1.0
2018-08-28 10:16:00,89.60466,29.66864,898.826,266.65,97.6,824.5,-16.6,-2.79,-175.48,66.23,52.38,274.53,295.95,64.07,52.66,274.68,295.61,1.0
2018-08-28 10:16:00,89.60466,29.6686,898.817,266.64,97.6,824.6,-17.42,-2.77,-175.7,66.1,52.45,274.41,295.7,63.34,52.79,274.76,295.69,1.0
2018-08-28 10:16:00,89.60466,29.66855,898.83,266.64,97.6,824.5,-18.98,-2.85,-176.12,65.97,52.32,274.54,296.05,62.66,52.87,274.73,295.77,1.0
2018-08-28 10:16:00,89.60466,29.66851,898.847,266.65,97.6,824.3,-21.57,-2.92,-176.52,64.53,52.45,274.71,295.94,62.11,52.89,274.68,295.83,1.0
2018-08-28 10:16:00,89.60465,29.66846,898.863,266.64,97.6,824.2,-24.89,-2.78,-176.61,65.77,52.25,274.62,296.33,61.78,52.87,274.74,295.92,1.0
2018-08-28 10:16:00,89.60465,29.66842,898.871,266.65,97.6,824.1,-24.09,-3.06,-176.75,64.92,52.45,274.62,295.94,61.73,52.8,274.78,296.01,1.0
2018-08-28 10:16:00,89.60465,29.66837,898.912,266.65,97.6,823.7,-21.02,-3.19,-176.58,64.33,52.32,274.62,295.94,61.99,52.7,274.81,296.08,1.0
2018-08-28 10:16:00,89.60465,29.66833,898.927,266.65,97.6,823.6,-19.22,-3.1,-176.23,64.66,52.38,274.71,295.94,62.57,52.61,274.82,296.12,1.0
2018-08-28 10:16:00,89.60465,29.66828,898.916,266.65,97.6,823.7,-18.47,-2.88,-175.71,65.31,52.38,274.52,295.84,63.42,52.52,274.83,296.13,1.0
2018-08-28 10:16:00,89.60465,29.6682,898.922,266.65,97.6,823.6,-17.24,-2.64,-175.11,65.44,52.32,274.61,295.65,64.46,52.46,274.82,296.11,1.0
2018-08-28 10:16:00,89.60465,29.66812,898.81,266.64,97.6,824.6,-14.1,-2.36,-174.79,64.14,52.52,274.71,296.12,65.58,52.42,274.8,296.07,1.0
2018-08-28 10:16:00,89.60465,29.66804,898.869,266.65,97.6,824.1,-12.29,-2.41,-174.82,65.12,52.25,274.62,296.13,66.66,52.42,274.76,295.96,1.0
2018-08-28 10:16:00,89.60465,29.66796,898.836,266.65,97.6,824.4,-13.36,-2.44,-174.91,64.72,52.45,274.71,295.94,67.58,52.43,274.72,295.89,1.0
2018-08-28 10:16:00,89.60465,29.66787,898.789,266.65,97.6,824.8,-15.34,-2.44,-175.11,65.38,52.25,274.62,296.13,68.23,52.46,274.67,295.86,1.0
2018-08-28 10:16:00,89.60465,29.66779,898.851,266.64,97.6,824.3,-16.68,-2.4,-175.47,64.27,52.38,274.8,295.64,68.57,52.49,274.63,295.84,1.0
2018-08-28 10:16:00,89.60465,29.66771,898.88,266.64,97.6,824.0,-17.61,-2.22,-176.09,67.15,52.45,274.52,296.09,68.56,52.51,274.59,295.84,1.0
2018-08-28 10:16:00,89.60465,29.66763,898.859,266.64,97.6,824.2,-16.82,-2.42,-176.31,64.72,52.38,274.73,295.21,68.23,52.51,274.56,295.95,1.0
2018-08-28 10:16:00,89.60465,29.66759,898.853,266.64,97.6,824.2,-17.01,-2.35,-176.47,64.33,52.38,274.49,295.55,67.65,52.49,274.62,295.99,1.0
2018-08-28 10:16:00,89.60465,29.66754,898.865,266.64,97.6,824.1,-18.67,-2.33,-176.54,65.97,52.38,274.52,295.85,66.92,52.46,274.64,295.9,1.0
2018-08-28 10:16:00,89.60465,29.6675,898.882,266.65,97.6,824.0,-19.84,-2.49,-176.68,67.15,52.59,274.62,295.74,66.13,52.42,274.58,295.79,1.0
2018-08-28 10:16:00,89.60465,29.66745,898.899,266.65,97.6,823.8,-18.33,-2.71,-177.08,66.89,52.38,274.62,296.15,65.39,52.38,274.47,295.84,1.0
2018-08-28 10:16:00,89.60465,29.6674,898.862,266.64,97.6,824.2,-18.02,-2.51,-177.26,64.86,52.45,274.81,297.19,64.79,52.36,274.38,295.89,1.0
2018-08-28 10:16:00,89.60465,29.66736,898.926,266.64,97.6,823.6,-19.87,-2.71,-177.29,65.71,52.18,275.55,296.21,64.38,52.35,274.29,296.0,1.0
2018-08-28 10:16:00,89.60465,29.66731,898.941,266.64,97.5,823.5,-19.75,-2.79,-177.06,64.33,52.38,274.96,294.58,64.16,52.37,274.22,296.03,1.0
2018-08-28 10:16:00,89.60465,29.66727,898.919,266.64,97.5,823.7,-18.55,-2.81,-176.97,64.53,52.38,273.92,294.4,64.13,52.4,274.2,296.01,1.0
2018-08-28 10:16:00,89.60465,29.66722,898.954,266.65,97.6,823.4,-17.62,-2.83,-177.22,65.31,52.32,273.26,296.33,64.22,52.45,274.2,296.0,1.0
2018-08-28 10:16:00,89.60465,29.66718,898.918,266.65,97.6,823.7,-14.95,-2.58,-177.11,66.56,52.45,273.66,296.46,64.37,52.5,274.15,295.97,1.0
2018-08-28 10:16:00,89.60465,29.66713,898.862,266.65,97.6,824.2,-14.75,-2.66,-177.3,65.18,52.38,273.36,296.36,64.52,52.55,274.1,295.86,1.0
2018-08-28 10:16:00,89.60465,29.66708,898.839,266.65,97.6,824.4,-16.21,-2.64,-177.42,64.92,52.52,273.52,296.12,64.61,52.58,273.97,295.83,1.0
2018-08-28 10:16:00,89.60465,29.66704,898.874,266.64,97.6,824.1,-16.54,-2.66,-177.75,64.33,52.38,274.22,295.68,64.61,52.59,273.89,295.96,1.0
2018-08-28 10:16:00,89.60465,29.66701,898.949,266.64,97.6,823.4,-14.41,-2.77,-178.2,65.97,52.52,274.3,295.86,64.53,52.58,273.9,296.1,1.0
2018-08-28 10:16:00,89.60465,29.66697,898.914,266.65,97.6,823.7,-12.28,-2.78,-178.06,65.71,52.25,273.78,295.75,64.38,52.54,273.96,296.08,1.0
2018-08-28 10:16:00,89.60465,29.66693,898.912,266.64,97.6,823.7,-11.34,-2.39,-177.56,65.25,52.38,273.83,295.78,64.22,52.49,274.02,296.06,1.0
2018-08-28 10:16:00,89.60465,29.66689,898.937,266.65,97.6,823.5,-14.56,-2.46,-177.27,66.1,52.52,273.75,295.91,64.1,52.43,274.09,296.0,1.0
2018-08-28 10:16:00,89.60465,29.66686,898.936,266.65,97.6,823.5,-18.16,-2.76,-177.7,66.17,52.45,274.08,295.78,64.09,52.36,274.14,295.98,1.0
2018-08-28 10:16:00,89.60465,29.66682,898.902,266.64,97.6,823.8,-21.08,-3.11,-178.6,64.33,52.45,274.17,295.93,64.21,52.3,274.15,295.96,1.0
2018-08-28 10:16:00,89.60465,29.66678,898.869,266.64,97.6,824.1,-23.12,-3.42,-179.38,64.4,52.25,274.26,295.85,64.49,52.25,274.14,295.92,1.0
2018-08-28 10:16:00,89.60465,29.66674,898.892,266.65,97.6,823.9,-23.24,-3.49,-179.63,63.81,52.59,274.38,295.87,64.93,52.22,274.2,295.89,1.0
2018-08-28 10:16:00,89.60464,29.6667,898.904,266.64,97.6,823.8,-21.29,-3.54,-179.52,65.05,52.38,274.59,295.83,65.47,52.2,274.15,295.86,1.0
2018-08-28 10:16:00,89.60464,29.66667,898.84,266.64,97.6,824.4,-18.29,-3.37,-179.16,64.86,52.32,274.49,296.07,66.08,52.2,274.17,295.88,1.0
2018-08-28 10:16:00,89.60464,29.66663,898.8,266.65,97.6,824.7,-15.45,-3.21,-178.6,66.17,52.38,274.71,296.02,66.66,52.22,274.25,295.9,1.0
2018-08-28 10:16:00,89.60464,29.66659,898.895,266.65,97.6,823.9,-13.98,-3.21,-178.03,66.03,52.45,274.9,295.92,67.17,52.25,274.34,295.89,1.0
2018-08-28 10:16:00,89.60464,29.66655,898.907,266.65,97.6,823.8,-14.06,-3.24,-177.78,64.07,52.38,274.47,296.22,67.53,52.29,274.4,295.88,1.0
2018-08-28 10:16:00,89.60464,29.66651,898.865,266.65,97.6,824.1,-13.76,-3.03,-177.79,66.17,52.38,273.5,295.79,67.72,52.34,274.38,295.78,1.0
2018-08-28 10:16:00,89.60464,29.66648,898.883,266.65,97.6,824.0,-15.1,-3.21,-177.81,64.86,52.25,274.0,296.49,67.73,52.39,274.45,295.75,1.0
2018-08-28 10:16:00,89.60464,29.66644,898.924,266.65,97.6,823.6,-17.06,-3.29,-177.55,66.1,52.25,274.51,296.22,67.56,52.45,274.51,295.76,1.0
2018-08-28 10:16:00,89.60464,29.66641,898.934,266.64,97.6,823.5,-19.42,-3.16,-177.04,65.9,52.59,274.61,296.22,67.27,52.52,274.5,295.79,1.0
2018-08-28 10:16:00,89.60464,29.66637,898.889,266.65,97.6,823.9,-21.93,-3.09,-176.67,64.27,52.38,274.71,295.81,66.9,52.59,274.46,295.82,1.0
2018-08-28 10:16:00,89.60464,29.66634,898.901,266.65,97.6,823.8,-16.51,-3.15,-176.8,66.56,52.52,273.81,295.0,66.5,52.66,274.37,295.83,1.0
2018-08-28 10:16:00,89.60464,29.6663,898.891,266.65,97.6,823.9,-12.36,-3.07,-176.69,65.84,52.25,274.66,295.36,66.13,52.73,274.42,295.84,1.0
2018-08-28 10:16:00,89.60464,29.66627,898.868,266.65,97.6,824.1,-7.74,-3.03,-176.19,65.97,52.45,274.91,295.58,65.82,52.79,274.43,295.78,1.0
2018-08-28 10:16:00,89.60464,29.66624,898.89,266.65,97.6,823.9,-4.89,-2.92,-175.37,64.33,52.38,274.52,295.73,65.6,52.84,274.39,295.72,1.0
2018-08-28 10:16:00,89.60464,29.6662,899.023,266.66,97.6,822.8,-6.09,-2.68,-174.6,66.17,52.38,274.4,296.01,65.48,52.87,274.37,295.71,1.0
2018-08-28 10:16:00,89.60464,29.66616,898.916,266.66,97.6,823.7,-6.61,-2.73,-174.4,66.56,52.38,273.86,295.86,65.45,52.88,274.37,295.77,1.0
2018-08-28 10:16:00,89.60464,29.66612,898.955,266.65,97.5,823.4,-6.07,-2.74,-174.99,65.12,52.52,274.48,295.63,65.49,52.86,274.44,295.84,1.0
2018-08-28 10:16:00,89.60464,29.66608,898.929,266.65,97.6,823.6,-7.54,-2.91,-175.66,64.72,52.66,274.61,295.83,65.59,52.83,274.41,295.85,1.0
2018-08-28 10:16:00,89.60464,29.66603,898.915,266.65,97.6,823.7,-9.45,-3.11,-176.12,64.72,52.38,274.8,296.12,65.7,52.77,274.38,295.81,1.0
2018-08-28 10:16:00,89.60464,29.66599,898.976,266.65,97.6,823.2,-10.82,-3.21,-176.32,66.36,52.45,274.8,296.22,65.82,52.7,274.38,295.78,1.0
2018-08-28 10:16:00,89.60464,29.66594,898.92,266.65,97.6,823.7,-11.68,-3.16,-176.3,66.17,52.59,274.52,297.27,65.92,52.62,274.39,295.8,1.0
2018-08-28 10:16:00,89.60464,29.6659,898.867,266.64,97.6,824.1,-10.8,-3.23,-176.73,66.1,52.52,274.61,296.04,65.98,52.53,274.43,295.79,1.0
2018-08-28 10:16:00,89.60464,29.66586,898.886,266.65,97.6,824.0,-10.0,-3.32,-176.76,65.25,52.38,274.52,295.9,65.97,52.44,274.37,295.71,1.0
2018-08-28 10:16:00,89.60464,29.66581,898.901,266.65,97.6,823.8,-9.88,-3.29,-176.75,66.56,52.45,274.52,295.9,65.9,52.36,274.31,295.67,1.0
2018-08-28 10:16:00,89.60464,29.66577,898.885,266.65,97.5,824.0,-9.37,-3.11,-176.82,64.72,52.59,274.52,296.22,65.76,52.28,274.22,295.7,1.0
2018-08-28 10:16:00,89.60464,29.66572,898.874,266.65,97.6,824.1,-7.39,-2.85,-176.91,64.66,52.45,274.89,296.61,65.53,52.2,274.08,295.71,1.0
2018-08-28 10:16:00,89.60464,29.66568,898.909,266.65,97.5,823.8,-7.07,-2.87,-176.33,66.36,52.59,274.33,295.96,65.23,52.14,273.96,295.66,1.0
2018-08-28 10:16:00,89.60464,29.66564,898.949,266.65,97.6,823.4,-5.58,-2.88,-176.05,66.36,52.38,274.27,294.78,64.88,52.08,273.93,295.78,1.0
2018-08-28 10:16:00,89.60464,29.6656,898.971,266.65,97.5,823.2,-4.07,-2.83,-175.71,64.14,52.45,274.49,295.06,64.5,52.04,273.9,295.78,1.0
2018-08-28 10:16:00,89.60464,29.66556,898.943,266.65,97.5,823.5,-3.11,-2.76,-175.29,65.64,52.32,274.05,296.08,64.13,52.01,273.89,295.74,1.0
2018-08-28 10:16:00,89.60464,29.66552,898.885,266.65,97.5,824.0,-2.91,-2.76,-175.02,66.49,52.38,273.59,295.73,63.82,51.99,273.92,295.69,1.0
2018-08-28 10:16:00,89.60464,29.66548,898.897,266.65,97.5,823.9,-3.41,-2.88,-175.22,65.51,52.45,273.53,295.9,63.63,51.99,273.94,295.51,1.0
2018-08-28 10:16:00,89.60464,29.66544,898.975,266.65,97.5,823.2,-4.62,-3.0,-175.71,66.75,52.45,274.26,296.67,63.61,52.01,273.9,295.46,1.0
2018-08-28 10:16:00,89.60464,29.6654,898.968,266.65,97.5,823.3,-5.7,-3.04,-176.27,65.25,52.52,274.11,295.38,63.78,52.03,274.05,295.48,1.0
2018-08-28 10:16:00,89.60464,29.66536,898.928,266.65,97.5,823.6,-7.38,-2.99,-176.79,63.09,52.32,274.24,295.18,64.17,52.07,274.15,295.44,1.0
2018-08-28 10:16:00,89.60464,29.66532,898.921,266.65,97.6,823.7,-10.15,-2.85,-177.18,66.36,52.25,274.07,295.12,64.76,52.11,274.19,295.35,1.0
2018-08-28 10:16:00,89.60464,29.66528,898.982,266.65,97.5,823.1,-13.86,-2.65,-177.37,65.44,52.52,274.12,294.54,65.52,52.16,274.28,295.3,1.0
2018-08-28 10:16:00,89.60464,29.66524,898.955,266.65,97.5,823.4,-14.55,-3.07,-178.1,64.14,52.18,273.62,295.48,66.38,52.2,274.35,295.27,1.0
2018-08-28 10:16:00,89.60464,29.6652,898.936,266.65,97.5,823.5,-14.25,-2.88,-178.32,64.99,52.38,275.36,295.62,67.24,52.25,274.37,295.13,1.0
2018-08-28 10:16:00,89.60464,29.66516,898.945,266.65,97.5,823.4,-13.05,-2.84,-178.17,64.86,52.32,275.4,295.89,68.03,52.29,274.46,295.14,1.0
2018-08-28 10:16:00,89.60464,29.66512,898.961,266.65,97.5,823.3,-12.73,-3.02,-177.93,66.03,52.38,274.58,295.57,68.64,52.33,274.59,295.21,1.0
2018-08-28 10:16:00,89.60464,29.66506,898.93,266.65,97.5,823.6,-14.69,-3.17,-177.98,66.3,52.38,274.49,296.13,69.0,52.38,274.71,295.3,1.0
2018-08-28 10:16:00,89.60464,29.66501,898.984,266.66,97.5,823.1,-15.44,-3.16,-178.68,66.56,52.38,274.4,295.94,69.08,52.44,274.81,295.52,1.0
2018-08-28 10:16:00,89.60464,29.66496,898.928,266.65,97.5,823.6,-14.2,-3.42,-178.79,65.64,52.59,274.63,295.52,68.87,52.51,274.96,295.58,1.0
2018-08-28 10:16:00,89.60464,29.66491,898.907,266.65,97.5,823.8,-13.99,-3.37,-178.93,64.53,52.25,275.06,295.11,68.39,52.6,274.94,295.66,1.0
2018-08-28 10:16:00,89.60464,29.66486,898.88,266.66,97.5,824.0,-15.55,-3.22,-179.09,66.36,52.25,275.31,295.2,67.72,52.71,274.98,295.76,1.0
2018-08-28 10:16:00,89.60464,29.66481,898.822,266.65,97.5,824.5,-18.63,-3.14,-179.19,67.15,52.11,275.0,295.23,66.94,52.82,275.14,295.83,1.0
2018-08-28 10:16:00,89.60464,29.66476,898.907,266.65,97.5,823.8,-22.01,-3.19,-179.2,66.17,52.66,274.21,295.61,66.16,52.94,275.26,295.81,1.0
2018-08-28 10:16:00,89.60463,29.66471,898.971,266.65,97.5,823.2,-23.67,-3.31,-179.42,65.25,52.38,274.49,295.17,65.48,53.05,275.26,295.77,1.0
2018-08-28 10:16:00,89.60463,29.66466,898.97,266.65,97.5,823.2,-23.44,-3.31,-179.1,66.36,52.52,274.77,295.37,64.96,53.13,275.22,295.75,1.0
2018-08-28 10:16:00,89.60463,29.66461,898.954,266.65,97.5,823.4,-20.8,-3.26,-178.52,65.9,52.38,274.85,295.94,64.65,53.16,275.11,295.72,1.0
2018-08-28 10:16:00,89.60463,29.66456,898.97,266.65,97.5,823.2,-17.49,-3.15,-177.93,65.71,52.45,275.82,295.75,64.56,53.13,274.96,295.67,1.0
2018-08-28 10:16:00,89.60463,29.66451,899.046,266.64,97.5,822.6,-15.6,-2.96,-177.52,66.17,52.45,275.86,295.58,64.68,53.03,274.82,295.6,1.0
2018-08-28 10:16:00,89.60463,29.66447,899.002,266.65,97.5,823.0,-10.85,-3.01,-177.28,64.92,52.52,274.56,295.73,64.93,52.88,274.75,295.52,1.0
2018-08-28 10:16:00,89.60463,29.66443,898.961,266.65,97.5,823.3,-9.91,-2.89,-176.99,65.51,52.59,274.59,295.84,65.26,52.67,274.7,295.54,1.0
2018-08-28 10:16:00,89.60463,29.66439,898.931,266.65,97.5,823.6,-10.78,-2.82,-177.03,65.77,52.66,274.49,295.94,65.58,52.43,274.67,295.55,1.0
2018-08-28 10:16:00,89.60463,29.66435,898.925,266.65,97.5,823.6,-11.96,-2.83,-177.36,65.05,52.45,274.31,295.94,65.82,52.19,274.61,295.58,1.0
2018-08-28 10:16:00,89.60463,29.66431,898.949,266.65,97.5,823.4,-11.95,-2.85,-177.78,65.9,52.45,274.77,295.94,65.94,51.97,274.5,295.63,1.0
2018-08-28 10:16:00,89.60463,29.66428,898.959,266.64,97.5,823.3,-8.76,-2.79,-177.93,67.28,52.66,274.59,295.94,65.89,51.8,274.38,295.71,1.0
2018-08-28 10:16:00,89.60463,29.66424,898.959,266.65,97.5,823.3,-8.77,-2.85,-177.58,66.17,52.45,274.59,295.84,65.7,51.71,274.4,295.9,1.0
2018-08-28 10:16:00,89.60463,29.6642,898.962,266.66,97.5,823.3,-7.84,-2.81,-177.12,65.31,52.52,274.32,296.05,65.38,51.7,274.43,295.95,1.0
2018-08-28 10:16:00,89.60463,29.66416,898.978,266.66,97.5,823.2,-7.12,-2.73,-176.45,65.05,52.25,274.6,295.94,64.98,51.77,274.41,295.93,1.0
2018-08-28 10:16:00,89.60463,29.66412,898.995,266.66,97.5,823.0,-6.51,-2.65,-175.72,65.97,52.45,274.53,295.7,64.59,51.92,274.43,295.92,1.0
2018-08-28 10:16:00,89.60463,29.66408,898.966,266.65,97.5,823.3,-4.63,-2.58,-175.32,65.31,52.18,273.95,295.54,64.25,52.11,274.54,295.96,1.0
2018-08-28 10:16:00,89.60463,29.66404,898.956,266.65,97.5,823.4,-3.67,-2.44,-175.21,66.75,52.04,274.12,296.78,64.03,52.33,274.54,295.98,1.0
2018-08-28 10:16:00,89.60463,29.664,898.921,266.65,97.5,823.6,-2.3,-2.41,-174.73,65.58,52.52,274.23,295.25,63.98,52.53,274.51,295.91,1.0
2018-08-28 10:16:00,89.60463,29.66397,898.937,266.65,97.5,823.5,-2.84,-2.3,-174.31,65.12,52.38,273.98,294.67,64.13,52.71,274.47,295.76,1.0
2018-08-28 10:16:00,89.60463,29.66393,898.998,266.65,97.5,823.0,-4.69,-2.22,-174.17,65.71,52.45,274.46,294.88,64.47,52.82,274.44,295.58,1.0
2018-08-28 10:16:00,89.60463,29.66386,899.028,266.65,97.5,822.7,-6.57,-2.34,-174.34,65.05,52.32,275.66,295.74,64.98,52.88,274.47,295.43,1.0
2018-08-28 10:16:00,89.60463,29.6638,899.032,266.65,97.5,822.7,-8.07,-2.41,-174.69,64.99,52.59,274.52,295.66,65.62,52.87,274.62,295.31,1.0
2018-08-28 10:16:00,89.60463,29.66374,898.994,266.65,97.5,823.0,-10.1,-2.44,-175.02,65.05,52.45,274.07,295.44,66.33,52.81,274.72,295.09,1.0
2018-08-28 10:16:00,89.60463,29.66368,899.015,266.66,97.5,822.8,-10.53,-2.55,-175.25,66.17,52.66,274.27,294.45,67.04,52.72,274.8,295.03,1.0
2018-08-28 10:16:00,89.60463,29.66362,899.038,266.66,97.5,822.6,-11.3,-2.69,-175.53,65.77,52.52,274.4,294.26,67.67,52.63,274.95,295.09,1.0
2018-08-28 10:16:00,89.60463,29.66356,899.006,266.65,97.5,822.9,-13.11,-2.85,-175.93,65.51,52.45,274.85,294.34,68.15,52.55,275.03,295.17,1.0
2018-08-28 10:16:00,89.60463,29.66349,899.001,266.65,97.5,823.0,-13.34,-3.05,-176.37,65.58,52.45,275.94,294.4,68.43,52.51,274.94,295.14,1.0
2018-08-28 10:16:00,89.60463,29.66343,899.003,266.66,97.5,822.9,-14.06,-2.88,-176.93,65.71,52.32,275.62,294.35,68.47,52.52,275.08,295.12,1.0
2018-08-28 10:16:00,89.60463,29.66337,898.982,266.65,97.5,823.1,-13.48,-2.82,-177.17,66.17,52.38,275.77,294.73,68.25,52.57,275.23,295.16,1.0
2018-08-28 10:16:00,89.60463,29.66332,898.963,266.65,97.5,823.3,-13.06,-2.72,-177.05,65.97,52.38,275.63,295.56,67.79,52.65,275.38,295.27,1.0
2018-08-28 10:16:00,89.60463,29.66326,898.931,266.65,97.5,823.6,-13.21,-2.67,-176.82,67.21,52.38,275.38,295.99,67.11,52.75,275.51,295.41,1.0
2018-08-28 10:16:00,89.60463,29.6632,898.832,266.65,97.5,824.4,-13.61,-2.79,-176.78,65.12,52.52,274.99,295.77,66.27,52.84,275.59,295.54,1.0
2018-08-28 10:16:00,89.60463,29.66315,898.971,266.65,97.5,823.2,-14.13,-2.71,-176.7,66.17,52.45,275.89,295.55,65.37,52.91,275.56,295.65,1.0
2018-08-28 10:16:00,89.60463,29.6631,899.001,266.65,97.5,823.0,-14.28,-2.67,-176.34,65.31,52.66,275.77,295.62,64.47,52.94,275.53,295.74,1.0
2018-08-28 10:16:00,89.60463,29.66304,899.003,266.65,97.5,822.9,-13.22,-2.63,-175.93,66.17,52.52,275.69,295.72,63.68,52.92,275.46,295.82,1.0
2018-08-28 10:16:00,89.60463,29.66299,899.013,266.65,97.5,822.9,-12.38,-2.63,-175.23,67.08,52.45,275.55,295.92,63.05,52.85,275.34,295.81,1.0
2018-08-28 10:16:00,89.60463,29.66293,899.038,266.65,97.5,822.6,-12.84,-2.68,-174.28,65.44,52.52,275.34,296.21,62.65,52.74,275.21,295.76,1.0
2018-08-28 10:16:00,89.60463,29.66288,898.996,266.65,97.5,823.0,-13.75,-2.54,-174.06,65.25,52.66,275.36,295.95,62.51,52.61,275.13,295.84,1.0
2018-08-28 10:16:00,89.60463,29.66282,899.022,266.64,97.5,822.8,-14.35,-2.92,-174.06,66.89,52.66,274.89,296.04,62.61,52.48,274.95,295.84,1.0
2018-08-28 10:16:00,89.60463,29.66277,899.041,266.65,97.5,822.6,-14.39,-2.99,-174.09,65.44,52.66,274.68,295.74,62.93,52.36,274.86,295.83,1.0
2018-08-28 10:16:00,89.60463,29.66271,899.038,266.65,97.5,822.6,-14.26,-2.89,-174.13,63.74,52.59,274.3,295.71,63.41,52.27,274.76,295.82,1.0
2018-08-28 10:16:00,89.60463,29.66267,899.03,266.65,97.5,822.7,-13.99,-2.8,-174.19,64.53,52.25,274.27,295.58,63.97,52.23,274.62,295.82,1.0
2018-08-28 10:16:00,89.60463,29.66263,899.074,266.65,97.5,822.3,-13.32,-2.97,-174.32,64.99,52.32,274.11,296.85,64.54,52.24,274.51,295.82,1.0
2018-08-28 10:16:00,89.60463,29.66259,898.95,266.65,97.5,823.4,-14.29,-3.09,-174.53,65.64,52.38,274.48,296.03,65.04,52.3,274.45,295.83,1.0
2018-08-28 10:16:00,89.60463,29.66255,898.97,266.65,97.5,823.2,-16.47,-3.09,-175.03,65.71,52.73,275.54,295.74,65.42,52.38,274.43,295.85,1.0
2018-08-28 10:16:00,89.60463,29.66251,899.021,266.65,97.5,822.8,-17.55,-3.1,-175.61,66.75,52.45,275.16,295.93,65.65,52.49,274.47,295.89,1.0
2018-08-28 10:16:00,89.60463,29.66247,899.051,266.66,97.5,822.5,-18.03,-3.18,-175.96,64.72,52.38,274.58,295.83,65.73,52.61,274.56,295.96,1.0
2018-08-28 10:16:00,89.60463,29.66243,899.061,266.66,97.5,822.4,-19.08,-3.29,-175.82,65.51,52.52,274.39,295.73,65.67,52.72,274.67,296.01,1.0
2018-08-28 10:16:00,89.60463,29.66239,899.039,266.66,97.5,822.6,-20.01,-3.25,-175.38,65.84,52.59,274.49,295.83,65.52,52.81,274.77,295.94,1.0
2018-08-28 10:16:00,89.60463,29.66235,899.0,266.66,97.5,823.0,-20.6,-3.46,-175.74,64.86,52.59,274.59,296.03,65.32,52.87,274.83,295.94,1.0
2018-08-28 10:16:00,89.60462,29.66231,898.972,266.66,97.5,823.2,-20.28,-3.68,-176.25,64.72,52.45,274.5,295.83,65.12,52.91,274.78,295.92,1.0
2018-08-28 10:16:00,89.60462,29.66227,898.957,266.65,97.5,823.3,-20.06,-3.96,-176.77,66.1,52.59,274.59,295.74,64.98,52.92,274.74,295.88,1.0
2018-08-28 10:16:00,89.60462,29.66223,898.955,266.65,97.5,823.4,-20.74,-4.26,-177.15,66.43,52.52,274.4,295.91,64.91,52.91,274.72,295.83,1.0
2018-08-28 10:16:00,89.60462,29.66219,899.026,266.65,97.5,822.7,-21.61,-4.36,-177.2,65.25,52.45,274.38,295.84,64.93,52.89,274.68,295.78,1.0
2018-08-28 10:16:00,89.60462,29.66214,899.018,266.65,97.5,822.8,-19.94,-3.84,-176.45,64.72,52.59,274.48,295.82,65.03,52.85,274.61,295.73,1.0
2018-08-28 10:16:00,89.60462,29.66209,899.028,266.65,97.5,822.7,-17.34,-3.79,-175.31,64.33,52.73,274.48,295.83,65.19,52.81,274.54,295.7,1.0
2018-08-28 10:16:00,89.60462,29.66204,899.029,266.65,97.5,822.7,-14.65,-3.62,-174.27,64.66,52.52,274.29,296.31,65.38,52.76,274.47,295.7,1.0
2018-08-28 10:16:00,89.60462,29.66198,899.011,266.65,97.5,822.9,-12.35,-3.41,-173.58,65.44,52.45,274.58,295.92,65.58,52.7,274.4,295.72,1.0
2018-08-28 10:16:00,89.60462,29.66193,899.002,266.66,97.5,822.9,-10.55,-3.5,-173.22,66.17,52.73,274.58,295.93,65.75,52.64,274.35,295.77,1.0
2018-08-28 10:16:00,89.60462,29.66188,898.99,266.65,97.5,823.1,-9.09,-3.5,-172.91,66.3,52.52,274.68,296.12,65.88,52.58,274.34,295.85,1.0
2018-08-28 10:16:00,89.60462,29.66183,899.05,266.65,97.5,822.5,-7.5,-3.19,-172.88,66.17,52.59,274.5,296.02,65.96,52.51,274.31,295.92,1.0
2018-08-28 10:16:00,89.60462,29.66177,899.081,266.65,97.5,822.3,-7.25,-2.99,-173.16,64.79,52.59,274.58,295.92,66.02,52.44,274.33,295.99,1.0
2018-08-28 10:16:00,89.60462,29.66172,899.061,266.65,97.5,822.4,-7.94,-2.88,-173.43,64.72,52.59,274.48,295.9,66.06,52.38,274.38,296.11,1.0
2018-08-28 10:16:00,89.60462,29.66167,899.027,266.65,97.5,822.7,-8.77,-2.74,-173.58,65.51,52.59,274.29,295.88,66.1,52.34,274.45,296.24,1.0
2018-08-28 10:16:00,89.60462,29.66162,899.075,266.65,97.5,822.3,-9.32,-2.54,-174.16,65.05,52.66,274.49,295.83,66.16,52.31,274.56,296.27,1.0
2018-08-28 10:16:00,89.60462,29.66157,899.084,266.65,97.5,822.2,-8.43,-2.68,-174.55,65.31,52.45,274.04,295.76,66.27,52.31,274.68,296.2,1.0
2018-08-28 10:16:00,89.60462,29.66153,899.061,266.65,97.5,822.4,-7.66,-2.76,-174.78,66.03,52.73,274.62,295.67,66.41,52.34,274.78,296.11,1.0
2018-08-28 10:16:00,89.60462,29.6615,899.002,266.65,97.5,822.9,-6.3,-2.72,-174.85,65.25,52.38,274.7,296.57,66.59,52.4,274.86,296.01,1.0
2018-08-28 10:16:00,89.60462,29.66147,898.944,266.65,97.5,823.4,-4.86,-2.66,-174.77,65.44,52.45,274.68,296.81,66.8,52.48,274.91,295.92,1.0
2018-08-28 10:16:00,89.60462,29.66144,899.018,266.65,97.5,822.8,-5.2,-2.8,-174.54,65.9,52.45,275.1,295.97,67.0,52.58,274.95,295.85,1.0
2018-08-28 10:16:00,89.60462,29.6614,898.954,266.65,97.5,823.4,-2.77,-2.7,-174.2,66.3,52.45,275.44,295.7,67.19,52.68,274.96,295.81,1.0
2018-08-28 10:16:00,89.60462,29.66137,898.92,266.65,97.5,823.7,0.05,-2.48,-173.56,64.27,52.52,275.59,295.62,67.34,52.78,274.97,295.81,1.0
2018-08-28 10:16:00,89.60462,29.66134,898.934,266.65,97.5,823.5,-0.03,-2.46,-172.74,65.77,52.59,275.52,295.75,67.43,52.87,274.96,295.85,1.0
2018-08-28 10:16:00,89.60462,29.66131,898.955,266.66,97.5,823.4,-2.21,-2.56,-172.13,66.56,52.8,275.25,295.93,67.46,52.93,274.93,295.85,1.0
2018-08-28 10:16:00,89.60462,29.66127,898.927,266.65,97.5,823.6,-4.37,-2.59,-172.13,66.43,52.45,275.11,296.04,67.41,52.98,274.93,295.83,1.0
2018-08-28 10:16:00,89.60462,29.66124,899.004,266.66,97.5,822.9,-6.08,-2.55,-172.9,65.31,52.66,275.05,296.12,67.3,53.0,274.99,295.89,1.0
2018-08-28 10:16:00,89.60462,29.66121,899.03,266.66,97.5,822.7,-5.18,-2.58,-173.48,65.84,52.66,274.3,296.13,67.13,53.0,274.91,296.0,1.0
2018-08-28 10:16:00,89.60462,29.66118,899.066,266.66,97.5,822.4,-4.98,-2.47,-173.64,65.44,52.59,274.48,295.83,66.91,52.98,274.83,296.09,1.0
2018-08-28 10:16:00,89.60462,29.66114,899.059,266.66,97.5,822.4,-5.45,-2.5,-173.39,65.77,52.66,274.57,295.73,66.67,52.95,274.77,296.14,1.0
2018-08-28 10:16:00,89.60462,29.66111,898.987,266.66,97.5,823.1,-6.3,-2.66,-172.93,66.62,52.45,274.8,295.92,66.42,52.9,274.71,296.15,1.0
2018-08-28 10:16:00,89.60462,29.66108,899.049,266.66,97.5,822.5,-7.55,-2.47,-172.66,65.31,52.66,275.67,295.94,66.17,52.85,274.67,296.13,1.0
2018-08-28 10:16:00,89.60462,29.66102,899.019,266.66,97.5,822.8,-6.7,-2.53,-173.0,66.75,52.52,274.74,295.93,65.94,52.79,274.63,296.1,1.0
2018-08-28 10:16:00,89.60462,29.66096,899.025,266.65,97.5,822.7,-7.06,-2.52,-173.74,65.9,52.73,274.49,295.84,65.73,52.73,274.64,296.06,1.0
2018-08-28 10:16:00,89.60462,29.66091,899.041,266.65,97.5,822.6,-7.97,-2.54,-174.54,66.23,52.66,274.49,295.93,65.54,52.65,274.65,295.98,1.0
2018-08-28 10:16:00,89.60462,29.66084,899.05,266.66,97.5,822.5,-9.85,-2.58,-175.13,65.25,52.66,274.29,295.82,65.38,52.57,274.64,295.86,1.0
2018-08-28 10:16:00,89.60462,29.66079,899.067,266.66,97.5,822.4,-12.83,-2.56,-175.31,66.3,52.66,274.58,296.21,65.24,52.48,274.57,295.73,1.0
2018-08-28 10:16:00,89.60462,29.66073,899.072,266.65,97.5,822.3,-12.38,-2.6,-175.14,65.71,52.73,274.58,295.92,65.11,52.38,274.49,295.57,1.0
2018-08-28 10:16:00,89.60462,29.66067,899.051,266.65,97.5,822.5,-10.96,-2.63,-175.27,65.84,52.87,274.39,295.86,64.99,52.29,274.51,295.54,1.0
2018-08-28 10:16:00,89.60462,29.66061,899.002,266.65,97.5,822.9,-7.26,-2.56,-175.48,66.23,52.38,274.75,295.78,64.85,52.2,274.54,295.53,1.0
2018-08-28 10:16:00,89.60462,29.66055,899.002,266.65,97.5,822.9,-3.29,-2.52,-175.56,65.12,52.52,274.15,295.12,64.7,52.14,274.59,295.56,1.0
2018-08-28 10:16:00,89.60462,29.6605,899.128,266.65,97.5,821.9,-1.22,-2.6,-175.38,64.99,52.59,273.33,294.8,64.52,52.1,274.62,295.62,1.0
2018-08-28 10:16:00,89.60462,29.66047,899.114,266.66,97.5,822.0,-1.13,-2.72,-175.06,67.47,52.59,274.32,294.39,64.32,52.09,274.53,295.59,1.0
2018-08-28 10:16:00,89.60462,29.66044,899.083,266.65,97.5,822.2,-2.87,-2.37,-174.74,65.9,52.45,274.4,295.7,64.11,52.12,274.43,295.57,1.0
2018-08-28 10:16:00,89.60462,29.66041,899.079,266.65,97.5,822.3,-3.21,-2.46,-174.99,64.72,52.59,274.49,295.92,63.92,52.18,274.32,295.53,1.0
