Date/Time,Latitude,Longitude,PPPP [hPa],TTT grad [K],RH [%],Height [m],Pitch [deg],Roll [deg],Yaw [deg],SWD [W/m**2] (raw),SWU [W/m**2] (raw),LWD [W/m**2] (raw),LWU [W/m**2] (raw),SWD [W/m**2] (corrected),SWU [W/m**2] (corrected),LWD [W/m**2] (corrected),LWU [W/m**2] (corrected),Flag
2018-08-28 13:56:00,89.59795,31.77397,901.778,266.48,98.2,797.6,-24.04,-4.1,142.3,59.95,51.35,278.07,294.06,59.42,51.5,277.74,294.0,1.0
2018-08-28 13:56:00,89.59795,31.77399,901.813,266.47,98.2,797.3,-26.19,-4.3,142.24,60.73,51.28,278.07,294.45,59.43,51.5,277.67,294.02,1.0
2018-08-28 13:56:00,89.59795,31.77401,901.916,266.47,98.1,796.4,-26.36,-4.28,142.41,59.69,51.21,278.17,294.06,59.46,51.47,277.65,294.05,1.0
2018-08-28 13:56:00,89.59795,31.77403,901.919,266.47,98.1,796.4,-24.47,-4.19,142.62,59.56,51.35,278.17,294.06,59.51,51.43,277.67,294.1,1.0
2018-08-28 13:56:00,89.59795,31.77405,901.887,266.48,98.2,796.7,-24.33,-4.24,142.43,58.97,51.35,278.17,294.05,59.6,51.36,277.87,294.1,1.0
2018-08-28 13:56:00,89.59795,31.77407,901.86,266.48,98.2,796.9,-24.22,-4.17,142.15,59.88,51.21,278.26,294.05,59.73,51.29,278.03,294.13,1.0
2018-08-28 13:56:00,89.59795,31.77409,901.846,266.47,98.1,797.0,-23.12,-4.02,141.89,59.75,51.21,278.17,293.96,59.9,51.22,278.13,294.19,1.0
2018-08-28 13:56:00,89.59795,31.77411,901.821,266.47,98.2,797.2,-20.92,-3.97,141.69,59.36,51.35,278.17,294.25,60.09,51.16,278.19,294.22,1.0
2018-08-28 13:56:00,89.59795,31.77413,901.888,266.47,98.1,796.7,-21.58,-3.65,141.99,59.56,51.28,277.99,294.16,60.29,51.11,278.13,294.12,1.0
2018-08-28 13:56:00,89.59795,31.77416,901.859,266.47,98.2,796.9,-19.66,-3.29,142.62,60.8,51.21,278.17,294.06,60.47,51.1,278.13,294.1,1.0
2018-08-28 13:56:00,89.59795,31.77418,901.833,266.47,98.2,797.1,-18.12,-3.1,143.26,59.82,51.42,278.18,294.34,60.58,51.11,278.12,294.07,1.0
2018-08-28 13:56:00,89.59795,31.77421,901.858,266.47,98.2,796.9,-17.49,-3.04,143.47,60.28,51.28,278.18,294.33,60.6,51.14,278.07,294.02,1.0
2018-08-28 13:56:00,89.59795,31.77423,901.921,266.48,98.2,796.4,-17.04,-3.05,143.15,59.23,51.21,277.43,293.95,60.5,51.2,278.0,293.94,1.0
2018-08-28 13:56:00,89.59795,31.77426,901.887,266.47,98.1,796.7,-14.44,-3.06,142.99,60.34,51.14,276.67,292.64,60.27,51.26,277.91,293.84,1.0
2018-08-28 13:56:00,89.59795,31.77428,901.907,266.47,98.2,796.5,-12.66,-2.98,142.63,59.95,51.0,277.51,293.86,59.92,51.32,277.83,293.74,1.0
2018-08-28 13:56:00,89.59795,31.77431,901.854,266.47,98.1,796.9,-13.45,-2.85,143.02,58.97,51.21,278.08,293.76,59.48,51.36,277.73,293.72,1.0
2018-08-28 13:56:00,89.59794,31.77433,901.82,266.47,98.1,797.2,-15.3,-2.66,143.66,59.29,51.42,277.99,294.04,58.99,51.4,277.67,293.7,1.0
2018-08-28 13:56:00,89.59794,31.77436,901.856,266.48,98.1,796.9,-16.37,-2.5,144.13,60.6,51.35,278.09,294.04,58.5,51.41,277.68,293.63,1.0
2018-08-28 13:56:00,89.59794,31.77438,901.798,266.47,98.1,797.4,-15.76,-2.45,144.49,60.8,51.28,278.36,294.13,58.06,51.41,277.73,293.62,1.0
2018-08-28 13:56:00,89.59794,31.77441,901.918,266.48,98.1,796.4,-13.47,-2.39,143.84,59.75,51.21,278.17,294.32,57.75,51.39,277.78,293.73,1.0
2018-08-28 13:56:00,89.59794,31.77443,901.91,266.47,98.2,796.5,-12.74,-2.39,143.2,59.75,51.28,277.5,295.11,57.59,51.38,277.85,293.86,1.0
2018-08-28 13:56:00,89.59794,31.77442,901.866,266.47,98.2,796.8,-12.13,-2.48,142.98,59.23,51.42,277.84,294.51,57.61,51.37,277.95,293.94,1.0
2018-08-28 13:56:00,89.59794,31.77442,901.828,266.47,98.1,797.2,-13.48,-2.56,143.2,60.21,51.28,277.89,294.43,57.81,51.38,278.05,293.98,1.0
2018-08-28 13:56:00,89.59794,31.77442,901.78,266.47,98.1,797.6,-18.27,-2.5,143.68,59.56,51.21,277.78,294.21,58.16,51.4,278.13,294.02,1.0
2018-08-28 13:56:00,89.59794,31.77441,901.854,266.47,98.1,796.9,-20.37,-2.31,144.05,59.42,51.28,276.35,293.93,58.61,51.45,278.18,294.05,1.0
2018-08-28 13:56:00,89.59794,31.77441,901.846,266.47,98.2,797.0,-20.21,-2.38,144.21,59.16,51.0,277.35,294.59,59.1,51.52,278.18,294.05,1.0
2018-08-28 13:56:00,89.59794,31.7744,901.843,266.47,98.2,797.0,-18.84,-2.43,144.24,59.03,51.35,277.85,294.26,59.56,51.6,278.19,293.95,1.0
2018-08-28 13:56:00,89.59794,31.7744,901.831,266.47,98.2,797.1,-17.69,-2.52,144.17,58.9,51.35,278.17,293.85,59.92,51.67,278.14,293.84,1.0
2018-08-28 13:56:00,89.59794,31.77439,901.788,266.47,98.2,797.5,-18.29,-2.72,144.13,59.42,51.35,278.08,293.84,60.14,51.73,278.04,293.78,1.0
2018-08-28 13:56:00,89.59794,31.77439,901.884,266.48,98.2,796.7,-21.23,-3.02,144.26,59.95,51.28,278.27,294.04,60.17,51.75,277.94,293.71,1.0
2018-08-28 13:56:00,89.59794,31.77438,901.896,266.47,98.1,796.6,-22.89,-2.71,144.72,59.82,51.35,278.36,294.14,60.02,51.74,277.99,293.64,1.0
2018-08-28 13:56:00,89.59794,31.77438,901.888,266.47,98.2,796.7,-24.15,-2.55,144.97,59.56,51.35,278.07,293.85,59.71,51.67,277.94,293.5,1.0
2018-08-28 13:56:00,89.59794,31.77438,901.86,266.47,98.2,796.9,-23.44,-2.52,145.09,59.62,51.42,277.98,293.95,59.29,51.56,277.86,293.41,1.0
2018-08-28 13:56:00,89.59794,31.77437,901.827,266.47,98.1,797.2,-20.44,-2.63,145.08,60.14,51.35,278.07,294.04,58.82,51.41,277.81,293.39,1.0
2018-08-28 13:56:00,89.59794,31.77437,901.83,266.47,98.2,797.1,-16.15,-2.81,144.87,59.95,51.35,278.17,294.05,58.39,51.21,277.79,293.42,1.0
2018-08-28 13:56:00,89.59794,31.77436,901.888,266.47,98.2,796.7,-14.51,-2.68,144.77,59.56,51.42,278.17,293.74,58.05,51.0,277.8,293.54,1.0
2018-08-28 13:56:00,89.59794,31.77438,901.877,266.47,98.1,796.7,-15.66,-2.87,144.97,58.77,51.21,278.35,293.85,57.87,50.8,277.85,293.63,1.0
2018-08-28 13:56:00,89.59794,31.77439,901.86,266.47,98.1,796.9,-17.92,-2.75,145.19,59.82,51.49,278.16,293.75,57.89,50.61,277.87,293.76,1.0
2018-08-28 13:56:00,89.59794,31.77441,901.863,266.48,98.1,796.9,-19.58,-2.68,145.24,59.03,51.35,278.16,294.14,58.12,50.46,277.86,293.89,1.0
2018-08-28 13:56:00,89.59794,31.77442,901.886,266.47,98.2,796.7,-19.35,-3.01,145.07,59.95,51.35,278.36,294.0,58.54,50.37,277.86,293.93,1.0
2018-08-28 13:56:00,89.59794,31.77444,901.906,266.47,98.2,796.5,-16.2,-3.23,144.73,58.84,51.35,278.27,295.05,59.1,50.34,277.94,293.81,1.0
2018-08-28 13:56:00,89.59794,31.77446,901.919,266.47,98.1,796.4,-15.97,-3.34,144.63,59.03,51.07,278.16,294.0,59.74,50.38,277.88,293.82,1.0
2018-08-28 13:56:00,89.59794,31.77447,901.852,266.47,98.2,797.0,-16.05,-3.01,144.46,58.18,51.35,277.48,294.68,60.39,50.48,277.83,293.9,1.0
2018-08-28 13:56:00,89.59794,31.77448,901.828,266.47,98.2,797.2,-17.45,-2.91,144.42,60.08,51.21,277.15,294.36,60.96,50.65,277.75,293.98,1.0
2018-08-28 13:56:00,89.59794,31.7745,901.91,266.47,98.1,796.5,-19.59,-3.17,144.51,59.82,51.21,276.88,293.46,61.39,50.85,277.68,294.03,1.0
2018-08-28 13:56:00,89.59794,31.7745,901.905,266.48,98.1,796.5,-19.81,-3.26,144.49,59.36,50.8,277.96,291.97,61.63,51.09,277.63,293.98,1.0
2018-08-28 13:56:00,89.59794,31.77448,901.917,266.47,98.1,796.4,-19.02,-3.4,144.17,59.42,51.14,276.6,293.3,61.66,51.32,277.42,293.77,1.0
2018-08-28 13:56:00,89.59794,31.77447,901.937,266.47,98.2,796.2,-20.1,-3.4,144.28,59.88,51.21,276.88,294.3,61.48,51.55,277.34,293.72,1.0
2018-08-28 13:56:00,89.59794,31.77445,901.931,266.47,98.2,796.3,-21.62,-3.24,144.32,59.03,51.14,277.24,294.68,61.13,51.74,277.39,293.69,1.0
2018-08-28 13:56:00,89.59794,31.77444,901.908,266.48,98.1,796.5,-23.66,-3.13,144.35,60.14,51.14,277.15,294.47,60.65,51.9,277.52,293.69,1.0
2018-08-28 13:56:00,89.59794,31.77442,901.917,266.47,98.1,796.4,-26.55,-3.27,144.61,60.14,51.35,277.87,293.8,60.11,52.01,277.67,293.78,1.0
2018-08-28 13:56:00,89.59794,31.77441,901.957,266.47,98.1,796.1,-27.93,-3.39,144.18,58.97,51.21,276.1,292.22,59.57,52.06,277.76,294.02,1.0
2018-08-28 13:56:00,89.59794,31.77439,901.956,266.47,98.2,796.1,-27.91,-3.61,144.06,60.14,51.21,277.31,293.5,59.11,52.07,277.95,294.15,1.0
2018-08-28 13:56:00,89.59794,31.77438,901.913,266.47,98.2,796.4,-27.56,-3.92,143.97,59.95,51.49,278.01,293.84,58.76,52.04,278.15,294.17,1.0
2018-08-28 13:56:00,89.59794,31.77436,901.882,266.47,98.2,796.7,-27.13,-3.93,143.98,60.14,51.21,278.17,293.84,58.55,51.99,278.37,294.12,1.0
2018-08-28 13:56:00,89.59794,31.77435,901.892,266.48,98.2,796.6,-26.64,-3.6,144.17,59.36,51.42,278.35,294.03,58.49,51.91,278.55,294.09,1.0
2018-08-28 13:56:00,89.59794,31.77433,901.86,266.47,98.2,796.9,-26.12,-3.48,144.57,59.42,51.28,278.13,293.77,58.58,51.84,278.67,294.12,1.0
2018-08-28 13:56:00,89.59794,31.77432,901.86,266.47,98.2,796.9,-25.98,-3.62,145.12,59.16,51.28,277.7,294.24,58.77,51.78,278.91,294.24,1.0
2018-08-28 13:56:00,89.59794,31.77433,901.9,266.47,98.2,796.5,-27.24,-3.62,145.12,59.29,51.35,277.89,294.2,59.03,51.73,279.0,294.24,1.0
2018-08-28 13:56:00,89.59794,31.77433,901.952,266.47,98.2,796.1,-29.86,-3.67,144.84,60.01,51.42,278.35,293.75,59.31,51.71,278.99,294.21,1.0
2018-08-28 13:56:00,89.59794,31.77433,901.959,266.48,98.2,796.0,-32.69,-3.84,144.51,59.23,51.42,278.15,294.14,59.58,51.72,278.94,294.17,1.0
2018-08-28 13:56:00,89.59794,31.77433,901.851,266.47,98.2,797.0,-34.2,-4.16,144.27,59.03,51.35,278.43,293.85,59.81,51.74,278.86,294.13,1.0
2018-08-28 13:56:00,89.59794,31.77434,901.91,266.48,98.2,796.5,-32.45,-4.45,143.9,60.41,51.42,278.43,294.03,59.97,51.79,278.77,294.09,1.0
2018-08-28 13:56:00,89.59794,31.77434,901.988,266.47,98.2,795.8,-29.81,-4.61,143.75,60.01,51.35,278.43,294.13,60.07,51.83,278.71,294.03,1.0
2018-08-28 13:56:00,89.59794,31.77434,902.002,266.47,98.2,795.7,-27.13,-4.77,143.57,59.03,51.35,278.26,293.94,60.12,51.87,278.6,294.08,1.0
2018-08-28 13:56:00,89.59794,31.77435,901.964,266.47,98.2,796.0,-24.91,-4.69,143.58,58.84,51.56,278.36,294.14,60.13,51.9,278.5,294.12,1.0
2018-08-28 13:56:00,89.59794,31.77435,901.943,266.47,98.2,796.2,-23.03,-4.31,143.97,59.95,51.42,278.45,294.04,60.14,51.9,278.45,294.1,1.0
2018-08-28 13:56:00,89.59794,31.77435,902.013,266.48,98.2,795.6,-20.68,-4.28,144.54,59.03,51.35,278.15,294.03,60.15,51.87,278.42,294.07,1.0
2018-08-28 13:56:00,89.59794,31.77435,901.816,266.48,98.2,797.3,-17.51,-3.83,144.61,60.14,51.42,278.53,293.94,60.21,51.82,278.42,294.05,1.0
2018-08-28 13:56:00,89.59794,31.77436,901.837,266.47,98.2,797.1,-16.47,-4.14,144.37,60.21,51.56,278.03,294.87,60.3,51.74,278.44,294.01,1.0
2018-08-28 13:56:00,89.59794,31.77435,901.882,266.47,98.2,796.7,-17.81,-4.38,144.06,59.42,51.56,278.12,294.47,60.44,51.65,278.47,293.97,1.0
2018-08-28 13:56:00,89.59794,31.77435,901.84,266.47,98.2,797.1,-20.29,-4.38,143.81,59.88,51.35,278.35,294.13,60.6,51.55,278.47,293.97,1.0
2018-08-28 13:56:00,89.59794,31.77434,901.9,266.47,98.2,796.5,-22.14,-4.49,143.62,59.82,51.49,278.43,293.83,60.75,51.45,278.39,294.03,1.0
2018-08-28 13:56:00,89.59794,31.77434,901.917,266.47,98.2,796.4,-23.33,-4.59,143.38,59.56,51.62,278.34,294.14,60.88,51.38,278.27,293.98,1.0
2018-08-28 13:56:00,89.59794,31.77433,901.864,266.48,98.2,796.9,-26.06,-4.3,143.25,59.42,51.49,278.34,293.74,60.93,51.34,278.26,293.98,1.0
2018-08-28 13:56:00,89.59794,31.77433,901.874,266.48,98.2,796.8,-26.42,-4.39,143.03,59.1,51.62,278.44,293.83,60.9,51.33,278.29,293.9,1.0
2018-08-28 13:56:00,89.59794,31.77432,901.923,266.48,98.2,796.4,-26.02,-4.74,142.74,59.36,51.42,277.97,294.2,60.75,51.36,278.26,293.83,1.0
2018-08-28 13:56:00,89.59794,31.77432,901.907,266.47,98.2,796.5,-27.01,-4.99,142.47,60.41,51.35,277.21,295.03,60.49,51.42,278.16,293.84,1.0
2018-08-28 13:56:00,89.59794,31.77431,901.907,266.47,98.2,796.5,-28.3,-4.98,142.41,60.21,51.35,276.66,293.58,60.13,51.5,278.13,293.85,1.0
2018-08-28 13:56:00,89.59794,31.77431,901.963,266.48,98.2,796.0,-27.35,-4.77,142.95,60.21,51.42,277.74,294.11,59.7,51.6,278.1,293.87,1.0
2018-08-28 13:56:00,89.59794,31.7743,901.95,266.47,98.2,796.1,-24.95,-4.73,143.37,60.14,51.56,278.43,294.08,59.24,51.7,278.08,293.89,1.0
2018-08-28 13:56:00,89.59794,31.7743,901.933,266.47,98.2,796.3,-21.92,-4.67,143.9,59.95,51.42,278.0,294.01,58.8,51.79,278.07,293.91,1.0
2018-08-28 13:56:00,89.59794,31.77429,901.975,266.48,98.2,795.9,-18.8,-4.55,144.5,59.62,51.49,277.6,293.81,58.44,51.86,278.11,293.89,1.0
2018-08-28 13:56:00,89.59794,31.77428,901.974,266.47,98.2,795.9,-15.45,-4.61,144.69,60.08,51.42,278.35,293.74,58.2,51.9,278.24,293.81,1.0
2018-08-28 13:56:00,89.59794,31.77426,901.984,266.47,98.2,795.8,-12.3,-4.4,144.93,59.82,51.56,278.34,293.83,58.12,51.92,278.42,293.83,1.0
2018-08-28 13:56:00,89.59794,31.77425,901.929,266.47,98.2,796.3,-10.43,-4.06,144.94,59.49,51.56,278.35,293.93,58.2,51.91,278.49,293.8,1.0
2018-08-28 13:56:00,89.59794,31.77424,901.886,266.47,98.2,796.7,-10.14,-4.15,144.81,59.23,51.56,278.62,293.73,58.45,51.88,278.53,293.79,1.0
2018-08-28 13:56:00,89.59794,31.77423,901.881,266.48,98.2,796.7,-10.4,-4.39,144.62,60.34,51.42,278.53,294.02,58.83,51.85,278.6,293.78,1.0
2018-08-28 13:56:00,89.59794,31.77422,901.881,266.48,98.2,796.7,-10.15,-4.26,144.38,58.12,51.62,278.53,293.54,59.3,51.81,278.69,293.78,1.0
2018-08-28 13:56:00,89.59794,31.7742,901.891,266.48,98.2,796.6,-12.15,-4.22,143.99,59.29,51.56,278.44,294.12,59.79,51.77,278.7,293.77,1.0
2018-08-28 13:56:00,89.59794,31.77419,901.918,266.48,98.2,796.4,-10.51,-4.07,143.51,60.6,51.62,278.44,293.85,60.24,51.74,278.68,293.76,1.0
2018-08-28 13:56:00,89.59794,31.77418,901.973,266.48,98.2,795.9,-9.71,-3.88,143.23,59.03,51.62,278.44,294.03,60.59,51.71,278.62,293.83,1.0
2018-08-28 13:56:00,89.59794,31.77417,901.985,266.48,98.2,795.8,-10.02,-3.73,143.27,60.14,51.49,278.62,294.03,60.78,51.69,278.55,293.88,1.0
2018-08-28 13:56:00,89.59794,31.77416,901.896,266.47,98.2,796.6,-10.67,-3.62,143.79,60.28,51.42,278.43,293.74,60.79,51.67,278.5,293.88,1.0
2018-08-28 13:56:00,89.59794,31.77414,901.929,266.47,98.2,796.3,-9.86,-3.45,144.98,58.97,51.62,278.43,294.03,60.63,51.65,278.46,293.87,1.0
2018-08-28 13:56:00,89.59794,31.77413,901.919,266.47,98.2,796.4,-10.47,-3.36,145.86,59.62,51.62,278.53,293.74,60.3,51.62,278.42,293.87,1.0
2018-08-28 13:56:00,89.59794,31.77412,901.952,266.48,98.2,796.1,-8.53,-3.44,146.36,60.14,51.49,278.07,294.69,59.87,51.58,278.41,293.87,1.0
2018-08-28 13:56:00,89.59794,31.77411,901.964,266.48,98.2,796.0,-6.35,-3.48,146.39,59.82,51.56,278.04,294.33,59.4,51.53,278.41,293.88,1.0
2018-08-28 13:56:00,89.59794,31.77407,901.943,266.47,98.2,796.2,-5.01,-3.48,146.11,59.62,51.56,278.43,293.83,58.95,51.48,278.39,293.88,1.0
2018-08-28 13:56:00,89.59794,31.77403,902.01,266.47,98.2,795.6,-4.23,-3.5,145.84,59.23,51.56,278.53,293.83,58.6,51.42,278.35,293.89,1.0
2018-08-28 13:56:00,89.59794,31.77399,901.941,266.48,98.2,796.2,-4.54,-3.4,145.85,60.34,51.76,278.53,293.83,58.4,51.37,278.39,293.89,1.0
2018-08-28 13:56:00,89.59794,31.77395,901.933,266.48,98.2,796.3,-5.93,-3.33,145.87,59.62,51.56,278.53,293.93,58.39,51.33,278.4,294.0,1.0
2018-08-28 13:56:00,89.59794,31.77391,901.93,266.48,98.2,796.3,-7.37,-3.37,145.88,59.95,51.76,278.63,293.83,58.55,51.3,278.44,294.03,1.0
2018-08-28 13:56:00,89.59794,31.77387,901.929,266.48,98.2,796.3,-8.38,-3.36,145.75,60.14,51.42,278.09,294.07,58.87,51.29,278.47,294.0,1.0
2018-08-28 13:56:00,89.59794,31.77384,901.962,266.48,98.2,796.0,-8.65,-3.23,145.41,58.97,51.28,277.38,293.94,59.3,51.29,278.5,293.99,1.0
2018-08-28 13:56:00,89.59794,31.7738,902.011,266.48,98.2,795.6,-8.06,-3.42,145.19,59.23,51.56,278.41,293.66,59.77,51.32,278.52,293.98,1.0
2018-08-28 13:56:00,89.59794,31.77376,902.051,266.48,98.2,795.2,-7.33,-3.68,144.87,59.16,51.56,278.06,294.75,60.21,51.35,278.53,293.97,1.0
2018-08-28 13:56:00,89.59794,31.77373,902.04,266.48,98.2,795.4,-5.37,-3.66,144.87,59.23,51.56,277.68,295.13,60.55,51.39,278.55,293.97,1.0
2018-08-28 13:56:00,89.59793,31.7737,901.969,266.48,98.2,796.0,-4.29,-3.7,145.01,60.14,51.49,278.16,294.45,60.74,51.43,278.56,294.0,1.0
2018-08-28 13:56:00,89.59793,31.77366,901.885,266.48,98.2,796.7,-3.48,-3.78,145.1,59.23,51.56,278.61,293.64,60.75,51.47,278.62,294.04,1.0
2018-08-28 13:56:00,89.59793,31.77363,901.916,266.47,98.2,796.4,0.76,-3.37,145.04,59.1,51.42,278.52,294.03,60.58,51.51,278.72,294.04,1.0
2018-08-28 13:56:00,89.59793,31.7736,901.926,266.48,98.2,796.3,1.1,-3.17,145.12,60.28,51.62,278.6,294.03,60.26,51.55,278.75,294.06,1.0
2018-08-28 13:56:00,89.59793,31.77357,901.905,266.48,98.2,796.5,1.22,-3.11,145.29,60.8,51.49,278.51,293.74,59.84,51.58,278.82,293.93,1.0
2018-08-28 13:56:00,89.59793,31.77354,901.893,266.48,98.2,796.6,-0.36,-3.05,145.3,59.16,51.56,278.6,294.21,59.37,51.61,278.89,293.78,1.0
2018-08-28 13:56:00,89.59793,31.7735,901.897,266.48,98.2,796.6,-2.32,-3.05,145.14,60.41,51.42,278.42,294.22,58.93,51.63,278.93,293.68,1.0
2018-08-28 13:56:00,89.59793,31.77347,901.895,266.48,98.2,796.6,-2.8,-3.11,144.96,59.56,51.62,278.61,293.89,58.58,51.66,278.93,293.63,1.0
2018-08-28 13:56:00,89.59793,31.77344,901.98,266.48,98.2,795.9,-2.93,-2.82,144.77,59.23,51.56,278.42,294.27,58.37,51.68,278.91,293.57,1.0
2018-08-28 13:56:00,89.59793,31.77341,901.983,266.47,98.2,795.8,-2.37,-2.65,144.9,60.01,51.56,278.52,293.72,58.32,51.7,278.88,293.51,1.0
2018-08-28 13:56:00,89.59793,31.77336,901.976,266.47,98.2,795.9,-1.53,-2.57,145.29,59.62,51.35,278.7,293.74,58.42,51.71,278.83,293.45,1.0
2018-08-28 13:56:00,89.59793,31.77331,901.957,266.47,98.2,796.1,-1.42,-2.5,145.78,59.16,51.56,278.8,293.64,58.66,51.7,278.77,293.38,1.0
2018-08-28 13:56:00,89.59793,31.77326,901.901,266.47,98.2,796.5,-1.88,-2.43,146.18,59.23,51.56,278.52,294.02,58.98,51.68,278.71,293.34,1.0
2018-08-28 13:56:00,89.59793,31.77321,901.862,266.48,98.2,796.9,-0.53,-2.58,146.48,59.75,51.56,278.7,293.73,59.33,51.65,278.64,293.41,1.0
2018-08-28 13:56:00,89.59793,31.77315,901.914,266.48,98.2,796.4,3.25,-2.67,146.12,59.82,51.56,278.61,293.83,59.63,51.6,278.61,293.42,1.0
2018-08-28 13:56:00,89.59793,31.7731,901.948,266.48,98.2,796.1,5.76,-2.64,145.89,58.9,51.62,278.61,293.73,59.83,51.55,278.59,293.45,1.0
2018-08-28 13:56:00,89.59793,31.77305,901.953,266.48,98.2,796.1,7.39,-2.48,145.74,59.23,51.56,278.79,293.54,59.9,51.5,278.55,293.56,1.0
2018-08-28 13:56:00,89.59793,31.77299,901.954,266.48,98.2,796.1,7.51,-2.32,145.71,59.56,51.62,278.53,293.98,59.8,51.45,278.49,293.73,1.0
2018-08-28 13:56:00,89.59793,31.77294,902.021,266.47,98.2,795.5,5.2,-2.37,145.88,59.1,51.35,278.46,294.39,59.54,51.42,278.46,293.89,1.0
2018-08-28 13:56:00,89.59793,31.77289,901.902,266.48,98.2,796.5,3.08,-2.72,145.95,60.54,51.76,278.41,293.8,59.15,51.41,278.49,293.93,1.0
2018-08-28 13:56:00,89.59793,31.77284,901.972,266.48,98.2,795.9,3.35,-2.63,145.64,59.62,51.56,278.8,293.54,58.68,51.43,278.53,293.96,1.0
2018-08-28 13:56:00,89.59793,31.77278,902.014,266.48,98.2,795.6,4.0,-2.52,145.33,60.67,51.62,278.04,294.33,58.2,51.48,278.56,293.97,1.0
2018-08-28 13:56:00,89.59793,31.77273,901.972,266.48,98.2,795.9,5.02,-2.54,145.11,60.01,51.35,277.74,294.74,57.77,51.55,278.58,293.97,1.0
2018-08-28 13:56:00,89.59793,31.7727,901.928,266.47,98.2,796.3,6.57,-2.7,144.97,58.12,51.42,277.7,294.6,57.46,51.64,278.6,293.95,1.0
2018-08-28 13:56:00,89.59793,31.77267,901.954,266.48,98.2,796.1,6.59,-2.67,145.11,58.7,51.42,278.42,293.56,57.32,51.73,278.62,293.88,1.0
2018-08-28 13:56:00,89.59793,31.77264,902.007,266.48,98.2,795.6,6.56,-2.69,145.26,59.82,51.76,278.71,293.45,57.38,51.83,278.63,293.88,1.0
2018-08-28 13:56:00,89.59793,31.77261,901.983,266.48,98.2,795.8,5.48,-2.85,145.55,59.29,51.62,278.8,293.74,57.65,51.92,278.57,293.85,1.0
2018-08-28 13:56:00,89.59793,31.77258,901.95,266.48,98.2,796.1,5.94,-2.99,145.85,59.42,51.35,278.42,293.54,58.11,51.99,278.58,293.79,1.0
2018-08-28 13:56:00,89.59793,31.77254,901.981,266.47,98.2,795.9,7.47,-3.02,146.08,58.9,51.56,278.5,293.34,58.72,52.04,278.67,293.73,1.0
2018-08-28 13:56:00,89.59793,31.77251,902.023,266.47,98.2,795.5,5.06,-3.03,146.18,58.77,51.42,278.24,293.73,59.42,52.07,278.75,293.69,1.0
2018-08-28 13:56:00,89.59793,31.77248,901.932,266.48,98.2,796.3,5.1,-3.36,146.26,59.95,51.83,278.41,293.84,60.14,52.07,278.77,293.74,1.0
2018-08-28 13:56:00,89.59793,31.77245,901.921,266.48,98.2,796.4,6.02,-3.31,145.74,58.44,51.76,278.23,293.34,60.8,52.04,278.78,293.79,1.0
2018-08-28 13:56:00,89.59793,31.77242,901.951,266.48,98.2,796.1,7.63,-3.12,145.34,59.49,51.56,278.35,293.16,61.34,52.0,278.79,293.82,1.0
2018-08-28 13:56:00,89.59792,31.77239,901.985,266.48,98.2,795.8,9.41,-2.91,145.13,59.23,51.69,278.72,293.84,61.72,51.94,278.79,293.83,1.0
2018-08-28 13:56:00,89.59792,31.77236,902.023,266.48,98.2,795.5,11.07,-2.73,144.94,58.84,51.56,278.8,293.55,61.9,51.86,278.78,293.82,1.0
2018-08-28 13:56:00,89.59792,31.77232,901.977,266.48,98.2,795.9,13.85,-2.65,144.98,60.14,51.62,278.69,293.72,61.88,51.78,278.76,293.79,1.0
2018-08-28 13:56:00,89.59792,31.77229,901.974,266.48,98.2,795.9,12.68,-2.61,145.03,59.36,51.56,278.71,293.92,61.67,51.69,278.75,293.74,1.0
2018-08-28 13:56:00,89.59792,31.77226,901.968,266.48,98.2,796.0,11.6,-2.7,145.32,59.62,51.62,278.71,293.54,61.31,51.6,278.79,293.75,1.0
2018-08-28 13:56:00,89.59792,31.77223,901.961,266.48,98.2,796.0,10.28,-2.74,145.54,59.49,51.76,278.71,293.45,60.84,51.52,278.82,293.74,1.0
2018-08-28 13:56:00,89.59792,31.7722,901.964,266.48,98.2,796.0,8.65,-2.68,145.54,60.14,51.62,278.8,293.84,60.32,51.44,278.8,293.69,1.0
2018-08-28 13:56:00,89.59792,31.77217,901.93,266.48,98.2,796.3,8.91,-2.78,145.57,59.36,51.76,278.8,294.01,59.8,51.38,278.73,293.64,1.0
2018-08-28 13:56:00,89.59792,31.77214,902.013,266.48,98.2,795.6,7.83,-2.68,145.57,59.56,51.62,278.89,293.83,59.32,51.33,278.73,293.59,1.0
2018-08-28 13:56:00,89.59792,31.77211,902.006,266.48,98.2,795.6,6.57,-2.64,145.64,59.75,51.62,278.61,293.74,58.91,51.31,278.73,293.55,1.0
2018-08-28 13:56:00,89.59792,31.77208,901.999,266.48,98.2,795.7,5.58,-2.69,145.67,60.14,51.56,278.71,293.65,58.59,51.3,278.68,293.47,1.0
2018-08-28 13:56:00,89.59792,31.77205,902.024,266.48,98.2,795.5,5.49,-2.79,145.63,60.34,51.56,278.76,293.74,58.35,51.32,278.62,293.36,1.0
2018-08-28 13:56:00,89.59792,31.77202,901.933,266.48,98.2,796.3,6.8,-2.85,145.59,59.36,51.62,277.88,293.73,58.2,51.35,278.58,293.29,1.0
2018-08-28 13:56:00,89.59792,31.77199,901.983,266.48,98.2,795.8,7.34,-2.73,145.71,59.82,51.69,278.73,293.73,58.12,51.4,278.51,293.23,1.0
2018-08-28 13:56:00,89.59792,31.77196,901.994,266.49,98.2,795.7,5.74,-2.89,145.8,58.7,51.62,278.8,293.64,58.09,51.45,278.43,293.16,1.0
2018-08-28 13:56:00,89.59792,31.77193,901.971,266.49,98.2,795.9,4.22,-3.12,145.85,59.03,51.42,278.25,293.26,58.1,51.5,278.35,293.1,1.0
2018-08-28 13:56:00,89.59792,31.7719,901.918,266.47,98.1,796.4,4.33,-3.29,145.75,58.97,51.56,278.08,292.87,58.14,51.54,278.24,293.06,1.0
2018-08-28 13:56:00,89.59792,31.77186,902.009,266.47,98.1,795.6,7.4,-3.06,145.29,59.62,51.56,278.51,293.28,58.21,51.58,278.11,293.03,1.0
2018-08-28 13:56:00,89.59792,31.7718,902.055,266.48,98.2,795.2,7.78,-2.78,144.89,59.23,51.56,278.43,293.73,58.31,51.6,278.07,293.02,1.0
2018-08-28 13:56:00,89.59792,31.77174,902.052,266.49,98.2,795.3,6.68,-2.88,144.76,59.49,51.56,278.7,293.54,58.44,51.61,278.02,292.94,1.0
2018-08-28 13:56:00,89.59792,31.77169,901.953,266.49,98.2,796.1,3.29,-2.74,144.75,60.86,51.62,278.7,293.45,58.59,51.62,278.03,292.88,1.0
2018-08-28 13:56:00,89.59792,31.77163,901.902,266.49,98.2,796.5,0.97,-2.58,144.9,59.03,51.56,278.34,293.73,58.77,51.63,278.12,292.91,1.0
2018-08-28 13:56:00,89.59792,31.77158,901.995,266.48,98.2,795.7,1.36,-2.5,145.14,59.42,51.69,277.63,293.73,58.95,51.64,278.27,293.01,1.0
2018-08-28 13:56:00,89.59792,31.77152,902.023,266.48,98.2,795.5,2.55,-2.3,145.26,58.25,51.76,277.71,293.76,59.12,51.65,278.39,293.08,1.0
2018-08-28 13:56:00,89.59792,31.77146,901.959,266.48,98.2,796.1,3.99,-2.53,145.14,59.29,51.62,277.77,292.71,59.25,51.68,278.43,293.12,1.0
2018-08-28 13:56:00,89.59792,31.77141,901.991,266.48,98.2,795.8,5.48,-2.35,145.2,58.84,51.49,278.28,292.39,59.32,51.72,278.5,293.14,1.0
2018-08-28 13:56:00,89.59792,31.77135,902.013,266.48,98.2,795.6,6.38,-2.14,145.32,59.56,51.42,278.17,292.52,59.3,51.76,278.56,293.13,1.0
2018-08-28 13:56:00,89.59792,31.7713,901.983,266.48,98.2,795.8,6.51,-2.04,145.41,58.97,51.42,278.37,292.89,59.19,51.81,278.62,293.05,1.0
2018-08-28 13:56:00,89.59792,31.77124,902.011,266.48,98.2,795.6,6.12,-1.98,145.36,60.41,51.76,278.31,293.24,58.99,51.85,278.69,292.91,1.0
2018-08-28 13:56:00,89.59792,31.77118,902.005,266.48,98.2,795.7,6.36,-2.0,145.18,57.79,51.62,277.79,293.52,58.72,51.88,278.75,292.86,1.0
2018-08-28 13:56:00,89.59792,31.77112,902.032,266.48,98.2,795.4,6.26,-2.39,144.89,60.54,51.62,278.2,293.53,58.42,51.9,278.77,292.91,1.0
2018-08-28 13:56:00,89.59792,31.77107,902.06,266.48,98.2,795.2,8.12,-2.48,144.95,59.36,51.56,278.65,293.53,58.12,51.91,278.78,292.96,1.0
2018-08-28 13:56:00,89.59792,31.77101,902.05,266.48,98.2,795.3,10.37,-2.5,145.32,58.77,51.62,278.71,293.24,57.89,51.89,278.79,293.01,1.0
2018-08-28 13:56:00,89.59792,31.77096,901.994,266.48,98.2,795.8,10.6,-2.66,145.77,59.23,51.62,278.8,292.42,57.77,51.87,278.8,293.1,1.0
2018-08-28 13:56:00,89.59792,31.7709,902.051,266.49,98.2,795.3,7.74,-2.47,146.14,59.42,51.83,278.89,293.64,57.79,51.84,278.83,293.21,1.0
2018-08-28 13:56:00,89.59792,31.77084,902.037,266.48,98.2,795.4,9.61,-2.24,146.06,59.42,51.62,278.8,293.65,57.99,51.81,278.97,293.32,1.0
2018-08-28 13:56:00,89.59792,31.77079,902.014,266.48,98.2,795.6,12.58,-2.1,145.88,59.23,51.76,278.89,293.12,58.34,51.79,279.02,293.34,1.0
2018-08-28 13:56:00,89.59792,31.77073,902.014,266.48,98.2,795.6,13.85,-2.08,145.7,58.9,51.62,278.8,293.18,58.83,51.77,279.01,293.3,1.0
2018-08-28 13:56:00,89.59792,31.77068,902.033,266.48,98.2,795.4,12.15,-1.97,145.68,58.97,51.62,278.75,293.63,59.41,51.77,279.03,293.33,1.0
2018-08-28 13:56:00,89.59792,31.77064,902.008,266.48,98.2,795.6,8.08,-1.43,146.04,57.92,51.42,278.44,293.87,60.02,51.77,279.11,293.48,1.0
2018-08-28 13:56:00,89.59791,31.7706,902.014,266.48,98.2,795.6,6.19,-1.47,146.6,58.51,51.69,278.88,293.57,60.59,51.79,279.15,293.51,1.0
2018-08-28 13:56:00,89.59791,31.77056,902.017,266.48,98.2,795.6,4.19,-1.66,146.52,59.62,51.83,278.08,292.51,61.05,51.82,279.17,293.49,1.0
2018-08-28 13:56:00,89.59791,31.77052,901.99,266.48,98.2,795.8,3.38,-1.82,146.09,59.23,51.62,277.61,291.46,61.35,51.85,279.15,293.48,1.0
2018-08-28 13:56:00,89.59791,31.77049,901.946,266.48,98.2,796.2,3.94,-1.86,145.52,58.77,51.62,277.75,292.24,61.46,51.89,279.11,293.43,1.0
2018-08-28 13:56:00,89.59791,31.77045,901.942,266.48,98.2,796.2,5.27,-1.76,145.02,59.56,51.56,278.98,293.44,61.36,51.92,279.05,293.34,1.0
2018-08-28 13:56:00,89.59791,31.77042,902.056,266.48,98.2,795.2,5.27,-1.83,144.9,60.6,51.83,278.71,293.73,61.07,51.96,279.02,293.23,1.0
2018-08-28 13:56:00,89.59791,31.77038,902.024,266.48,98.2,795.5,3.43,-1.72,145.05,58.7,51.69,278.79,293.73,60.62,52.0,278.98,293.17,1.0
2018-08-28 13:56:00,89.59791,31.77034,902.068,266.48,98.2,795.1,2.14,-1.84,145.31,59.82,51.69,278.98,293.35,60.07,52.03,279.04,293.24,1.0
2018-08-28 13:56:00,89.59791,31.77031,902.126,266.49,98.2,794.6,1.89,-2.04,145.55,59.62,51.76,278.8,293.83,59.47,52.07,279.17,293.39,1.0
2018-08-28 13:56:00,89.59791,31.77027,902.102,266.48,98.2,794.8,2.91,-2.16,145.62,59.62,51.69,278.89,293.43,58.89,52.1,279.27,293.53,1.0
2018-08-28 13:56:00,89.59791,31.77023,902.148,266.48,98.2,794.4,5.94,-1.87,145.19,59.1,51.83,278.99,293.43,58.39,52.12,279.31,293.58,1.0
2018-08-28 13:56:00,89.59791,31.7702,902.131,266.48,98.2,794.6,4.84,-1.94,144.61,59.36,51.62,278.97,293.53,58.0,52.13,279.35,293.63,1.0
2018-08-28 13:56:00,89.59791,31.77017,902.089,266.49,98.2,794.9,1.78,-2.07,144.93,59.16,51.69,278.98,293.73,57.75,52.11,279.39,293.69,1.0
2018-08-28 13:56:00,89.59791,31.77014,902.071,266.49,98.2,795.1,-1.5,-2.08,145.6,59.42,51.76,278.89,293.72,57.65,52.08,279.35,293.73,1.0
2018-08-28 13:56:00,89.59791,31.77011,902.082,266.48,98.2,795.0,-3.37,-2.01,146.16,59.56,51.62,279.07,293.82,57.68,52.01,279.26,293.76,1.0
2018-08-28 13:56:00,89.59791,31.77008,902.063,266.48,98.2,795.2,-2.95,-2.01,146.31,58.7,51.76,278.97,293.53,57.82,51.93,279.17,293.76,1.0
2018-08-28 13:56:00,89.59791,31.77005,902.036,266.48,98.2,795.4,-1.07,-2.2,145.87,59.16,51.83,279.08,293.72,58.05,51.82,279.08,293.74,1.0
2018-08-28 13:56:00,89.59791,31.77002,902.102,266.48,98.2,794.8,0.64,-2.22,145.76,59.62,51.9,278.79,293.43,58.32,51.7,279.0,293.7,1.0
2018-08-28 13:56:00,89.59791,31.76998,902.116,266.48,98.2,794.7,0.25,-2.3,146.25,59.36,51.83,278.52,293.63,58.6,51.58,278.94,293.64,1.0
2018-08-28 13:56:00,89.59791,31.76996,902.061,266.48,98.2,795.2,-1.95,-2.3,146.99,58.51,51.83,278.21,293.73,58.86,51.47,278.88,293.59,1.0
2018-08-28 13:56:00,89.59791,31.76992,902.014,266.48,98.2,795.6,-4.22,-2.17,147.6,59.75,51.9,278.52,293.34,59.08,51.39,278.84,293.54,1.0
2018-08-28 13:56:00,89.59791,31.76989,902.106,266.48,98.2,794.8,-2.7,-2.37,148.14,58.38,51.83,278.38,293.53,59.24,51.34,278.81,293.5,1.0
2018-08-28 13:56:00,89.59791,31.76986,902.085,266.48,98.2,795.0,-1.61,-2.41,148.29,59.62,51.62,278.89,293.54,59.35,51.34,278.72,293.46,1.0
2018-08-28 13:56:00,89.59791,31.76985,902.076,266.48,98.2,795.0,-3.93,-2.54,148.08,59.42,51.56,278.98,293.63,59.4,51.38,278.65,293.39,1.0
2018-08-28 13:56:00,89.59791,31.76984,902.091,266.48,98.2,794.9,-7.71,-2.73,147.47,57.66,51.62,279.25,293.44,59.4,51.47,278.68,293.35,1.0
2018-08-28 13:56:00,89.59791,31.76983,902.095,266.48,98.2,794.9,-10.65,-2.92,146.69,60.08,51.76,279.16,293.63,59.36,51.58,278.78,293.35,1.0
2018-08-28 13:56:00,89.59791,31.76982,902.03,266.49,98.2,795.4,-11.39,-3.11,146.22,58.64,51.62,279.01,293.61,59.3,51.71,278.85,293.35,1.0
2018-08-28 13:56:00,89.59791,31.76981,902.058,266.48,98.2,795.2,-11.57,-3.37,145.77,58.97,51.76,278.18,293.44,59.23,51.85,278.89,293.35,1.0
2018-08-28 13:56:00,89.59791,31.7698,902.047,266.49,98.2,795.3,-12.34,-3.55,145.44,59.69,51.76,278.04,292.96,59.16,51.97,278.89,293.34,1.0
2018-08-28 13:56:00,89.59791,31.7698,902.049,266.49,98.2,795.3,-11.01,-3.58,145.42,59.82,51.49,278.54,293.09,59.1,52.07,278.88,293.33,1.0
2018-08-28 13:56:00,89.59791,31.76979,902.079,266.48,98.2,795.0,-8.02,-3.47,145.71,59.62,51.83,278.7,293.33,59.05,52.14,278.86,293.31,1.0
2018-08-28 13:56:00,89.59791,31.76978,902.081,266.48,98.2,795.0,-5.83,-3.29,146.18,59.29,51.83,279.07,293.53,59.03,52.18,278.84,293.29,1.0
2018-08-28 13:56:00,89.59791,31.76977,902.056,266.49,98.2,795.2,-6.21,-3.3,146.57,58.12,51.76,279.07,293.73,59.02,52.18,278.85,293.28,1.0
2018-08-28 13:56:00,89.59791,31.76976,902.068,266.48,98.2,795.1,-7.65,-3.41,146.44,58.77,51.83,278.79,293.63,59.03,52.16,278.94,293.3,1.0
2018-08-28 13:56:00,89.59791,31.76975,902.062,266.48,98.2,795.2,-8.59,-3.36,146.24,59.69,51.83,278.97,293.53,59.06,52.13,279.06,293.36,1.0
2018-08-28 13:56:00,89.59791,31.76975,902.071,266.48,98.2,795.1,-9.34,-3.38,146.15,58.31,51.69,279.07,293.52,59.1,52.08,279.15,293.42,1.0
2018-08-28 13:56:00,89.59791,31.76974,902.119,266.48,98.2,794.7,-10.32,-3.5,146.14,59.36,51.69,279.07,293.71,59.16,52.05,279.22,293.44,1.0
2018-08-28 13:56:00,89.5979,31.76973,902.02,266.48,98.2,795.5,-11.43,-3.33,145.9,60.14,51.83,279.08,293.63,59.22,52.02,279.29,293.45,1.0
2018-08-28 13:56:00,89.5979,31.76972,902.124,266.48,98.2,794.6,-12.03,-3.41,145.75,58.12,51.76,279.03,293.47,59.3,52.0,279.36,293.47,1.0
2018-08-28 13:56:00,89.5979,31.7697,902.166,266.48,98.2,794.3,-13.35,-3.52,145.68,59.23,51.76,278.96,293.45,59.38,52.0,279.41,293.46,1.0
2018-08-28 13:56:00,89.5979,31.76966,902.129,266.48,98.2,794.6,-13.45,-3.58,145.9,59.82,51.83,278.88,293.63,59.47,52.0,279.45,293.45,1.0
2018-08-28 13:56:00,89.5979,31.76962,902.077,266.48,98.2,795.0,-11.7,-3.53,146.29,58.57,51.83,279.06,293.43,59.57,52.0,279.47,293.41,1.0
2018-08-28 13:56:00,89.5979,31.76958,902.127,266.48,98.2,794.6,-8.86,-3.34,146.46,60.01,51.97,278.97,293.71,59.68,52.0,279.47,293.36,1.0
2018-08-28 13:56:00,89.5979,31.76954,902.124,266.48,98.2,794.6,-5.22,-3.31,146.4,58.7,51.83,279.16,293.53,59.78,52.0,279.46,293.3,1.0
2018-08-28 13:56:00,89.5979,31.76951,902.073,266.49,98.2,795.1,-1.16,-3.17,146.42,60.01,51.83,278.97,293.54,59.88,51.98,279.45,293.23,1.0
2018-08-28 13:56:00,89.5979,31.76947,902.072,266.49,98.2,795.1,0.45,-3.01,146.62,58.77,51.83,279.07,293.24,59.95,51.96,279.44,293.18,1.0
2018-08-28 13:56:00,89.5979,31.76943,902.104,266.49,98.2,794.8,-0.43,-2.9,146.9,58.51,51.76,279.26,293.43,60.0,51.93,279.43,293.14,1.0
2018-08-28 13:56:00,89.5979,31.76939,902.094,266.48,98.2,794.9,-3.23,-2.84,147.07,58.18,51.76,279.16,293.43,59.99,51.89,279.44,293.13,1.0
2018-08-28 13:56:00,89.5979,31.76937,902.198,266.49,98.2,794.0,-6.85,-2.77,146.93,60.14,51.76,279.15,293.5,59.93,51.86,279.47,293.14,1.0
2018-08-28 13:56:00,89.5979,31.76937,902.161,266.49,98.2,794.3,-8.89,-2.77,146.37,59.03,51.83,279.16,293.51,59.8,51.83,279.42,293.19,1.0
2018-08-28 13:56:00,89.5979,31.76936,902.126,266.49,98.2,794.6,-8.64,-2.61,145.55,59.69,51.97,279.07,293.41,59.58,51.81,279.49,293.26,1.0
2018-08-28 13:56:00,89.5979,31.76936,902.108,266.49,98.2,794.8,-9.25,-2.61,145.03,60.6,51.9,279.35,293.51,59.3,51.8,279.54,293.35,1.0
2018-08-28 13:56:00,89.5979,31.76935,902.085,266.48,98.2,795.0,-11.89,-2.81,145.15,58.84,51.97,279.25,293.71,58.94,51.8,279.52,293.43,1.0
2018-08-28 13:56:00,89.5979,31.76935,902.108,266.49,98.2,794.8,-13.2,-2.56,145.73,59.56,51.83,279.22,293.51,58.54,51.81,279.5,293.5,1.0
2018-08-28 13:56:00,89.5979,31.76934,902.083,266.48,98.2,795.0,-14.68,-2.51,146.27,59.16,51.62,278.27,293.51,58.12,51.82,279.47,293.56,1.0
2018-08-28 13:56:00,89.5979,31.76934,902.109,266.48,98.2,794.8,-14.38,-2.52,146.6,58.38,51.83,279.22,293.5,57.72,51.84,279.45,293.56,1.0
2018-08-28 13:56:00,89.5979,31.76933,902.195,266.48,98.2,794.0,-13.77,-2.55,146.48,59.75,51.83,279.39,293.08,57.37,51.86,279.42,293.54,1.0
2018-08-28 13:56:00,89.5979,31.76933,902.245,266.48,98.2,793.6,-13.0,-2.48,145.97,59.16,51.9,278.41,293.42,57.12,51.88,279.38,293.52,1.0
2018-08-28 13:56:00,89.5979,31.76932,902.09,266.48,98.2,794.9,-11.41,-2.25,145.42,58.7,51.83,278.85,293.71,57.0,51.9,279.34,293.47,1.0
2018-08-28 13:56:00,89.5979,31.76932,902.123,266.48,98.2,794.6,-10.44,-2.47,145.72,60.14,51.76,278.71,293.73,57.03,51.93,279.3,293.42,1.0
2018-08-28 13:56:00,89.5979,31.76931,902.194,266.49,98.2,794.0,-10.37,-2.4,146.02,58.51,51.83,279.07,292.9,57.22,51.97,279.36,293.36,1.0
2018-08-28 13:56:00,89.5979,31.7693,902.204,266.49,98.2,793.9,-10.91,-2.56,145.93,59.03,51.97,279.02,292.94,57.57,52.01,279.31,293.28,1.0
2018-08-28 13:56:00,89.59789,31.7693,902.158,266.48,98.2,794.3,-11.15,-2.91,145.63,59.29,51.76,279.25,293.42,58.06,52.06,279.29,293.22,1.0
2018-08-28 13:56:00,89.59789,31.76929,902.117,266.48,98.2,794.7,-10.3,-3.15,145.4,58.18,51.76,279.35,293.42,58.65,52.1,279.35,293.19,1.0
2018-08-28 13:56:00,89.59789,31.76928,902.112,266.48,98.2,794.7,-8.43,-2.81,145.46,58.51,51.97,279.36,293.52,59.28,52.14,279.4,293.17,1.0
2018-08-28 13:56:00,89.59789,31.76927,902.17,266.48,98.2,794.2,-8.68,-2.98,145.05,58.64,51.83,279.53,293.52,59.9,52.17,279.45,293.16,1.0
2018-08-28 13:56:00,89.59789,31.76927,902.174,266.48,98.2,794.2,-10.86,-2.94,144.89,58.84,51.97,279.06,293.42,60.45,52.18,279.48,293.2,1.0
2018-08-28 13:56:00,89.59789,31.76926,902.153,266.48,98.2,794.4,-12.54,-2.89,144.9,60.14,51.83,279.07,293.71,60.87,52.16,279.49,293.23,1.0
2018-08-28 13:56:00,89.59789,31.76925,902.143,266.48,98.2,794.5,-12.45,-2.85,145.21,58.44,51.76,279.53,293.42,61.13,52.12,279.49,293.25,1.0
2018-08-28 13:56:00,89.59789,31.76924,902.128,266.48,98.2,794.6,-10.78,-2.64,146.04,58.64,51.97,279.35,293.62,61.2,52.05,279.5,293.28,1.0
2018-08-28 13:56:00,89.59789,31.76924,902.114,266.48,98.2,794.7,-9.63,-2.91,146.6,59.03,51.83,279.44,293.52,61.08,51.97,279.5,293.31,1.0
2018-08-28 13:56:00,89.59789,31.76923,902.215,266.49,98.2,793.9,-7.95,-2.93,147.08,59.56,52.04,279.35,293.52,60.79,51.88,279.5,293.33,1.0
2018-08-28 13:56:00,89.59789,31.76922,902.272,266.49,98.2,793.4,-6.64,-2.74,147.5,59.03,51.83,279.05,293.32,60.37,51.8,279.51,293.35,1.0
2018-08-28 13:56:00,89.59789,31.76921,902.254,266.49,98.2,793.5,-5.94,-2.52,147.79,59.36,51.9,279.51,293.13,59.87,51.74,279.52,293.36,1.0
2018-08-28 13:56:00,89.59789,31.76921,902.234,266.49,98.2,793.7,-6.01,-2.52,147.78,59.49,51.97,279.32,293.52,59.34,51.72,279.55,293.36,1.0
2018-08-28 13:56:00,89.59789,31.7692,902.211,266.48,98.2,793.9,-6.86,-2.46,147.82,59.62,51.97,279.24,293.54,58.85,51.73,279.57,293.35,1.0
2018-08-28 13:56:00,89.59789,31.76919,902.206,266.48,98.2,793.9,-6.64,-2.54,147.71,59.75,52.04,279.44,293.43,58.44,51.79,279.6,293.29,1.0
2018-08-28 13:56:00,89.59789,31.76919,902.182,266.48,98.2,794.1,-7.99,-2.69,147.24,59.23,51.62,279.33,293.32,58.14,51.88,279.62,293.26,1.0
2018-08-28 13:56:00,89.59789,31.76918,902.133,266.48,98.2,794.6,-10.61,-2.87,146.48,58.97,51.9,279.14,293.12,57.98,52.0,279.65,293.19,1.0
2018-08-28 13:56:00,89.59789,31.76917,902.085,266.49,98.2,795.0,-12.5,-3.06,145.68,58.31,51.69,279.24,293.51,57.95,52.13,279.67,293.1,1.0
2018-08-28 13:56:00,89.59789,31.76916,902.158,266.48,98.1,794.3,-9.8,-3.05,145.4,59.88,52.04,279.42,293.49,58.03,52.26,279.69,293.05,1.0
2018-08-28 13:56:00,89.59789,31.76916,902.14,266.49,98.2,794.5,-10.89,-3.25,145.18,59.82,51.83,279.3,292.75,58.2,52.36,279.71,293.0,1.0
2018-08-28 13:56:00,89.59789,31.76915,902.141,266.49,98.2,794.5,-12.28,-3.2,145.17,57.92,51.76,279.13,292.91,58.42,52.42,279.73,292.97,1.0
2018-08-28 13:56:00,89.59789,31.76914,902.161,266.49,98.2,794.3,-12.09,-3.11,145.23,59.1,51.97,279.32,293.18,58.66,52.43,279.76,292.96,1.0
2018-08-28 13:56:00,89.59789,31.76914,902.187,266.49,98.2,794.1,-10.93,-3.1,145.28,59.03,51.83,279.32,292.79,58.89,52.4,279.79,292.98,1.0
2018-08-28 13:56:00,89.59789,31.76914,902.183,266.48,98.2,794.1,-10.65,-3.22,145.26,59.42,52.18,279.32,293.43,59.09,52.32,279.83,293.02,1.0
2018-08-28 13:56:00,89.59789,31.76915,902.194,266.48,98.2,794.0,-7.49,-3.47,145.03,58.31,51.97,279.42,293.43,59.26,52.21,279.87,293.08,1.0
2018-08-28 13:56:00,89.59789,31.76915,902.19,266.49,98.2,794.1,-7.64,-3.34,145.27,58.84,52.04,279.51,293.33,59.4,52.09,279.91,293.19,1.0
2018-08-28 13:56:00,89.59789,31.76916,902.202,266.49,98.2,794.0,-9.6,-3.32,145.4,59.42,51.97,279.23,293.52,59.51,51.97,279.95,293.25,1.0
2018-08-28 13:56:00,89.59789,31.76916,902.175,266.49,98.2,794.2,-11.13,-3.4,145.59,60.21,51.97,279.51,293.43,59.6,51.87,279.97,293.32,1.0
2018-08-28 13:56:00,89.59789,31.76916,902.073,266.49,98.2,795.1,-11.06,-3.49,145.86,58.57,52.04,279.51,293.52,59.67,51.79,279.97,293.38,1.0
2018-08-28 13:56:00,89.59789,31.76916,902.104,266.49,98.2,794.8,-10.17,-3.55,145.78,59.75,51.97,279.42,293.43,59.73,51.73,279.95,293.36,1.0
2018-08-28 13:56:00,89.59789,31.76917,902.122,266.5,98.2,794.7,-8.17,-3.55,145.63,58.38,51.83,279.51,293.52,59.75,51.71,279.91,293.3,1.0
2018-08-28 13:56:00,89.59789,31.76917,902.133,266.49,98.2,794.6,-10.15,-3.49,146.06,58.9,51.97,279.51,293.23,59.71,51.69,279.85,293.21,1.0
2018-08-28 13:56:00,89.59789,31.76918,902.077,266.49,98.2,795.0,-11.77,-3.32,146.67,59.36,52.04,279.51,293.24,59.61,51.68,279.78,293.07,1.0
2018-08-28 13:56:00,89.59789,31.76918,901.993,266.5,98.2,795.8,-11.51,-3.2,147.13,58.9,51.83,279.79,293.24,59.42,51.66,279.7,292.92,1.0
2018-08-28 13:56:00,89.59789,31.76918,902.074,266.49,98.2,795.1,-10.12,-3.34,147.29,58.97,51.9,279.32,293.43,59.14,51.62,279.64,292.82,1.0
2018-08-28 13:56:00,89.59789,31.76918,902.197,266.49,98.2,794.0,-7.92,-3.14,147.49,59.03,51.83,279.7,293.24,58.76,51.55,279.59,292.75,1.0
2018-08-28 13:56:00,89.59788,31.76919,902.196,266.49,98.2,794.0,-6.56,-2.89,147.55,59.82,51.9,279.51,293.43,58.32,51.46,279.56,292.72,1.0
2018-08-28 13:56:00,89.59788,31.76919,902.195,266.49,98.2,794.0,-5.94,-2.77,147.6,59.62,51.97,279.52,293.01,57.85,51.36,279.56,292.74,1.0
2018-08-28 13:56:00,89.59788,31.7692,902.192,266.49,98.2,794.1,-6.34,-2.74,147.58,58.57,52.04,279.79,292.87,57.41,51.27,279.57,292.86,1.0
2018-08-28 13:56:00,89.59788,31.7692,902.124,266.49,98.2,794.6,-7.79,-2.73,147.44,59.23,51.9,279.47,293.24,57.04,51.2,279.61,293.03,1.0
2018-08-28 13:56:00,89.59788,31.7692,902.113,266.49,98.2,794.7,-8.98,-2.76,147.34,59.75,51.83,279.51,293.33,56.79,51.17,279.73,293.08,1.0
2018-08-28 13:56:00,89.59788,31.76919,902.164,266.49,98.2,794.3,-8.49,-2.4,147.48,59.16,51.97,279.5,293.43,56.71,51.19,279.71,293.31,1.0
2018-08-28 13:56:00,89.59788,31.76919,902.161,266.49,98.2,794.3,-8.21,-2.38,147.62,58.97,51.83,279.6,293.24,56.8,51.28,279.81,293.47,1.0
2018-08-28 13:56:00,89.59788,31.76919,902.164,266.49,98.2,794.3,-7.87,-2.54,147.66,59.16,51.83,279.55,294.1,57.06,51.43,279.88,293.58,1.0
2018-08-28 13:56:00,89.59788,31.76919,902.207,266.49,98.2,793.9,-8.55,-2.56,147.64,57.59,51.69,279.46,293.94,57.46,51.63,279.88,293.64,1.0
2018-08-28 13:56:00,89.59788,31.76919,902.176,266.49,98.2,794.2,-12.39,-2.04,147.66,58.51,51.76,280.33,292.56,57.95,51.85,279.86,293.63,1.0
2018-08-28 13:56:00,89.59788,31.76919,902.258,266.49,98.2,793.5,-12.48,-2.14,147.38,57.72,51.42,278.55,294.36,58.45,52.08,279.84,293.59,1.0
2018-08-28 13:56:00,89.59788,31.76918,902.259,266.49,98.2,793.5,-15.64,-2.42,147.35,59.16,51.62,279.96,293.43,58.91,52.29,279.82,293.53,1.0
2018-08-28 13:56:00,89.59788,31.76916,902.203,266.49,98.2,794.0,-17.94,-2.8,147.15,58.64,51.83,280.07,293.24,59.28,52.45,279.82,293.47,1.0
2018-08-28 13:56:00,89.59788,31.76914,902.162,266.49,98.2,794.3,-18.53,-3.02,147.03,60.21,51.9,279.42,293.14,59.52,52.55,279.85,293.37,1.0
2018-08-28 13:56:00,89.59788,31.76912,902.183,266.49,98.2,794.1,-18.14,-2.92,147.24,58.38,52.11,279.6,293.62,59.62,52.58,279.89,293.27,1.0
2018-08-28 13:56:00,89.59788,31.7691,902.209,266.49,98.2,793.9,-16.39,-3.06,146.92,58.51,51.9,279.6,293.33,59.61,52.54,279.88,293.33,1.0
2018-08-28 13:56:00,89.59788,31.76908,902.234,266.49,98.2,793.7,-17.48,-3.1,146.95,58.57,51.97,279.5,293.14,59.52,52.44,280.02,293.24,1.0
2018-08-28 13:56:00,89.59788,31.76906,902.167,266.49,98.2,794.3,-20.46,-3.06,146.96,59.16,51.83,279.59,293.24,59.4,52.31,280.05,293.21,1.0
2018-08-28 13:56:00,89.59788,31.76904,902.107,266.49,98.2,794.8,-22.78,-3.09,147.02,59.62,51.97,279.59,293.43,59.32,52.17,280.08,293.24,1.0
2018-08-28 13:56:00,89.59788,31.76902,902.155,266.49,98.2,794.4,-22.97,-3.21,147.0,57.92,51.9,279.5,293.52,59.32,52.03,280.16,293.28,1.0
2018-08-28 13:56:00,89.59788,31.769,902.188,266.5,98.2,794.1,-22.04,-3.17,146.48,59.62,51.97,279.88,293.33,59.41,51.91,280.22,293.32,1.0
2018-08-28 13:56:00,89.59788,31.76898,902.164,266.49,98.2,794.3,-22.53,-3.41,146.01,58.64,51.83,279.6,293.33,59.6,51.84,280.26,293.33,1.0
2018-08-28 13:56:00,89.59788,31.76896,902.122,266.5,98.2,794.7,-21.97,-3.47,146.15,59.16,51.97,279.59,293.14,59.87,51.81,280.26,293.33,1.0
2018-08-28 13:56:00,89.59788,31.76894,902.131,266.5,98.2,794.6,-20.61,-3.46,146.34,56.74,51.76,279.59,293.24,60.17,51.83,280.25,293.3,1.0
2018-08-28 13:56:00,89.59788,31.76892,902.183,266.5,98.2,794.1,-19.92,-3.42,146.36,59.95,51.97,279.79,293.52,60.43,51.88,280.22,293.27,1.0
2018-08-28 13:56:00,89.59788,31.7689,902.148,266.5,98.2,794.4,-21.49,-3.37,146.3,59.95,52.04,279.7,293.24,60.6,51.96,280.19,293.24,1.0
2018-08-28 13:56:00,89.59788,31.76888,902.153,266.49,98.2,794.4,-21.36,-3.54,145.74,58.57,51.83,279.6,293.24,60.62,52.05,280.16,293.21,1.0
2018-08-28 13:56:00,89.59788,31.76886,902.276,266.5,98.2,793.3,-21.43,-3.75,145.26,59.16,51.9,279.88,293.33,60.48,52.14,280.14,293.18,1.0
2018-08-28 13:56:00,89.59788,31.76884,902.308,266.5,98.2,793.1,-24.38,-3.85,145.18,59.16,51.83,279.6,293.33,60.17,52.24,280.14,293.17,1.0
2018-08-28 13:56:00,89.59788,31.76882,902.262,266.49,98.2,793.4,-28.27,-3.7,145.28,59.03,51.97,279.97,293.24,59.71,52.32,280.16,293.16,1.0
2018-08-28 13:56:00,89.59788,31.7688,902.246,266.5,98.2,793.6,-30.34,-3.43,145.34,58.9,51.9,279.79,293.14,59.17,52.38,280.22,293.13,1.0
2018-08-28 13:56:00,89.59788,31.76879,902.173,266.5,98.2,794.2,-29.25,-3.87,145.54,60.08,51.83,279.7,293.24,58.6,52.44,280.35,293.04,1.0
2018-08-28 13:56:00,89.59788,31.76877,902.195,266.5,98.2,794.0,-29.82,-4.03,145.62,58.9,52.04,279.88,293.14,58.07,52.47,280.39,293.01,1.0
2018-08-28 13:56:00,89.59788,31.76875,902.269,266.49,98.2,793.4,-28.64,-4.16,145.76,59.23,52.04,279.79,293.43,57.64,52.5,280.42,292.98,1.0
2018-08-28 13:56:00,89.59788,31.76873,902.31,266.49,98.2,793.0,-28.18,-4.21,145.79,59.42,52.11,279.79,293.24,57.35,52.51,280.44,292.95,1.0
2018-08-28 13:56:00,89.59788,31.76871,902.258,266.5,98.2,793.5,-28.8,-4.22,145.72,58.7,51.97,280.19,292.9,57.21,52.51,280.45,292.91,1.0
2018-08-28 13:56:00,89.59788,31.76869,902.144,266.49,98.2,794.5,-28.09,-4.38,145.7,59.42,51.83,280.68,292.01,57.21,52.48,280.46,292.89,1.0
2018-08-28 13:56:00,89.59787,31.76868,902.15,266.5,98.2,794.4,-25.62,-3.74,145.83,58.44,52.04,279.61,292.85,57.32,52.43,280.46,292.89,1.0
2018-08-28 13:56:00,89.59787,31.76866,902.222,266.49,98.2,793.8,-24.45,-3.79,146.37,59.23,52.04,280.06,293.24,57.49,52.36,280.47,292.91,1.0
2018-08-28 13:56:00,89.59787,31.76865,902.279,266.49,98.2,793.3,-25.1,-3.83,146.99,58.7,52.11,279.79,293.43,57.68,52.27,280.48,292.96,1.0
2018-08-28 13:56:00,89.59787,31.76864,902.293,266.5,98.2,793.2,-26.71,-3.72,147.33,58.38,51.97,279.7,293.23,57.84,52.16,280.5,292.99,1.0
2018-08-28 13:56:00,89.59787,31.76862,902.281,266.49,98.2,793.3,-27.71,-3.61,147.19,58.18,52.18,279.88,293.22,57.95,52.05,280.5,293.03,1.0
2018-08-28 13:56:00,89.59787,31.76861,902.219,266.5,98.2,793.8,-26.17,-3.57,146.96,58.84,52.04,279.88,293.43,58.01,51.95,280.44,293.18,1.0
2018-08-28 13:56:00,89.59787,31.76859,902.236,266.5,98.2,793.7,-22.94,-3.6,146.64,59.42,52.18,279.87,293.52,58.03,51.86,280.54,293.24,1.0
2018-08-28 13:56:00,89.59787,31.76858,902.243,266.5,98.2,793.6,-19.6,-3.6,146.3,59.42,52.04,279.97,293.14,58.03,51.8,280.6,293.26,1.0
2018-08-28 13:56:00,89.59787,31.76856,902.263,266.5,98.2,793.4,-16.67,-3.65,146.17,58.77,52.04,279.97,292.81,58.05,51.77,280.6,293.23,1.0
2018-08-28 13:56:00,89.59787,31.76855,902.324,266.49,98.2,792.9,-14.86,-3.82,146.25,58.64,52.04,279.87,292.62,58.11,51.77,280.59,293.17,1.0
2018-08-28 13:56:00,89.59787,31.76854,902.339,266.5,98.2,792.8,-16.18,-4.11,146.17,58.18,51.97,280.12,293.05,58.23,51.81,280.56,293.07,1.0
2018-08-28 13:56:00,89.59787,31.76851,902.37,266.49,98.2,792.5,-15.6,-4.28,146.38,58.57,51.97,280.87,293.24,58.39,51.86,280.52,292.95,1.0
2018-08-28 13:56:00,89.59787,31.76847,902.344,266.49,98.2,792.7,-16.06,-4.14,146.22,58.77,51.97,280.36,293.28,58.6,51.92,280.47,292.83,1.0
2018-08-28 13:56:00,89.59787,31.76844,902.314,266.49,98.2,793.0,-15.99,-4.1,145.94,58.57,52.04,280.06,293.24,58.79,51.97,280.43,292.73,1.0
2018-08-28 13:56:00,89.59787,31.7684,902.299,266.5,98.2,793.1,-15.96,-4.26,145.77,59.03,51.9,280.06,293.23,58.95,52.01,280.4,292.69,1.0
2018-08-28 13:56:00,89.59787,31.76836,902.253,266.5,98.2,793.5,-17.58,-4.47,145.86,58.18,52.04,280.14,293.22,59.02,52.01,280.39,292.73,1.0
2018-08-28 13:56:00,89.59787,31.76833,902.178,266.49,98.2,794.2,-17.89,-4.43,145.63,59.29,51.97,279.86,293.22,58.99,51.99,280.39,292.76,1.0
2018-08-28 13:56:00,89.59787,31.76829,902.26,266.5,98.2,793.5,-18.4,-4.3,145.56,57.85,52.11,280.14,293.14,58.85,51.95,280.33,292.83,1.0
2018-08-28 13:56:00,89.59787,31.76826,902.283,266.5,98.2,793.3,-18.86,-4.22,145.57,58.57,52.04,280.15,293.43,58.63,51.88,280.35,292.95,1.0
2018-08-28 13:56:00,89.59787,31.76822,902.269,266.5,98.2,793.4,-19.44,-4.1,145.68,58.97,52.04,280.15,293.13,58.37,51.82,280.43,293.05,1.0
2018-08-28 13:56:00,89.59787,31.76818,902.343,266.5,98.2,792.8,-20.86,-3.95,145.84,59.36,52.04,280.05,293.22,58.13,51.77,280.49,293.11,1.0
2018-08-28 13:56:00,89.59787,31.76815,902.314,266.5,98.2,793.0,-24.87,-4.21,145.79,59.29,51.97,280.15,293.14,57.98,51.75,280.46,293.28,1.0
2018-08-28 13:56:00,89.59787,31.76811,902.299,266.49,98.2,793.1,-27.42,-3.94,145.87,57.98,52.04,279.86,293.14,57.98,51.76,280.48,293.32,1.0
2018-08-28 13:56:00,89.59787,31.76807,902.269,266.5,98.2,793.4,-29.72,-3.97,145.73,59.23,51.97,280.3,293.54,58.16,51.81,280.48,293.3,1.0
2018-08-28 13:56:00,89.59787,31.76804,902.276,266.5,98.2,793.3,-30.71,-4.35,145.24,58.7,52.11,280.47,292.81,58.52,51.89,280.46,293.25,1.0
2018-08-28 13:56:00,89.59787,31.768,902.334,266.49,98.2,792.8,-30.68,-4.82,144.58,58.25,51.83,280.02,292.56,59.05,51.99,280.44,293.18,1.0
2018-08-28 13:56:00,89.59787,31.76796,902.294,266.5,98.2,793.2,-31.85,-4.95,144.16,57.92,51.83,279.12,294.05,59.69,52.1,280.4,293.1,1.0
2018-08-28 13:56:00,89.59787,31.76792,902.296,266.5,98.2,793.2,-30.92,-4.87,143.97,58.44,51.83,279.79,293.1,60.35,52.21,280.38,293.03,1.0
2018-08-28 13:56:00,89.59787,31.76788,902.314,266.5,98.2,793.0,-29.63,-4.74,144.19,59.16,51.97,280.15,293.04,60.94,52.29,280.36,292.99,1.0
2018-08-28 13:56:00,89.59787,31.76784,902.285,266.5,98.2,793.3,-28.99,-4.79,144.26,57.85,52.11,279.87,293.24,61.36,52.35,280.35,292.95,1.0
2018-08-28 13:56:00,89.59787,31.7678,902.222,266.49,98.2,793.8,-29.6,-4.9,144.19,58.77,52.04,280.15,293.14,61.54,52.38,280.34,292.94,1.0
2018-08-28 13:56:00,89.59787,31.76777,902.209,266.5,98.2,793.9,-31.65,-4.91,144.22,59.56,52.04,280.15,293.14,61.44,52.38,280.37,292.93,1.0
2018-08-28 13:56:00,89.59787,31.76773,902.28,266.5,98.2,793.3,-34.46,-5.41,144.45,59.23,51.97,280.25,293.14,61.06,52.34,280.49,292.89,1.0
2018-08-28 13:56:00,89.59786,31.76769,902.308,266.5,98.2,793.1,-34.03,-5.25,144.6,59.16,52.18,280.33,293.42,60.42,52.29,280.57,292.95,1.0
2018-08-28 13:56:00,89.59786,31.76765,902.354,266.5,98.2,792.7,-32.86,-4.97,144.72,58.05,52.04,280.14,293.12,59.61,52.23,280.63,292.95,1.0
2018-08-28 13:56:00,89.59786,31.76761,902.36,266.49,98.2,792.6,-31.33,-4.76,144.8,59.75,52.18,280.34,292.68,58.71,52.17,280.69,292.95,1.0
2018-08-28 13:56:00,89.59786,31.76757,902.272,266.5,98.2,793.4,-29.89,-4.62,144.88,60.01,51.76,279.88,292.04,57.83,52.11,280.74,292.95,1.0
2018-08-28 13:56:00,89.59786,31.76753,902.333,266.5,98.2,792.8,-29.58,-4.27,145.34,59.56,52.04,280.16,293.03,57.07,52.06,280.78,292.92,1.0
2018-08-28 13:56:00,89.59786,31.76749,902.324,266.49,98.2,792.9,-28.28,-3.96,145.63,58.97,52.18,280.44,293.12,56.52,52.02,280.89,292.82,1.0
2018-08-28 13:56:00,89.59786,31.76746,902.329,266.5,98.2,792.9,-27.39,-4.02,145.57,58.9,52.04,280.16,292.35,56.25,51.99,280.92,292.71,1.0
2018-08-28 13:56:00,89.59786,31.76742,902.31,266.5,98.2,793.0,-27.71,-4.13,145.2,58.9,52.11,280.35,292.76,56.26,51.95,280.92,292.59,1.0
2018-08-28 13:56:00,89.59786,31.76738,902.286,266.49,98.2,793.2,-28.84,-4.18,144.64,57.4,51.97,280.34,293.23,56.55,51.92,280.92,292.52,1.0
2018-08-28 13:56:00,89.59786,31.76734,902.39,266.5,98.2,792.4,-29.28,-4.33,144.08,59.88,52.04,280.35,293.06,57.07,51.88,280.91,292.54,1.0
2018-08-28 13:56:00,89.59786,31.7673,902.329,266.5,98.2,792.9,-27.27,-4.71,143.67,57.85,51.83,281.34,292.72,57.77,51.84,280.91,292.52,1.0
2018-08-28 13:56:00,89.59786,31.76727,902.316,266.5,98.2,793.0,-25.55,-4.81,143.53,57.79,52.18,280.4,292.59,58.55,51.8,280.9,292.51,1.0
2018-08-28 13:56:00,89.59786,31.76723,902.286,266.5,98.2,793.2,-24.78,-4.87,143.56,58.84,52.18,280.24,292.4,59.33,51.78,280.9,292.58,1.0
2018-08-28 13:56:00,89.59786,31.76719,902.252,266.5,98.2,793.5,-25.24,-4.87,143.85,59.03,51.97,280.52,292.47,60.04,51.76,280.92,292.59,1.0
2018-08-28 13:56:00,89.59786,31.76716,902.268,266.51,98.2,793.4,-27.17,-4.81,144.34,59.62,52.04,280.14,292.48,60.61,51.77,280.97,292.52,1.0
2018-08-28 13:56:00,89.59786,31.76712,902.311,266.5,98.2,793.0,-31.51,-4.73,144.13,57.2,52.04,280.15,293.03,60.98,51.8,280.94,292.54,1.0
2018-08-28 13:56:00,89.59786,31.7671,902.324,266.5,98.2,792.9,-29.27,-4.93,144.04,59.29,52.04,280.24,293.12,61.15,51.85,280.84,292.58,1.0
2018-08-28 13:56:00,89.59786,31.76706,902.325,266.5,98.2,792.9,-27.68,-5.31,144.05,59.03,51.83,280.43,292.94,61.11,51.92,280.79,292.62,1.0
2018-08-28 13:56:00,89.59786,31.76703,902.335,266.5,98.2,792.8,-26.22,-5.31,144.33,59.03,52.11,280.71,292.59,60.87,52.0,280.76,292.67,1.0
2018-08-28 13:56:00,89.59786,31.767,902.361,266.51,98.2,792.6,-24.78,-4.8,144.96,58.77,51.76,280.99,291.98,60.46,52.07,280.74,292.71,1.0
2018-08-28 13:56:00,89.59786,31.76697,902.381,266.5,98.2,792.4,-24.72,-4.21,145.89,59.49,51.97,280.42,292.85,59.93,52.13,280.73,292.72,1.0
2018-08-28 13:56:00,89.59786,31.76694,902.444,266.51,98.2,791.9,-23.27,-3.77,147.02,59.42,52.04,280.42,293.03,59.33,52.17,280.74,292.73,1.0
2018-08-28 13:56:00,89.59786,31.76691,902.401,266.5,98.2,792.3,-23.11,-3.7,147.31,58.9,51.97,280.33,293.12,58.71,52.17,280.66,292.84,1.0
2018-08-28 13:56:00,89.59786,31.76688,902.333,266.5,98.2,792.8,-25.33,-4.01,146.97,58.97,52.11,280.42,293.22,58.11,52.14,280.64,292.92,1.0
2018-08-28 13:56:00,89.59786,31.76685,902.307,266.5,98.2,793.1,-28.83,-4.54,146.26,58.51,52.04,280.52,292.86,57.58,52.08,280.65,293.02,1.0
2018-08-28 13:56:00,89.59786,31.76682,902.348,266.51,98.2,792.7,-31.67,-5.08,145.42,58.77,52.04,280.42,292.93,57.15,52.0,280.64,293.16,1.0
2018-08-28 13:56:00,89.59786,31.76679,902.335,266.5,98.2,792.8,-30.82,-5.27,144.51,59.42,51.97,280.42,293.02,56.84,51.91,280.69,293.21,1.0
2018-08-28 13:56:00,89.59786,31.76677,902.393,266.5,98.2,792.3,-29.87,-5.2,144.38,59.82,52.18,279.47,293.86,56.64,51.83,280.74,293.24,1.0
2018-08-28 13:56:00,89.59786,31.76676,902.395,266.5,98.2,792.3,-28.35,-5.17,144.46,58.64,51.9,279.86,293.44,56.57,51.77,280.77,293.27,1.0
2018-08-28 13:56:00,89.59786,31.76675,902.348,266.5,98.2,792.7,-27.29,-5.13,144.79,59.03,52.04,280.53,293.22,56.59,51.75,280.8,293.29,1.0
2018-08-28 13:56:00,89.59786,31.76674,902.317,266.5,98.2,793.0,-27.04,-5.05,145.38,59.23,52.18,280.63,293.22,56.68,51.75,280.81,293.3,1.0
2018-08-28 13:56:00,89.59786,31.76674,902.315,266.51,98.2,793.0,-26.21,-4.99,145.92,57.59,51.9,280.63,293.2,56.8,51.79,280.8,293.3,1.0
2018-08-28 13:56:00,89.59786,31.76673,902.349,266.5,98.2,792.7,-27.01,-4.94,145.78,58.77,51.9,280.05,292.43,56.93,51.85,280.79,293.28,1.0
2018-08-28 13:56:00,89.59786,31.76672,902.349,266.51,98.2,792.7,-28.35,-5.26,145.54,57.72,51.83,280.34,292.85,57.04,51.93,280.85,293.17,1.0
2018-08-28 13:56:00,89.59786,31.76672,902.341,266.51,98.2,792.8,-29.42,-5.37,145.19,56.94,51.76,280.35,292.84,57.1,52.0,280.87,293.1,1.0
2018-08-28 13:56:00,89.59786,31.76671,902.348,266.5,98.2,792.7,-29.77,-5.31,144.84,59.95,52.11,280.62,293.22,57.12,52.06,280.85,293.09,1.0
2018-08-28 13:56:00,89.59786,31.7667,902.352,266.5,98.2,792.7,-29.63,-5.61,144.66,58.7,52.11,280.71,293.21,57.1,52.1,280.85,293.09,1.0
2018-08-28 13:56:00,89.59786,31.7667,902.411,266.51,98.2,792.2,-31.66,-5.57,144.8,59.82,52.04,280.42,293.31,57.07,52.1,280.87,293.1,1.0
2018-08-28 13:56:00,89.59786,31.76669,902.371,266.5,98.2,792.5,-33.22,-5.54,144.65,58.51,51.97,280.32,293.02,57.04,52.08,280.9,293.14,1.0
2018-08-28 13:56:00,89.59786,31.76668,902.353,266.5,98.2,792.7,-33.76,-5.6,144.5,57.72,51.97,280.29,292.93,57.06,52.03,280.91,293.24,1.0
2018-08-28 13:56:00,89.59786,31.76666,902.378,266.5,98.2,792.5,-33.4,-5.74,144.32,58.05,52.04,280.62,293.03,57.14,51.97,280.92,293.33,1.0
2018-08-28 13:56:00,89.59786,31.76665,902.359,266.5,98.2,792.6,-32.52,-5.98,143.95,58.57,51.97,280.62,293.12,57.29,51.9,280.94,293.34,1.0
2018-08-28 13:56:00,89.59786,31.76663,902.404,266.5,98.2,792.2,-33.71,-6.3,143.63,57.33,52.04,280.62,293.12,57.53,51.85,281.0,293.35,1.0
2018-08-28 13:56:00,89.59786,31.76661,902.456,266.51,98.2,791.8,-32.23,-6.36,143.32,58.51,52.04,280.7,293.02,57.84,51.82,281.04,293.34,1.0
2018-08-28 13:56:00,89.59786,31.7666,902.47,266.51,98.2,791.7,-31.0,-6.36,143.04,58.57,51.97,280.24,293.9,58.18,51.82,281.09,293.32,1.0
2018-08-28 13:56:00,89.59786,31.76658,902.451,266.51,98.2,791.8,-30.43,-6.49,142.78,57.98,51.83,279.94,293.74,58.53,51.85,281.11,293.29,1.0
2018-08-28 13:56:00,89.59786,31.76656,902.43,266.5,98.2,792.0,-29.61,-6.62,142.57,58.25,51.97,280.01,292.99,58.83,51.9,281.09,293.25,1.0
2018-08-28 13:56:00,89.59786,31.76655,902.476,266.51,98.2,791.6,-26.29,-6.22,142.51,58.18,51.97,280.71,293.1,59.06,51.96,281.05,293.19,1.0
2018-08-28 13:56:00,89.59786,31.76653,902.371,266.51,98.2,792.5,-25.47,-6.23,142.55,57.66,52.04,280.9,293.12,59.18,52.02,280.99,293.14,1.0
2018-08-28 13:56:00,89.59786,31.76651,902.371,266.5,98.2,792.5,-24.17,-6.05,142.75,58.38,51.9,280.71,293.12,59.17,52.06,280.91,293.1,1.0
2018-08-28 13:56:00,89.59786,31.7665,902.392,266.5,98.2,792.3,-23.91,-5.78,143.05,59.36,51.97,280.8,293.12,59.03,52.09,280.87,292.99,1.0
2018-08-28 13:56:00,89.59786,31.76648,902.399,266.51,98.2,792.3,-23.94,-5.58,143.33,58.05,51.97,280.9,293.21,58.79,52.08,280.85,292.88,1.0
2018-08-28 13:56:00,89.59786,31.76646,902.412,266.51,98.2,792.2,-22.75,-5.57,143.47,58.64,51.97,280.71,293.21,58.47,52.04,280.82,292.86,1.0
2018-08-28 13:56:00,89.59786,31.76644,902.388,266.51,98.2,792.4,-20.44,-5.64,143.54,58.38,52.04,280.52,293.12,58.12,51.96,280.79,292.85,1.0
2018-08-28 13:56:00,89.59786,31.76643,902.457,266.51,98.2,791.8,-20.39,-5.15,143.86,58.9,52.11,280.58,292.94,57.79,51.86,280.77,292.85,1.0
2018-08-28 13:56:00,89.59786,31.76643,902.414,266.51,98.2,792.1,-20.29,-4.76,144.35,57.79,51.97,280.69,292.98,57.51,51.74,280.78,292.85,1.0
2018-08-28 13:56:00,89.59785,31.76643,902.364,266.5,98.2,792.6,-20.26,-4.44,145.0,58.05,51.83,280.9,293.01,57.31,51.61,280.82,292.87,1.0
2018-08-28 13:56:00,89.59785,31.76643,902.448,266.5,98.2,791.9,-20.2,-4.17,145.53,58.12,51.97,280.71,293.21,57.22,51.5,280.85,292.91,1.0
2018-08-28 13:56:00,89.59785,31.76643,902.417,266.5,98.2,792.1,-18.89,-4.05,145.22,58.64,51.97,280.99,293.1,57.24,51.4,280.85,292.99,1.0
2018-08-28 13:56:00,89.59785,31.76643,902.457,266.51,98.2,791.8,-18.1,-4.36,144.99,58.31,52.04,280.71,293.12,57.35,51.33,280.78,292.87,1.0
2018-08-28 13:56:00,89.59785,31.76643,902.485,266.51,98.2,791.5,-16.47,-4.38,144.51,57.79,52.04,280.89,293.31,57.54,51.29,280.76,292.84,1.0
2018-08-28 13:56:00,89.59785,31.76643,902.45,266.51,98.2,791.8,-16.01,-4.18,144.22,58.97,51.9,280.89,292.92,57.78,51.28,280.78,292.83,1.0
2018-08-28 13:56:00,89.59785,31.76643,902.372,266.5,98.2,792.5,-16.58,-3.93,144.3,58.18,51.97,280.33,293.34,58.02,51.29,280.79,292.82,1.0
2018-08-28 13:56:00,89.59785,31.76643,902.353,266.5,98.2,792.7,-16.48,-3.85,144.62,58.44,51.76,280.17,293.56,58.26,51.33,280.79,292.8,1.0
2018-08-28 13:56:00,89.59785,31.76642,902.46,266.51,98.2,791.8,-14.62,-3.9,144.42,56.81,51.76,279.01,291.5,58.45,51.39,280.78,292.79,1.0
2018-08-28 13:56:00,89.59785,31.76641,902.474,266.5,98.2,791.6,-15.7,-3.89,144.35,58.77,51.62,279.77,292.58,58.58,51.47,280.76,292.79,1.0
2018-08-28 13:56:00,89.59785,31.7664,902.427,266.5,98.2,792.0,-17.36,-3.78,144.42,57.13,51.97,280.3,292.93,58.66,51.55,280.76,292.85,1.0
2018-08-28 13:56:00,89.59785,31.76639,902.403,266.51,98.2,792.2,-17.74,-3.79,144.56,59.16,51.76,280.61,293.11,58.66,51.65,280.78,292.93,1.0
2018-08-28 13:56:00,89.59785,31.76638,902.46,266.51,98.2,791.8,-16.38,-3.98,144.68,58.97,51.97,280.9,292.92,58.61,51.74,280.81,292.94,1.0
2018-08-28 13:56:00,89.59785,31.76637,902.389,266.5,98.2,792.4,-15.6,-3.93,144.78,58.18,51.9,280.8,292.9,58.51,51.84,280.9,292.94,1.0
2018-08-28 13:56:00,89.59785,31.76636,902.444,266.5,98.2,791.9,-14.67,-3.68,144.8,57.92,51.9,280.8,293.1,58.37,51.93,281.03,293.16,1.0
2018-08-28 13:56:00,89.59785,31.76634,902.421,266.51,98.2,792.1,-15.2,-3.79,144.68,57.79,51.62,281.2,293.82,58.21,52.01,281.1,293.17,1.0
2018-08-28 13:56:00,89.59785,31.76633,902.401,266.51,98.2,792.3,-15.69,-3.94,144.61,58.7,51.69,280.99,293.47,58.04,52.07,281.17,293.19,1.0
2018-08-28 13:56:00,89.59785,31.76632,902.45,266.51,98.2,791.8,-16.88,-3.93,144.56,57.92,51.97,280.71,292.92,57.89,52.12,281.27,293.28,1.0
2018-08-28 13:56:00,89.59785,31.76631,902.429,266.51,98.2,792.0,-21.85,-3.86,144.24,58.57,51.83,280.84,292.92,57.75,52.14,281.37,293.36,1.0
2018-08-28 13:56:00,89.59785,31.7663,902.44,266.51,98.2,791.9,-23.28,-4.26,144.14,58.64,51.97,280.21,292.92,57.65,52.13,281.47,293.42,1.0
2018-08-28 13:56:00,89.59785,31.76629,902.442,266.51,98.2,791.9,-21.63,-4.34,143.65,58.38,51.76,280.19,292.02,57.61,52.1,281.54,293.46,1.0
2018-08-28 13:56:00,89.59785,31.76627,902.45,266.51,98.2,791.8,-18.59,-3.98,143.12,57.0,51.83,280.43,292.17,57.63,52.05,281.58,293.42,1.0
2018-08-28 13:56:00,89.59785,31.76626,902.466,266.51,98.2,791.7,-16.78,-3.73,142.88,58.51,51.83,280.99,293.11,57.72,51.99,281.59,293.36,1.0
2018-08-28 13:56:00,89.59785,31.76624,902.468,266.51,98.2,791.7,-17.79,-4.1,143.06,58.05,51.97,280.98,292.92,57.88,51.91,281.6,293.33,1.0
2018-08-28 13:56:00,89.59785,31.76622,902.403,266.51,98.2,792.2,-18.57,-4.13,143.15,59.16,51.9,280.71,293.11,58.1,51.83,281.6,293.28,1.0
2018-08-28 13:56:00,89.59785,31.76621,902.376,266.51,98.2,792.5,-16.52,-3.76,143.23,58.12,51.9,281.08,292.91,58.37,51.76,281.62,293.24,1.0
2018-08-28 13:56:00,89.59785,31.76619,902.441,266.51,98.2,791.9,-16.39,-3.75,143.01,57.79,51.97,280.98,293.1,58.66,51.7,281.66,293.3,1.0
