Date/Time,Latitude,Longitude,PPPP [hPa],TTT grad [K],RH [%],Height [m],Pitch [deg],Roll [deg],Yaw [deg],SWD [W/m**2] (raw),SWU [W/m**2] (raw),LWD [W/m**2] (raw),LWU [W/m**2] (raw),SWD [W/m**2] (corrected),SWU [W/m**2] (corrected),LWD [W/m**2] (corrected),LWU [W/m**2] (corrected),Flag
2018-09-09 08:31:00,88.67082,46.56021,1013.889,264.98,86.3,2.8,-1.33,-2.03,-19.49,87.7,70.84,255.34,280.35,87.45,71.01,254.47,278.8,0.0
2018-09-09 08:31:00,88.67082,46.56022,1013.901,264.98,86.3,2.7,-1.07,-1.86,-21.77,87.5,70.84,255.6,280.19,87.37,70.95,254.58,278.77,0.0
2018-09-09 08:31:00,88.67082,46.56022,1013.897,264.98,86.3,2.7,-0.58,-1.28,-24.05,87.37,70.84,255.3,279.71,87.29,70.88,254.53,278.74,0.0
2018-09-09 08:31:00,88.67082,46.56023,1013.884,264.98,86.3,2.8,0.52,-2.18,-26.36,87.5,71.04,255.44,280.3,87.2,70.79,254.52,278.7,0.0
2018-09-09 08:31:00,88.67082,46.56024,1013.873,264.97,86.3,2.9,-0.01,-1.06,-28.46,87.56,70.9,255.09,279.98,87.09,70.69,254.43,278.6,0.0
2018-09-09 08:31:00,88.67082,46.56025,1013.887,264.97,86.3,2.8,0.57,-1.35,-30.71,87.24,70.9,255.21,280.29,86.97,70.58,254.43,278.5,0.0
2018-09-09 08:31:00,88.67082,46.56026,1013.902,264.97,86.3,2.7,1.56,-1.49,-32.98,87.89,70.7,255.77,280.54,86.82,70.46,254.42,278.38,0.0
2018-09-09 08:31:00,88.67082,46.56026,1013.909,264.97,86.3,2.6,2.18,-1.37,-35.26,87.44,71.04,255.3,280.19,86.65,70.35,254.41,278.29,0.0
2018-09-09 08:31:00,88.67082,46.56027,1013.921,264.98,86.2,2.5,1.89,-1.75,-37.39,87.56,70.7,255.83,280.26,86.45,70.25,254.43,278.22,0.0
2018-09-09 08:31:00,88.67082,46.56027,1013.929,264.98,86.3,2.5,1.96,-1.49,-39.51,87.37,70.9,255.27,279.87,86.24,70.18,254.43,278.09,0.0
2018-09-09 08:31:00,88.67082,46.56028,1013.944,264.98,86.2,2.4,2.63,-0.85,-41.73,87.37,70.84,255.48,280.3,86.01,70.15,254.35,278.01,0.0
2018-09-09 08:31:00,88.67082,46.56029,1013.935,264.98,86.2,2.4,2.63,-0.39,-43.84,87.5,70.77,255.49,280.24,85.77,70.16,254.28,277.91,0.0
2018-09-09 08:31:00,88.67082,46.56029,1013.915,264.98,86.2,2.6,2.29,0.04,-45.94,87.5,70.84,255.27,280.27,85.53,70.21,254.28,277.89,0.0
2018-09-09 08:31:00,88.67082,46.5603,1013.915,264.98,86.2,2.6,2.25,0.46,-48.08,87.3,70.7,255.55,279.92,85.28,70.3,254.27,277.98,0.0
2018-09-09 08:31:00,88.67082,46.56031,1013.92,264.98,86.2,2.5,2.71,0.12,-50.21,86.91,70.77,255.35,279.25,85.05,70.43,254.2,278.05,0.0
2018-09-09 08:31:00,88.67082,46.56031,1013.929,264.98,86.2,2.5,2.65,1.2,-52.24,87.04,70.42,253.89,279.14,84.82,70.58,254.12,278.27,0.0
2018-09-09 08:31:00,88.67082,46.56032,1013.917,264.98,86.2,2.6,2.75,1.46,-54.37,86.98,70.77,254.17,278.78,84.6,70.74,254.0,278.42,0.0
2018-09-09 08:31:00,88.67082,46.56032,1013.901,264.98,86.2,2.7,2.84,1.55,-56.46,87.11,70.7,255.24,279.2,84.39,70.89,253.91,278.52,0.0
2018-09-09 08:31:00,88.67082,46.56033,1013.904,264.97,86.2,2.7,2.81,1.84,-58.51,87.24,70.77,255.12,280.06,84.19,71.03,253.86,278.57,0.0
2018-09-09 08:31:00,88.67082,46.56034,1013.904,264.98,86.2,2.7,2.86,1.49,-60.54,86.85,70.84,254.54,280.04,84.01,71.14,253.86,278.58,0.0
2018-09-09 08:31:00,88.67082,46.56034,1013.908,264.98,86.2,2.6,3.36,2.43,-62.66,86.98,70.84,254.64,281.36,83.85,71.23,253.71,278.62,0.0
2018-09-09 08:31:00,88.67082,46.56035,1013.919,264.98,86.2,2.5,3.5,2.55,-64.71,86.78,70.84,254.72,281.19,83.7,71.28,253.81,278.63,0.0
2018-09-09 08:31:00,88.67082,46.56036,1013.917,264.98,86.2,2.6,3.41,3.3,-66.66,86.39,70.7,254.26,280.84,83.58,71.3,253.84,278.66,0.0
2018-09-09 08:31:00,88.67082,46.56036,1013.905,264.97,86.2,2.7,3.25,3.75,-68.55,86.39,70.84,254.6,280.58,83.48,71.29,253.79,278.66,0.0
2018-09-09 08:31:00,88.67082,46.56037,1013.901,264.97,86.2,2.7,3.19,2.58,-70.57,86.45,70.84,254.92,280.44,83.4,71.27,253.76,278.61,0.0
2018-09-09 08:31:00,88.67082,46.56038,1013.896,264.96,86.2,2.7,3.33,3.78,-72.47,86.58,70.84,253.1,280.17,83.34,71.24,253.68,278.61,0.0
2018-09-09 08:31:00,88.67082,46.56038,1013.887,264.96,86.2,2.8,3.73,3.03,-74.38,86.45,70.84,254.48,280.14,83.31,71.21,253.66,278.51,0.0
2018-09-09 08:31:00,88.67082,46.56039,1013.886,264.96,86.2,2.8,2.74,3.69,-76.02,86.13,70.97,254.24,279.91,83.28,71.19,253.61,278.49,0.0
2018-09-09 08:31:00,88.67082,46.5604,1013.886,264.97,86.2,2.8,2.08,4.02,-77.67,86.13,70.77,254.11,279.98,83.25,71.17,253.57,278.49,0.0
2018-09-09 08:31:00,88.67082,46.5604,1013.878,264.96,86.2,2.9,2.55,3.55,-79.46,86.19,70.84,254.31,279.68,83.22,71.15,253.52,278.47,0.0
2018-09-09 08:31:00,88.67082,46.56041,1013.898,264.96,86.2,2.7,2.7,5.01,-81.23,86.13,70.84,253.65,279.8,83.19,71.15,253.4,278.45,0.0
2018-09-09 08:31:00,88.67082,46.56041,1013.915,264.96,86.2,2.6,2.14,4.16,-82.93,85.67,70.9,254.02,279.78,83.13,71.14,253.49,278.43,0.0
2018-09-09 08:31:00,88.67082,46.56042,1013.906,264.95,86.2,2.6,2.0,5.03,-84.56,85.86,70.9,254.11,279.69,83.05,71.13,253.51,278.39,0.0
2018-09-09 08:31:00,88.67082,46.56042,1013.899,264.95,86.2,2.7,2.37,5.28,-86.18,85.93,70.9,254.28,279.52,82.95,71.12,253.6,278.37,0.0
2018-09-09 08:31:00,88.67082,46.56043,1013.899,264.95,86.2,2.7,2.75,5.14,-87.8,85.8,70.9,254.16,279.26,82.83,71.1,253.71,278.38,0.0
2018-09-09 08:31:00,88.67082,46.56043,1013.876,264.95,86.2,2.9,2.46,6.01,-89.28,85.86,70.84,253.98,278.95,82.7,71.06,253.78,278.42,0.0
2018-09-09 08:31:00,88.67082,46.56044,1013.902,264.95,86.2,2.7,2.25,5.32,-90.74,85.6,71.04,253.98,279.08,82.56,71.02,253.88,278.46,0.0
2018-09-09 08:31:00,88.67082,46.56044,1013.892,264.95,86.2,2.8,2.52,5.93,-92.17,85.6,70.9,253.91,278.95,82.42,70.96,253.83,278.37,0.0
2018-09-09 08:31:00,88.67082,46.56045,1013.893,264.95,86.2,2.7,2.48,6.14,-93.52,85.21,70.97,254.33,279.08,82.28,70.9,253.83,278.28,0.0
2018-09-09 08:31:00,88.67082,46.56045,1013.902,264.94,86.2,2.7,2.17,6.33,-94.87,85.41,70.9,254.38,279.67,82.16,70.84,253.83,278.25,0.0
2018-09-09 08:31:00,88.67082,46.56046,1013.891,264.94,86.2,2.8,1.82,6.86,-96.23,85.34,70.9,253.98,279.95,82.06,70.77,253.8,278.25,0.0
2018-09-09 08:31:00,88.67082,46.56046,1013.888,264.94,86.2,2.8,1.83,6.72,-97.63,85.08,70.77,253.59,280.16,81.98,70.69,253.82,278.26,0.0
2018-09-09 08:31:00,88.67082,46.56046,1013.893,264.94,86.1,2.7,1.67,6.69,-98.93,84.95,70.77,252.73,278.56,81.91,70.62,253.72,278.26,0.0
2018-09-09 08:31:00,88.67082,46.56047,1013.873,264.95,86.2,2.9,1.43,6.57,-100.12,85.21,70.9,253.34,278.8,81.86,70.54,253.66,278.28,0.0
2018-09-09 08:31:00,88.67082,46.56047,1013.853,264.95,86.2,3.0,1.37,6.48,-101.27,85.21,70.97,254.05,279.35,81.81,70.46,253.58,278.26,0.0
2018-09-09 08:31:00,88.67082,46.56047,1013.853,264.95,86.2,3.0,1.46,6.61,-102.35,84.56,71.04,254.17,279.1,81.75,70.38,253.53,278.2,0.0
2018-09-09 08:31:00,88.67082,46.56048,1013.85,264.95,86.2,3.1,1.36,7.17,-103.38,84.88,70.84,254.72,279.22,81.68,70.31,253.58,278.12,0.0
2018-09-09 08:31:00,88.67082,46.56048,1013.897,264.95,86.2,2.7,1.24,7.17,-104.32,84.69,70.9,253.85,279.22,81.58,70.25,253.62,278.02,0.0
2018-09-09 08:31:00,88.67082,46.56048,1013.901,264.95,86.2,2.7,1.32,7.59,-105.25,84.75,70.77,254.28,279.2,81.44,70.2,253.81,278.06,0.0
2018-09-09 08:31:00,88.67082,46.56049,1013.877,264.95,86.2,2.9,1.12,7.8,-106.13,84.62,70.7,254.29,278.79,81.27,70.18,253.92,278.1,0.0
2018-09-09 08:31:00,88.67082,46.56049,1013.853,264.95,86.2,3.0,0.74,7.98,-106.95,84.29,70.84,254.53,279.23,81.07,70.18,253.99,278.1,0.0
2018-09-09 08:31:00,88.67082,46.56049,1013.86,264.95,86.2,3.0,0.47,8.32,-107.73,84.56,70.7,254.94,279.22,80.85,70.22,254.05,278.11,0.0
2018-09-09 08:31:00,88.67082,46.5605,1013.87,264.95,86.2,2.9,0.47,7.74,-108.53,84.29,70.7,254.12,279.23,80.62,70.3,254.04,278.17,0.0
2018-09-09 08:31:00,88.67082,46.5605,1013.867,264.95,86.2,2.9,-0.04,8.23,-109.35,84.36,70.7,254.45,279.14,80.39,70.42,254.15,278.27,0.0
2018-09-09 08:31:00,88.67082,46.5605,1013.859,264.95,86.2,3.0,-0.36,8.1,-110.15,83.97,70.7,254.03,279.04,80.19,70.58,254.12,278.32,0.0
2018-09-09 08:31:00,88.67082,46.56051,1013.852,264.96,86.1,3.1,-0.45,8.19,-110.96,83.77,70.7,254.1,278.87,80.03,70.78,254.04,278.33,0.0
2018-09-09 08:31:00,88.67082,46.56051,1013.852,264.96,86.2,3.1,-0.56,8.65,-111.75,83.97,70.84,254.0,279.12,79.92,71.01,253.93,278.29,0.0
2018-09-09 08:31:00,88.67082,46.56051,1013.868,264.95,86.1,2.9,-1.12,8.28,-112.36,83.84,70.84,253.64,279.58,79.87,71.27,253.7,278.16,0.0
2018-09-09 08:31:00,88.67082,46.56052,1013.884,264.96,86.1,2.8,-0.87,8.89,-113.06,84.1,70.77,254.81,280.08,79.89,71.56,253.66,278.11,0.0
2018-09-09 08:31:00,88.67082,46.56052,1013.866,264.95,86.1,2.9,-0.9,8.61,-113.72,83.57,70.7,253.77,279.61,79.96,71.86,253.58,278.06,0.0
2018-09-09 08:31:00,88.67082,46.56052,1013.834,264.95,86.1,3.2,-1.07,8.6,-114.38,83.31,70.7,253.55,279.08,80.08,72.17,253.55,278.0,0.0
2018-09-09 08:31:00,88.67082,46.56052,1013.822,264.95,86.1,3.3,-1.24,8.77,-115.06,83.18,70.84,253.17,278.72,80.22,72.49,253.57,277.98,0.0
2018-09-09 08:31:00,88.67082,46.56053,1013.858,264.95,86.1,3.0,-1.29,8.32,-115.68,83.18,70.77,252.24,278.41,80.37,72.81,253.62,278.01,0.0
2018-09-09 08:31:00,88.67082,46.56053,1013.835,264.95,86.1,3.2,-1.39,8.67,-116.33,83.38,71.04,253.95,279.03,80.51,73.14,253.66,277.98,0.0
2018-09-09 08:31:00,88.67082,46.56053,1013.846,264.95,86.1,3.1,-1.44,8.32,-116.9,83.12,70.9,253.75,279.11,80.62,73.47,253.6,277.92,0.0
2018-09-09 08:31:00,88.67082,46.56053,1013.836,264.95,86.1,3.2,-1.21,8.37,-117.48,83.12,71.25,253.65,278.85,80.68,73.8,253.64,277.89,0.0
2018-09-09 08:31:00,88.67082,46.56053,1013.816,264.95,86.1,3.3,-1.26,8.48,-118.01,83.31,71.18,254.1,279.05,80.71,74.12,253.67,277.85,0.0
2018-09-09 08:31:00,88.67082,46.56053,1013.819,264.95,86.1,3.3,-1.78,8.36,-118.49,83.05,71.25,254.06,279.31,80.69,74.44,253.68,277.81,0.0
2018-09-09 08:31:00,88.67082,46.56053,1013.807,264.95,86.1,3.4,-1.52,8.69,-119.1,83.05,71.25,253.63,278.81,80.64,74.74,253.79,277.77,0.0
2018-09-09 08:31:00,88.67082,46.56053,1013.825,264.95,86.1,3.3,-1.76,8.5,-119.55,82.85,71.46,253.25,278.69,80.57,75.02,253.71,277.57,0.0
2018-09-09 08:31:00,88.67082,46.56053,1013.833,264.96,86.1,3.2,-1.96,8.67,-120.04,83.12,71.53,253.49,278.56,80.49,75.28,253.7,277.33,0.0
2018-09-09 08:31:00,88.67082,46.56053,1013.828,264.96,86.1,3.2,-1.89,8.6,-120.57,82.79,71.46,253.55,278.64,80.43,75.52,253.67,277.09,0.0
2018-09-09 08:31:00,88.67082,46.56053,1013.808,264.96,86.1,3.4,-1.69,8.29,-121.09,82.85,71.87,253.4,278.52,80.39,75.72,253.64,276.85,0.0
2018-09-09 08:31:00,88.67082,46.56053,1013.763,264.96,86.1,3.7,-1.75,8.43,-121.55,82.33,71.8,254.0,278.34,80.38,75.9,253.66,276.59,0.0
2018-09-09 08:31:00,88.67082,46.56053,1013.762,264.96,86.1,3.7,-1.55,8.22,-121.98,82.46,71.94,253.39,277.89,80.39,76.06,253.7,276.39,0.0
2018-09-09 08:31:00,88.67082,46.56053,1013.767,264.96,86.1,3.7,-1.28,8.33,-122.5,82.59,72.08,254.09,278.11,80.43,76.2,253.74,276.27,0.0
2018-09-09 08:31:00,88.67082,46.56053,1013.767,264.96,86.1,3.7,-1.44,8.32,-123.05,82.72,72.01,254.09,277.9,80.48,76.35,253.84,276.17,0.0
2018-09-09 08:31:00,88.67082,46.56053,1013.765,264.97,86.1,3.7,-1.69,8.2,-123.59,82.33,72.29,254.2,278.35,80.53,76.51,253.98,276.14,0.0
2018-09-09 08:31:00,88.67082,46.56053,1013.772,264.97,86.1,3.7,-1.66,8.1,-124.11,82.59,72.29,254.74,278.3,80.59,76.69,254.07,276.2,0.0
2018-09-09 08:31:00,88.67082,46.56053,1013.743,264.96,86.1,3.9,-1.94,8.14,-124.54,82.2,72.56,254.46,277.83,80.63,76.91,254.07,276.34,0.0
2018-09-09 08:31:00,88.67082,46.56053,1013.759,264.96,86.1,3.8,-1.86,8.23,-124.96,82.53,72.77,254.05,278.12,80.66,77.16,254.16,276.49,0.0
2018-09-09 08:31:00,88.67082,46.56052,1013.742,264.96,86.1,3.9,-1.54,8.04,-125.42,82.26,72.84,254.8,277.48,80.68,77.45,254.31,276.63,0.0
2018-09-09 08:31:00,88.67082,46.56052,1013.712,264.96,86.1,4.1,-1.3,7.84,-125.76,82.13,72.7,254.7,276.95,80.68,77.78,254.4,276.72,0.0
2018-09-09 08:31:00,88.67082,46.56052,1013.708,264.96,86.1,4.1,-1.11,7.75,-125.96,82.33,72.77,253.9,277.2,80.68,78.13,254.37,276.74,0.0
2018-09-09 08:31:00,88.67082,46.56052,1013.712,264.97,86.1,4.1,-0.38,7.45,-126.24,82.2,72.84,253.06,277.66,80.69,78.49,254.21,276.64,0.0
2018-09-09 08:31:00,88.67082,46.56052,1013.698,264.96,86.1,4.2,-0.49,7.38,-126.5,82.2,73.19,253.77,277.18,80.7,78.84,253.99,276.44,0.0
2018-09-09 08:31:00,88.67082,46.56051,1013.671,264.96,86.1,4.4,-0.48,7.22,-126.74,82.13,73.32,254.9,277.39,80.72,79.18,253.89,276.29,0.0
2018-09-09 08:31:00,88.67082,46.56051,1013.659,264.96,86.1,4.5,-0.27,7.09,-127.06,82.07,73.6,254.72,277.31,80.76,79.48,253.78,276.24,0.0
2018-09-09 08:31:00,88.67082,46.56051,1013.67,264.96,86.1,4.4,-0.11,7.06,-127.37,81.74,73.74,253.53,277.58,80.81,79.73,253.68,276.24,0.0
2018-09-09 08:31:00,88.67082,46.56051,1013.677,264.96,86.1,4.4,-0.37,7.16,-127.51,82.13,73.95,253.37,277.26,80.87,79.92,253.63,276.25,0.0
2018-09-09 08:31:00,88.67082,46.5605,1013.669,264.96,86.1,4.4,0.08,7.21,-127.8,81.81,74.02,252.26,276.39,80.93,80.04,253.59,276.25,0.0
2018-09-09 08:31:00,88.67082,46.5605,1013.66,264.96,86.1,4.5,-0.05,6.91,-127.94,82.13,74.29,253.17,277.59,81.01,80.11,253.52,276.39,0.0
2018-09-09 08:31:00,88.67082,46.5605,1013.653,264.96,86.1,4.6,0.33,6.95,-128.05,81.94,74.36,253.88,278.06,81.09,80.11,253.42,276.58,0.0
2018-09-09 08:31:00,88.67082,46.56049,1013.652,264.96,86.1,4.6,0.88,7.0,-128.13,82.2,74.5,253.85,278.18,81.18,80.07,253.39,276.78,0.0
2018-09-09 08:31:00,88.67083,46.56049,1013.658,264.96,86.1,4.5,1.03,6.75,-128.15,81.81,74.43,253.41,277.86,81.29,79.99,253.49,277.0,0.0
2018-09-09 08:31:00,88.67083,46.56049,1013.637,264.97,86.1,4.7,0.93,7.06,-128.15,81.74,74.64,252.4,277.78,81.4,79.9,253.67,277.31,0.0
2018-09-09 08:31:00,88.67083,46.56048,1013.614,264.96,86.1,4.9,0.98,6.93,-128.15,81.81,74.84,252.73,278.04,81.54,79.79,253.87,277.66,0.0
2018-09-09 08:31:00,88.67083,46.56048,1013.595,264.96,86.1,5.0,0.93,7.06,-128.18,81.81,75.05,253.25,278.03,81.7,79.69,253.97,277.84,0.0
2018-09-09 08:31:00,88.67083,46.56048,1013.587,264.96,86.1,5.1,1.06,7.12,-128.21,82.07,75.05,253.6,278.15,81.88,79.61,253.98,277.92,0.0
2018-09-09 08:31:00,88.67083,46.56047,1013.591,264.96,86.1,5.0,1.39,7.11,-128.2,81.81,75.33,253.66,277.84,82.08,79.56,253.94,277.92,0.0
2018-09-09 08:31:00,88.67083,46.56047,1013.6,264.96,86.1,5.0,1.52,7.48,-128.13,81.94,75.33,254.2,278.47,82.28,79.54,253.95,277.86,0.0
2018-09-09 08:31:00,88.67083,46.56046,1013.585,264.96,86.1,5.1,1.93,7.01,-128.11,81.81,75.4,253.34,278.18,82.47,79.57,253.95,277.79,0.0
2018-09-09 08:31:00,88.67083,46.56046,1013.589,264.97,86.1,5.1,2.45,7.14,-128.03,81.68,75.47,253.58,278.02,82.65,79.63,253.93,277.67,0.0
2018-09-09 08:31:00,88.67083,46.56046,1013.566,264.97,86.1,5.2,2.87,7.11,-127.85,82.0,75.6,253.51,277.82,82.79,79.72,253.8,277.52,0.0
2018-09-09 08:31:00,88.67083,46.56046,1013.524,264.96,86.1,5.5,3.27,7.02,-127.61,82.07,75.74,253.42,277.8,82.9,79.83,253.63,277.38,0.0
2018-09-09 08:31:00,88.67083,46.56045,1013.53,264.96,86.1,5.5,3.79,7.22,-127.35,82.2,75.67,253.86,277.75,82.97,79.96,253.49,277.24,0.0
2018-09-09 08:31:00,88.67083,46.56045,1013.538,264.96,86.1,5.4,3.75,7.24,-126.96,81.81,75.81,253.23,277.98,82.99,80.08,253.32,277.03,0.0
2018-09-09 08:31:00,88.67083,46.56045,1013.538,264.97,86.1,5.4,3.8,7.27,-126.54,82.13,76.02,253.59,277.74,82.98,80.18,253.3,276.89,0.0
2018-09-09 08:31:00,88.67083,46.56045,1013.534,264.97,86.1,5.5,3.89,7.35,-126.08,82.07,76.09,253.13,277.65,82.95,80.25,253.25,276.77,0.0
2018-09-09 08:31:00,88.67083,46.56044,1013.519,264.97,86.1,5.6,3.87,7.39,-125.61,82.2,76.3,253.14,277.72,82.92,80.29,253.24,276.66,0.0
2018-09-09 08:31:00,88.67083,46.56044,1013.489,264.96,86.1,5.8,3.79,7.31,-125.1,82.2,76.43,253.46,277.44,82.89,80.29,253.23,276.56,0.0
2018-09-09 08:31:00,88.67083,46.56044,1013.503,264.97,86.1,5.7,4.07,7.18,-124.53,82.13,76.43,253.78,277.15,82.89,80.26,253.11,276.45,0.0
2018-09-09 08:31:00,88.67083,46.56044,1013.505,264.97,86.1,5.7,4.31,7.1,-123.96,82.13,76.5,254.36,277.52,82.92,80.2,253.09,276.37,0.0
2018-09-09 08:31:00,88.67083,46.56044,1013.506,264.97,86.1,5.7,4.74,7.07,-123.36,82.0,76.57,253.91,277.51,83.01,80.13,253.11,276.35,0.0
2018-09-09 08:31:00,88.67083,46.56043,1013.505,264.97,86.1,5.7,4.94,7.05,-122.73,82.2,76.78,253.83,277.34,83.15,80.07,253.3,276.45,0.0
2018-09-09 08:31:00,88.67083,46.56043,1013.504,264.97,86.1,5.7,4.93,7.06,-122.08,82.13,76.92,253.19,277.21,83.34,80.02,253.52,276.6,0.0
2018-09-09 08:31:00,88.67083,46.56043,1013.511,264.97,86.1,5.6,5.01,7.18,-121.44,82.26,76.71,252.15,276.87,83.58,80.02,253.47,276.64,0.0
2018-09-09 08:31:00,88.67083,46.56043,1013.494,264.97,86.1,5.8,5.32,7.19,-120.74,82.2,77.06,252.61,276.85,83.87,80.07,253.47,276.73,0.0
2018-09-09 08:31:00,88.67083,46.56043,1013.478,264.97,86.1,5.9,5.52,7.09,-119.97,82.33,76.99,253.3,277.41,84.18,80.17,253.42,276.77,0.0
2018-09-09 08:31:00,88.67083,46.56043,1013.475,264.97,86.1,5.9,5.82,6.93,-119.22,82.46,77.19,254.77,278.44,84.5,80.33,253.43,276.84,0.0
2018-09-09 08:31:00,88.67083,46.56043,1013.482,264.97,86.1,5.9,6.1,6.78,-118.45,82.53,76.99,254.86,278.64,84.83,80.53,253.44,276.89,0.0
2018-09-09 08:31:00,88.67083,46.56043,1013.468,264.97,86.1,6.0,6.08,6.67,-117.45,82.26,76.92,252.39,277.11,85.15,80.76,253.43,276.91,0.0
2018-09-09 08:31:00,88.67083,46.56043,1013.437,264.97,86.1,6.2,6.35,6.54,-116.45,82.4,77.19,253.23,276.97,85.44,81.01,253.57,276.93,0.0
2018-09-09 08:31:00,88.67083,46.56043,1013.432,264.97,86.1,6.2,6.39,6.56,-115.36,82.92,77.54,253.67,276.67,85.7,81.25,253.67,276.93,0.0
2018-09-09 08:31:00,88.67083,46.56043,1013.416,264.97,86.1,6.4,6.34,6.39,-114.25,82.66,77.75,254.05,277.32,85.91,81.46,253.74,276.87,0.0
2018-09-09 08:31:00,88.67083,46.56043,1013.408,264.97,86.1,6.4,6.28,6.27,-113.14,82.92,77.75,254.38,277.56,86.08,81.63,253.68,276.72,0.0
2018-09-09 08:31:00,88.67083,46.56043,1013.415,264.97,86.1,6.4,6.28,6.23,-111.98,82.92,77.82,253.91,277.35,86.19,81.74,253.57,276.55,0.0
2018-09-09 08:31:00,88.67083,46.56043,1013.383,264.96,86.1,6.6,6.39,6.02,-110.77,82.98,77.75,254.28,277.57,86.25,81.8,253.7,276.51,0.0
2018-09-09 08:31:00,88.67083,46.56042,1013.386,264.96,86.1,6.6,6.35,5.94,-109.53,82.92,78.02,254.19,277.53,86.27,81.81,253.69,276.51,0.0
2018-09-09 08:31:00,88.67083,46.56042,1013.373,264.97,86.1,6.7,6.68,5.8,-108.28,83.18,78.02,254.33,277.37,86.24,81.78,253.71,276.55,0.0
2018-09-09 08:31:00,88.67083,46.56042,1013.359,264.97,86.1,6.8,7.01,5.69,-106.94,83.31,78.02,254.18,277.39,86.17,81.71,253.67,276.55,0.0
2018-09-09 08:31:00,88.67083,46.56042,1013.356,264.97,86.1,6.8,7.29,5.57,-105.57,83.38,78.23,253.54,277.45,86.08,81.64,253.64,276.56,0.0
2018-09-09 08:31:00,88.67083,46.56042,1013.365,264.97,86.1,6.8,7.65,5.38,-104.2,83.51,78.37,253.74,277.46,85.98,81.56,253.65,276.63,0.0
2018-09-09 08:31:00,88.67083,46.56042,1013.324,264.96,86.1,7.1,7.75,5.28,-102.78,83.31,78.44,252.96,277.48,85.87,81.48,253.53,276.68,0.0
2018-09-09 08:31:00,88.67083,46.56042,1013.31,264.97,86.1,7.2,7.91,5.14,-101.36,83.7,78.44,253.52,277.8,85.77,81.43,253.41,276.69,0.0
2018-09-09 08:31:00,88.67083,46.56042,1013.331,264.97,86.1,7.0,8.15,4.99,-99.91,83.51,78.72,253.53,277.16,85.68,81.38,253.25,276.69,0.0
2018-09-09 08:31:00,88.67082,46.56041,1013.348,264.97,86.1,6.9,8.24,4.79,-98.43,83.7,78.51,253.72,277.21,85.61,81.35,253.14,276.67,0.0
2018-09-09 08:31:00,88.67082,46.56041,1013.322,264.97,86.1,7.1,8.11,4.55,-96.88,83.7,78.78,253.79,277.77,85.57,81.33,253.11,276.68,0.0
2018-09-09 08:31:00,88.67082,46.56041,1013.292,264.97,86.1,7.3,8.22,4.44,-95.36,83.51,78.51,253.19,277.5,85.56,81.32,253.12,276.83,0.0
2018-09-09 08:31:00,88.67082,46.56041,1013.311,264.97,86.1,7.2,8.01,4.26,-93.75,83.38,78.78,253.26,277.13,85.56,81.31,253.19,276.85,0.0
2018-09-09 08:31:00,88.67082,46.56041,1013.321,264.97,86.1,7.1,7.87,4.02,-92.13,83.77,78.85,253.03,277.47,85.6,81.31,253.23,276.85,0.0
2018-09-09 08:31:00,88.67082,46.56041,1013.315,264.97,86.1,7.1,7.87,3.88,-90.45,83.9,78.92,253.23,277.26,85.65,81.31,253.31,276.88,0.0
2018-09-09 08:31:00,88.67082,46.5604,1013.301,264.97,86.1,7.2,7.88,3.79,-88.71,84.1,79.06,253.64,278.01,85.71,81.32,253.38,276.91,0.0
2018-09-09 08:31:00,88.67082,46.5604,1013.298,264.97,86.1,7.3,7.71,3.57,-87.02,83.97,79.13,254.3,279.3,85.78,81.35,253.39,276.87,0.0
2018-09-09 08:31:00,88.67082,46.5604,1013.275,264.97,86.1,7.4,7.74,3.53,-85.29,84.16,79.06,253.77,278.05,85.86,81.39,253.44,276.83,0.0
2018-09-09 08:31:00,88.67082,46.5604,1013.28,264.97,86.1,7.4,7.71,3.41,-83.53,83.84,79.06,253.55,277.58,85.93,81.45,253.44,276.79,0.0
2018-09-09 08:31:00,88.67082,46.5604,1013.277,264.97,86.1,7.4,7.66,3.38,-81.73,84.16,79.27,253.92,277.59,85.99,81.52,253.42,276.75,0.0
2018-09-09 08:31:00,88.67082,46.5604,1013.259,264.97,86.1,7.6,7.72,3.29,-79.88,83.77,79.2,253.87,277.21,86.03,81.6,253.37,276.72,0.0
2018-09-09 08:31:00,88.67082,46.5604,1013.25,264.97,86.1,7.6,7.93,2.97,-78.09,84.1,79.34,253.35,277.04,86.05,81.68,253.29,276.6,0.0
2018-09-09 08:31:00,88.67082,46.5604,1013.265,264.96,86.1,7.5,7.84,3.01,-76.17,84.49,79.27,253.23,277.06,86.05,81.75,253.18,276.33,0.0
2018-09-09 08:31:00,88.67082,46.5604,1013.256,264.97,86.1,7.6,8.2,2.54,-74.43,84.29,79.54,252.77,276.67,86.01,81.79,253.13,276.23,0.0
2018-09-09 08:31:00,88.67082,46.5604,1013.222,264.96,86.1,7.8,7.91,2.5,-72.53,84.1,79.47,252.52,277.26,85.95,81.81,253.09,276.16,0.0
2018-09-09 08:31:00,88.67082,46.56039,1013.213,264.96,86.1,7.9,7.67,2.32,-70.64,84.29,79.41,252.72,277.2,85.86,81.8,253.03,276.11,0.0
2018-09-09 08:31:00,88.67082,46.56039,1013.249,264.95,86.1,7.6,7.58,1.98,-68.77,84.36,79.82,253.07,276.94,85.75,81.75,253.0,276.11,0.0
2018-09-09 08:31:00,88.67082,46.56039,1013.251,264.95,86.1,7.6,7.1,2.06,-66.84,84.56,79.68,253.2,276.63,85.62,81.68,253.03,276.17,0.0
2018-09-09 08:31:00,88.67082,46.56038,1013.241,264.94,86.1,7.7,6.63,1.54,-64.94,84.56,79.68,253.3,276.99,85.49,81.6,253.08,276.2,0.0
2018-09-09 08:31:00,88.67082,46.56038,1013.238,264.94,86.1,7.7,6.48,1.56,-63.05,84.75,79.82,253.12,277.09,85.36,81.52,253.19,276.29,0.0
2018-09-09 08:31:00,88.67082,46.56038,1013.232,264.94,86.1,7.8,6.29,1.37,-61.13,84.29,79.96,252.93,276.89,85.24,81.45,253.31,276.36,0.0
2018-09-09 08:31:00,88.67082,46.56038,1013.225,264.93,86.1,7.8,6.03,1.1,-59.24,84.49,79.75,253.19,277.06,85.13,81.4,253.34,276.4,0.0
2018-09-09 08:31:00,88.67082,46.56037,1013.227,264.93,86.1,7.8,5.82,1.09,-57.37,84.56,79.89,253.21,277.06,85.05,81.38,253.29,276.45,0.0
2018-09-09 08:31:00,88.67082,46.56037,1013.203,264.92,86.1,8.0,5.96,0.88,-55.41,84.23,79.89,253.01,276.3,84.97,81.39,253.27,276.48,0.0
2018-09-09 08:31:00,88.67082,46.56037,1013.19,264.92,86.1,8.1,5.47,0.86,-53.48,84.56,79.89,253.14,276.87,84.91,81.42,253.19,276.43,0.0
2018-09-09 08:31:00,88.67082,46.56036,1013.175,264.92,86.1,8.2,5.32,0.71,-51.6,84.29,79.89,253.25,276.94,84.85,81.47,253.12,276.38,0.0
2018-09-09 08:31:00,88.67082,46.56036,1013.162,264.91,86.1,8.3,5.16,0.67,-49.72,84.82,80.03,252.78,276.82,84.79,81.52,253.06,276.31,0.0
2018-09-09 08:31:00,88.67082,46.56036,1013.158,264.91,86.1,8.3,4.74,0.75,-47.79,84.49,80.1,252.45,277.07,84.71,81.57,252.98,276.24,0.0
2018-09-09 08:31:00,88.67082,46.56036,1013.165,264.9,86.1,8.3,4.33,0.43,-45.92,84.75,80.1,253.25,277.01,84.61,81.61,252.91,276.2,0.0
2018-09-09 08:31:00,88.67082,46.56036,1013.167,264.9,86.1,8.3,4.08,0.62,-44.1,84.62,80.1,253.29,276.74,84.48,81.63,252.89,276.23,0.0
2018-09-09 08:31:00,88.67082,46.56036,1013.161,264.89,86.1,8.3,3.71,0.56,-42.2,84.36,80.17,253.56,277.12,84.33,81.63,252.84,276.22,0.0
2018-09-09 08:31:00,88.67082,46.56036,1013.152,264.89,86.1,8.4,3.37,0.58,-40.28,84.56,80.3,253.67,277.09,84.15,81.62,252.84,276.26,0.0
2018-09-09 08:31:00,88.67082,46.56036,1013.146,264.89,86.1,8.4,3.14,0.62,-38.39,84.56,80.3,253.3,277.11,83.94,81.61,252.9,276.33,0.0
2018-09-09 08:31:00,88.67082,46.56036,1013.152,264.89,86.1,8.4,3.02,0.41,-36.63,84.42,80.3,253.35,277.06,83.73,81.59,252.96,276.36,0.0
2018-09-09 08:31:00,88.67082,46.56036,1013.142,264.88,86.1,8.4,2.7,0.52,-34.79,84.75,80.24,253.1,277.3,83.5,81.59,252.97,276.44,0.0
2018-09-09 08:32:00,88.67082,46.56036,1013.135,264.88,86.1,8.5,2.56,0.33,-33.03,84.56,80.44,253.04,276.64,83.27,81.61,252.99,276.53,0.0
2018-09-09 08:32:00,88.67082,46.56036,1013.11,264.88,86.1,8.7,2.26,0.34,-31.23,84.29,80.44,252.9,277.18,83.05,81.64,252.97,276.6,0.0
2018-09-09 08:32:00,88.67082,46.56036,1013.084,264.87,86.1,8.9,1.96,0.43,-29.48,84.36,80.24,252.66,277.13,82.85,81.7,252.94,276.64,0.0
2018-09-09 08:32:00,88.67082,46.56036,1013.096,264.87,86.1,8.8,1.82,0.43,-27.83,83.9,80.37,251.99,276.6,82.68,81.78,252.91,276.67,0.0
2018-09-09 08:32:00,88.67082,46.56035,1013.108,264.87,86.1,8.7,1.59,0.69,-26.2,84.36,80.37,252.74,277.23,82.54,81.87,252.86,276.67,0.0
2018-09-09 08:32:00,88.67082,46.56035,1013.084,264.87,86.1,8.9,1.39,0.59,-24.57,84.69,80.51,252.6,277.45,82.45,81.96,252.79,276.68,0.0
2018-09-09 08:32:00,88.67082,46.56035,1013.052,264.87,86.1,9.1,1.37,0.77,-23.02,83.97,80.58,252.57,277.42,82.41,82.05,252.77,276.74,0.0
2018-09-09 08:32:00,88.67082,46.56036,1013.032,264.87,86.1,9.3,1.26,0.84,-21.5,84.42,80.51,252.89,277.42,82.43,82.14,252.74,276.76,0.0
2018-09-09 08:32:00,88.67082,46.56036,1013.032,264.88,86.1,9.3,0.97,0.77,-19.99,83.9,80.79,252.97,277.43,82.51,82.21,252.71,276.75,0.0
2018-09-09 08:32:00,88.67082,46.56036,1013.042,264.88,86.1,9.2,0.72,1.08,-18.52,84.1,80.79,252.69,277.11,82.64,82.28,252.79,276.81,0.0
2018-09-09 08:32:00,88.67082,46.56037,1013.043,264.88,86.1,9.2,0.68,1.2,-17.12,83.97,80.65,252.69,277.23,82.83,82.34,252.85,276.82,0.0
2018-09-09 08:32:00,88.67082,46.56037,1013.042,264.88,86.1,9.2,0.32,1.47,-15.65,83.97,80.72,253.04,277.27,83.05,82.39,252.94,276.86,0.0
2018-09-09 08:32:00,88.67082,46.56037,1013.032,264.88,86.1,9.3,0.25,1.64,-14.25,83.7,80.72,252.76,276.91,83.3,82.44,253.03,276.86,0.0
2018-09-09 08:32:00,88.67082,46.56037,1013.026,264.88,86.1,9.3,0.35,1.77,-12.92,83.84,80.79,252.82,276.6,83.54,82.48,253.09,276.79,0.0
2018-09-09 08:32:00,88.67082,46.56038,1013.051,264.89,86.1,9.1,0.23,2.04,-11.62,84.16,81.0,252.99,276.69,83.76,82.51,253.14,276.7,0.0
2018-09-09 08:32:00,88.67082,46.56038,1012.994,264.89,86.1,9.6,-0.02,2.22,-10.32,83.97,80.79,252.88,276.89,83.93,82.53,253.2,276.63,0.0
2018-09-09 08:32:00,88.67082,46.56038,1012.99,264.89,86.1,9.6,0.26,2.67,-9.17,83.84,80.93,253.37,277.29,84.04,82.53,253.25,276.52,0.0
2018-09-09 08:32:00,88.67082,46.56039,1012.996,264.89,86.1,9.6,0.27,2.79,-8.02,84.1,81.13,253.19,276.93,84.06,82.51,253.26,276.41,0.0
2018-09-09 08:32:00,88.67082,46.56039,1012.98,264.89,86.1,9.7,0.23,2.92,-6.92,84.03,81.0,253.16,276.44,84.01,82.47,253.29,276.33,0.0
2018-09-09 08:32:00,88.67082,46.5604,1012.942,264.89,86.1,10.0,0.34,3.21,-5.88,84.16,81.06,253.24,276.48,83.88,82.4,253.3,276.3,0.0
2018-09-09 08:32:00,88.67082,46.56041,1012.972,264.89,86.1,9.7,0.59,3.14,-4.89,83.84,81.06,253.51,276.99,83.69,82.31,253.29,276.25,0.0
2018-09-09 08:32:00,88.67082,46.56041,1012.955,264.9,86.1,9.9,0.27,3.45,-3.96,84.1,81.27,253.08,276.64,83.48,82.2,253.36,276.36,0.0
2018-09-09 08:32:00,88.67082,46.56042,1012.935,264.89,86.1,10.0,0.27,3.32,-3.08,83.9,81.13,253.34,276.95,83.26,82.09,253.42,276.47,0.0
2018-09-09 08:32:00,88.67082,46.56042,1012.923,264.89,86.1,10.1,0.08,3.4,-2.21,83.97,81.13,253.08,276.9,83.06,81.98,253.41,276.57,0.0
2018-09-09 08:32:00,88.67082,46.56043,1012.922,264.9,86.1,10.1,-0.28,3.65,-1.35,84.03,81.27,252.89,276.74,82.92,81.88,253.39,276.66,0.0
2018-09-09 08:32:00,88.67082,46.56043,1012.928,264.9,86.1,10.1,-0.36,3.58,-0.54,83.97,81.27,253.11,276.39,82.84,81.81,253.42,276.77,0.0
2018-09-09 08:32:00,88.67082,46.56044,1012.912,264.9,86.1,10.2,-0.3,3.76,0.29,83.77,81.27,253.67,277.7,82.83,81.76,253.44,276.81,0.0
2018-09-09 08:32:00,88.67082,46.56044,1012.912,264.89,86.1,10.2,-0.33,3.85,0.93,83.77,81.27,253.83,277.95,82.9,81.74,253.48,276.85,0.0
2018-09-09 08:32:00,88.67082,46.56045,1012.9,264.89,86.1,10.3,-0.23,3.94,1.54,83.57,81.06,252.9,277.13,83.04,81.75,253.52,276.85,0.0
2018-09-09 08:32:00,88.67082,46.56046,1012.885,264.89,86.1,10.4,-0.14,4.06,2.16,83.64,81.06,252.43,276.25,83.22,81.79,253.54,276.82,0.0
2018-09-09 08:32:00,88.67082,46.56047,1012.908,264.88,86.1,10.2,-0.26,4.17,2.75,83.77,81.27,253.15,276.76,83.43,81.84,253.56,276.78,0.0
2018-09-09 08:32:00,88.67082,46.56047,1012.856,264.88,86.1,10.6,-0.28,4.18,3.31,83.9,81.27,253.54,276.8,83.65,81.91,253.6,276.76,0.0
2018-09-09 08:32:00,88.67082,46.56048,1012.842,264.88,86.1,10.7,-0.37,4.46,3.84,83.64,81.34,253.74,276.91,83.86,81.97,253.54,276.58,0.0
2018-09-09 08:32:00,88.67082,46.56049,1012.847,264.89,86.1,10.7,-0.33,4.59,4.28,83.84,81.34,253.49,277.13,84.05,82.03,253.51,276.43,0.0
2018-09-09 08:32:00,88.67082,46.56049,1012.848,264.89,86.1,10.7,-0.28,4.66,4.68,83.84,81.48,253.68,277.07,84.21,82.09,253.55,276.39,0.0
2018-09-09 08:32:00,88.67082,46.5605,1012.842,264.89,86.1,10.7,-0.29,4.76,5.04,83.77,81.41,253.46,277.21,84.34,82.12,253.6,276.45,0.0
2018-09-09 08:32:00,88.67082,46.56051,1012.871,264.89,86.1,10.5,-0.31,5.02,5.35,83.77,81.27,253.67,277.19,84.46,82.15,253.58,276.55,0.0
2018-09-09 08:32:00,88.67082,46.56052,1012.826,264.89,86.1,10.9,-0.52,5.05,5.59,83.97,81.41,253.22,276.48,84.55,82.16,253.57,276.63,0.0
2018-09-09 08:32:00,88.67082,46.56052,1012.822,264.89,86.1,10.9,-0.37,5.05,5.85,83.97,81.34,253.48,276.81,84.63,82.16,253.55,276.72,0.0
2018-09-09 08:32:00,88.67082,46.56053,1012.827,264.89,86.1,10.8,-0.05,5.05,6.08,83.7,81.48,253.22,277.0,84.71,82.14,253.53,276.81,0.0
2018-09-09 08:32:00,88.67082,46.56054,1012.818,264.9,86.1,10.9,0.33,5.03,6.26,83.97,81.41,253.15,277.37,84.78,82.11,253.5,276.88,0.0
2018-09-09 08:32:00,88.67082,46.56056,1012.789,264.9,86.1,11.1,0.63,5.0,6.43,83.7,81.41,252.99,277.56,84.85,82.07,253.44,276.93,0.0
2018-09-09 08:32:00,88.67082,46.56061,1012.795,264.9,86.1,11.1,0.68,4.96,6.51,83.9,81.55,253.27,277.19,84.91,82.01,253.37,276.94,0.0
2018-09-09 08:32:00,88.67082,46.56066,1012.783,264.9,86.1,11.2,0.67,5.01,6.57,84.1,81.41,253.28,277.17,84.95,81.94,253.31,277.0,0.0
2018-09-09 08:32:00,88.67081,46.5607,1012.792,264.9,86.1,11.1,0.73,5.08,6.58,83.9,81.62,253.45,277.36,84.98,81.87,253.24,276.94,0.0
2018-09-09 08:32:00,88.67081,46.56075,1012.792,264.91,86.2,11.1,0.76,5.12,6.56,84.1,81.48,253.26,277.21,84.99,81.8,253.19,276.86,0.0
2018-09-09 08:32:00,88.67081,46.5608,1012.754,264.91,86.2,11.4,0.74,5.06,6.49,84.16,81.69,253.13,277.27,84.99,81.73,253.19,276.77,0.0
2018-09-09 08:32:00,88.67081,46.56084,1012.757,264.92,86.2,11.4,0.74,4.83,6.33,84.29,81.48,252.94,277.14,84.98,81.68,253.18,276.65,0.0
2018-09-09 08:32:00,88.67081,46.56089,1012.744,264.92,86.2,11.5,0.5,4.51,6.12,83.9,81.62,252.78,277.27,84.97,81.65,253.07,276.54,0.0
2018-09-09 08:32:00,88.67081,46.56094,1012.742,264.92,86.2,11.5,0.24,4.45,5.94,84.16,81.27,252.89,276.66,84.98,81.66,253.02,276.52,0.0
2018-09-09 08:32:00,88.67081,46.56099,1012.746,264.92,86.2,11.5,-0.06,4.36,5.77,84.16,81.62,252.82,276.59,85.01,81.7,253.0,276.48,0.0
2018-09-09 08:32:00,88.67081,46.56103,1012.746,264.92,86.2,11.5,-0.13,4.25,5.53,84.1,81.48,253.19,276.82,85.08,81.77,252.98,276.41,0.0
2018-09-09 08:32:00,88.67081,46.56108,1012.728,264.92,86.2,11.6,0.32,4.28,5.22,84.1,81.55,252.95,276.97,85.18,81.86,252.99,276.42,0.0
2018-09-09 08:32:00,88.67081,46.56112,1012.739,264.93,86.2,11.5,-0.12,4.13,5.03,84.1,81.48,251.86,276.05,85.32,81.98,252.97,276.42,0.0
2018-09-09 08:32:00,88.67081,46.56116,1012.745,264.93,86.2,11.5,-0.44,4.46,4.8,84.42,81.62,252.93,277.03,85.48,82.1,252.96,276.41,0.0
2018-09-09 08:32:00,88.67081,46.5612,1012.732,264.93,86.2,11.6,-0.29,4.41,4.48,84.03,81.48,253.32,276.5,85.65,82.22,252.97,276.45,0.0
2018-09-09 08:32:00,88.6708,46.56124,1012.723,264.92,86.2,11.6,0.03,4.24,4.06,84.29,81.55,253.23,276.02,85.83,82.31,252.96,276.45,0.0
2018-09-09 08:32:00,88.6708,46.56128,1012.762,264.92,86.2,11.3,-0.03,4.41,3.55,84.56,81.55,253.55,276.64,86.0,82.38,252.95,276.39,0.0
2018-09-09 08:32:00,88.6708,46.56132,1012.709,264.93,86.2,11.7,-0.06,4.24,3.06,84.42,81.69,253.52,276.55,86.15,82.42,253.02,276.37,0.0
2018-09-09 08:32:00,88.6708,46.56136,1012.684,264.93,86.2,11.9,-0.19,4.26,2.52,84.23,81.76,253.3,276.81,86.28,82.41,253.17,276.41,0.0
2018-09-09 08:32:00,88.6708,46.5614,1012.671,264.93,86.2,12.0,0.18,4.16,1.9,84.62,81.76,253.44,276.96,86.37,82.38,253.26,276.37,0.0
2018-09-09 08:32:00,88.6708,46.56143,1012.667,264.93,86.2,12.1,0.23,4.04,1.27,84.49,81.76,253.23,276.54,86.44,82.32,253.33,276.38,0.0
2018-09-09 08:32:00,88.6708,46.56147,1012.67,264.93,86.2,12.0,-0.15,4.02,0.63,84.56,81.69,253.0,276.33,86.49,82.24,253.41,276.44,0.0
2018-09-09 08:32:00,88.6708,46.56151,1012.669,264.93,86.2,12.0,-0.08,4.11,0.0,84.82,81.69,253.56,276.66,86.53,82.16,253.48,276.45,0.0
2018-09-09 08:32:00,88.6708,46.56155,1012.637,264.93,86.2,12.3,0.27,3.95,-0.72,84.69,81.76,253.25,276.53,86.56,82.09,253.56,276.47,0.0
2018-09-09 08:32:00,88.6708,46.56159,1012.641,264.93,86.2,12.3,0.35,3.87,-1.43,84.88,81.62,253.21,276.85,86.59,82.02,253.6,276.5,0.0
2018-09-09 08:32:00,88.6708,46.56163,1012.645,264.93,86.2,12.2,0.29,3.87,-2.16,84.56,81.82,253.35,276.98,86.63,81.98,253.61,276.53,0.0
2018-09-09 08:32:00,88.6708,46.56167,1012.642,264.93,86.2,12.2,0.26,3.84,-2.95,84.69,81.69,253.52,277.0,86.67,81.95,253.6,276.58,0.0
2018-09-09 08:32:00,88.6708,46.5617,1012.663,264.93,86.2,12.1,0.39,3.71,-3.75,84.75,81.76,253.36,276.93,86.71,81.94,253.59,276.66,0.0
2018-09-09 08:32:00,88.67079,46.56174,1012.611,264.94,86.2,12.5,0.67,3.86,-4.66,85.14,81.76,253.69,277.0,86.74,81.94,253.53,276.65,0.0
2018-09-09 08:32:00,88.67079,46.56178,1012.591,264.93,86.2,12.6,0.43,3.64,-5.57,85.08,81.76,253.68,277.16,86.75,81.95,253.52,276.68,0.0
2018-09-09 08:32:00,88.67079,46.56182,1012.595,264.93,86.2,12.6,0.3,3.57,-6.53,84.95,81.82,253.69,277.26,86.75,81.95,253.52,276.7,0.0
2018-09-09 08:32:00,88.67079,46.56185,1012.594,264.93,86.2,12.6,0.3,3.55,-7.49,85.14,81.76,253.51,276.98,86.73,81.95,253.52,276.72,0.0
2018-09-09 08:32:00,88.67079,46.56189,1012.569,264.94,86.2,12.8,0.33,3.48,-8.45,85.08,81.82,253.8,277.06,86.69,81.95,253.52,276.74,0.0
2018-09-09 08:32:00,88.67079,46.56193,1012.587,264.94,86.2,12.7,0.28,3.42,-9.5,85.21,81.69,253.61,276.53,86.64,81.95,253.56,276.75,0.0
2018-09-09 08:32:00,88.67079,46.56196,1012.59,264.94,86.2,12.6,0.53,3.32,-10.6,84.95,81.76,253.4,276.68,86.59,81.94,253.58,276.81,0.0
2018-09-09 08:32:00,88.67079,46.562,1012.574,264.94,86.2,12.8,0.51,3.35,-11.65,85.34,81.82,253.46,276.76,86.54,81.94,253.64,276.85,0.0
2018-09-09 08:32:00,88.67079,46.56203,1012.552,264.94,86.2,12.9,0.6,3.33,-12.77,85.08,81.76,253.32,276.96,86.51,81.95,253.69,276.87,0.0
2018-09-09 08:32:00,88.67079,46.56205,1012.541,264.94,86.2,13.0,0.82,3.25,-13.98,85.47,81.76,253.03,277.15,86.52,81.98,253.7,276.88,0.0
2018-09-09 08:32:00,88.67078,46.56207,1012.558,264.94,86.2,12.9,0.93,3.21,-15.16,85.28,81.89,253.51,277.16,86.55,82.01,253.67,276.9,0.0
2018-09-09 08:32:00,88.67078,46.56209,1012.554,264.95,86.2,12.9,1.13,3.0,-15.9,85.41,81.89,253.33,277.53,86.61,82.06,253.6,276.97,0.0
2018-09-09 08:32:00,88.67078,46.56211,1012.526,264.94,86.2,13.1,1.16,2.86,-17.1,85.34,81.76,253.48,277.45,86.71,82.11,253.47,276.93,0.0
2018-09-09 08:32:00,88.67078,46.56213,1012.502,264.93,86.2,13.3,1.07,2.8,-18.52,85.14,81.76,253.38,277.33,86.82,82.16,253.36,276.89,0.0
2018-09-09 08:32:00,88.67078,46.56215,1012.501,264.94,86.2,13.3,0.99,2.74,-19.93,85.41,81.69,253.34,277.33,86.94,82.2,253.27,276.87,0.0
2018-09-09 08:32:00,88.67078,46.56216,1012.492,264.94,86.2,13.4,0.92,2.65,-21.37,85.54,81.76,253.21,277.24,87.06,82.23,253.18,276.87,0.0
2018-09-09 08:32:00,88.67078,46.56218,1012.501,264.94,86.2,13.3,0.78,2.64,-22.76,85.6,81.89,253.26,277.62,87.17,82.24,253.08,276.91,0.0
2018-09-09 08:32:00,88.67078,46.5622,1012.478,264.94,86.2,13.5,0.72,2.56,-24.19,85.47,82.1,253.08,276.55,87.25,82.21,253.03,276.89,0.0
2018-09-09 08:32:00,88.67078,46.56222,1012.459,264.94,86.2,13.6,0.64,2.44,-25.67,85.73,81.82,253.16,276.86,87.31,82.17,253.06,276.9,0.0
2018-09-09 08:32:00,88.67078,46.56224,1012.455,264.94,86.2,13.7,0.59,2.44,-27.11,85.54,81.89,253.31,276.94,87.34,82.11,253.22,276.97,0.0
2018-09-09 08:32:00,88.67078,46.56226,1012.465,264.94,86.2,13.6,0.69,2.55,-28.57,85.6,81.89,252.81,276.95,87.36,82.03,253.44,277.05,0.0
2018-09-09 08:32:00,88.67078,46.56228,1012.476,264.94,86.2,13.5,1.1,2.49,-30.12,85.6,81.76,253.15,277.17,87.35,81.96,253.6,277.0,0.0
2018-09-09 08:32:00,88.67078,46.56231,1012.466,264.94,86.2,13.6,0.91,2.44,-31.74,85.93,82.03,253.11,276.8,87.34,81.89,253.76,276.85,0.0
2018-09-09 08:32:00,88.67078,46.56233,1012.46,264.93,86.2,13.6,0.81,2.38,-33.38,86.13,81.89,253.81,277.12,87.32,81.84,253.93,276.84,0.0
2018-09-09 08:32:00,88.67077,46.56236,1012.452,264.93,86.2,13.7,0.84,2.42,-35.04,85.93,82.03,254.88,277.6,87.29,81.81,254.02,276.81,0.0
2018-09-09 08:32:00,88.67077,46.56238,1012.435,264.94,86.2,13.8,0.82,2.44,-36.76,85.73,81.69,255.13,277.55,87.27,81.82,254.04,276.76,0.0
2018-09-09 08:32:00,88.67077,46.56241,1012.41,264.94,86.2,14.0,0.58,2.31,-38.45,85.8,81.76,254.2,276.6,87.24,81.85,254.02,276.78,0.0
2018-09-09 08:32:00,88.67077,46.56243,1012.387,264.94,86.2,14.2,0.31,2.31,-40.18,85.73,81.76,253.79,275.18,87.2,81.91,253.99,276.77,0.0
2018-09-09 08:32:00,88.67077,46.56246,1012.376,264.94,86.2,14.3,0.25,2.29,-42.0,86.13,81.82,254.21,276.18,87.15,81.98,253.89,276.79,0.0
2018-09-09 08:32:00,88.67077,46.56248,1012.38,264.94,86.2,14.2,0.15,2.2,-43.84,85.8,82.03,253.95,276.18,87.08,82.07,253.78,276.81,0.0
2018-09-09 08:32:00,88.67077,46.56251,1012.387,264.94,86.2,14.2,0.15,2.11,-45.64,86.32,82.1,253.51,276.33,86.97,82.15,253.61,276.8,0.0
2018-09-09 08:32:00,88.67077,46.56253,1012.379,264.94,86.2,14.2,0.28,2.1,-47.49,86.13,81.82,253.28,277.46,86.85,82.21,253.45,276.8,0.0
2018-09-09 08:32:00,88.67077,46.56256,1012.376,264.94,86.2,14.3,0.29,2.19,-49.36,85.93,81.96,253.24,277.39,86.7,82.26,253.43,276.93,0.0
2018-09-09 08:32:00,88.67077,46.56257,1012.354,264.94,86.2,14.4,0.6,2.11,-51.29,86.13,81.69,252.68,277.4,86.53,82.27,253.46,277.16,0.0
2018-09-09 08:32:00,88.67077,46.56258,1012.336,264.94,86.2,14.6,0.84,2.22,-53.29,86.45,81.76,253.19,277.48,86.36,82.27,253.51,277.28,0.0
2018-09-09 08:32:00,88.67077,46.56259,1012.336,264.94,86.2,14.6,1.24,2.2,-55.31,85.93,82.17,253.42,277.86,86.2,82.23,253.6,277.44,0.0
2018-09-09 08:32:00,88.67077,46.56259,1012.346,264.94,86.2,14.5,1.77,2.14,-57.4,86.19,81.96,253.48,277.58,86.06,82.19,253.7,277.59,0.0
2018-09-09 08:32:00,88.67077,46.5626,1012.319,264.94,86.2,14.7,2.12,2.37,-59.48,85.93,82.03,253.62,277.55,85.95,82.13,253.79,277.65,0.0
2018-09-09 08:32:00,88.67077,46.5626,1012.31,264.93,86.2,14.8,2.31,2.2,-61.56,85.93,81.76,253.9,277.68,85.88,82.08,253.89,277.68,0.0
2018-09-09 08:32:00,88.67077,46.56261,1012.321,264.93,86.2,14.7,2.03,2.15,-63.6,85.93,81.96,253.84,277.28,85.86,82.04,253.98,277.71,0.0
2018-09-09 08:32:00,88.67077,46.56262,1012.323,264.93,86.2,14.7,1.79,2.07,-65.68,86.19,82.1,253.58,277.42,85.87,82.02,254.03,277.78,0.0
2018-09-09 08:32:00,88.67077,46.56262,1012.32,264.93,86.2,14.7,1.57,2.07,-67.7,86.39,81.96,253.51,277.68,85.92,82.02,254.02,277.83,0.0
2018-09-09 08:32:00,88.67077,46.56263,1012.34,264.93,86.2,14.5,1.13,2.19,-69.66,85.93,81.96,253.24,277.57,85.99,82.05,253.95,277.83,0.0
2018-09-09 08:32:00,88.67077,46.56263,1012.312,264.92,86.2,14.8,0.45,1.54,-71.57,86.06,81.96,253.81,277.5,86.07,82.1,253.84,277.85,0.0
2018-09-09 08:32:00,88.67077,46.56264,1012.314,264.92,86.2,14.7,0.39,1.88,-73.49,85.8,81.96,253.54,277.91,86.14,82.16,253.73,277.85,0.0
2018-09-09 08:32:00,88.67077,46.56265,1012.306,264.92,86.2,14.8,0.24,1.57,-75.37,86.13,81.89,254.03,278.21,86.2,82.24,253.63,277.89,0.0
2018-09-09 08:32:00,88.67077,46.56265,1012.283,264.92,86.2,15.0,0.04,1.5,-77.19,85.93,81.76,253.76,278.33,86.24,82.31,253.54,277.92,0.0
2018-09-09 08:32:00,88.67077,46.56265,1012.257,264.91,86.2,15.2,-0.11,1.85,-79.05,86.13,81.96,253.34,277.91,86.24,82.37,253.5,277.93,0.0
2018-09-09 08:32:00,88.67077,46.56265,1012.264,264.91,86.2,15.1,-0.17,1.5,-80.91,86.13,82.1,253.5,277.92,86.23,82.42,253.48,277.94,0.0
2018-09-09 08:32:00,88.67077,46.56265,1012.278,264.91,86.2,15.0,-0.46,1.81,-82.8,86.19,81.96,253.29,278.06,86.18,82.44,253.39,277.95,0.0
2018-09-09 08:32:00,88.67077,46.56266,1012.25,264.9,86.2,15.2,-0.44,1.8,-84.7,86.26,82.1,253.54,277.94,86.12,82.43,253.34,277.95,0.0
2018-09-09 08:32:00,88.67077,46.56266,1012.235,264.9,86.2,15.3,-0.73,1.69,-86.6,86.0,82.1,253.43,277.97,86.05,82.4,253.26,277.88,0.0
2018-09-09 08:32:00,88.67077,46.56266,1012.248,264.9,86.2,15.2,-1.29,1.54,-88.44,86.13,82.1,253.64,277.96,85.98,82.34,253.16,277.83,0.0
2018-09-09 08:32:00,88.67077,46.56266,1012.258,264.9,86.2,15.2,-1.75,1.33,-90.25,86.0,82.03,253.48,277.92,85.9,82.26,253.12,277.84,0.0
2018-09-09 08:32:00,88.67077,46.56266,1012.245,264.89,86.2,15.3,-1.76,1.2,-92.16,86.06,82.1,253.11,277.94,85.83,82.18,253.13,277.85,0.0
2018-09-09 08:32:00,88.67077,46.56266,1012.234,264.89,86.2,15.3,-2.1,0.86,-93.95,86.0,82.1,252.94,277.75,85.75,82.09,253.08,277.85,0.0
2018-09-09 08:32:00,88.67077,46.56266,1012.214,264.89,86.2,15.5,-2.12,0.92,-95.74,85.93,81.96,253.33,277.8,85.68,82.02,253.03,277.79,0.0
2018-09-09 08:32:00,88.67077,46.56267,1012.198,264.88,86.2,15.6,-1.89,1.06,-97.5,86.06,81.96,253.0,277.98,85.61,81.96,253.01,277.74,0.0
2018-09-09 08:32:00,88.67077,46.56267,1012.201,264.87,86.2,15.6,-1.61,1.0,-99.28,86.26,82.03,253.15,278.54,85.54,81.92,253.01,277.71,0.0
2018-09-09 08:32:00,88.67077,46.56267,1012.178,264.87,86.2,15.8,-1.49,0.97,-101.03,85.93,81.96,253.88,278.37,85.47,81.92,253.05,277.71,0.0
2018-09-09 08:32:00,88.67077,46.56267,1012.178,264.87,86.2,15.8,-1.1,0.85,-102.83,86.0,82.1,252.96,278.12,85.4,81.95,253.16,277.7,0.0
2018-09-09 08:32:00,88.67077,46.56267,1012.177,264.87,86.2,15.8,-1.43,0.71,-104.56,86.19,82.1,253.13,277.51,85.35,82.01,253.2,277.68,0.0
2018-09-09 08:32:00,88.67077,46.56267,1012.178,264.87,86.2,15.8,-1.62,0.59,-106.29,85.93,82.1,253.32,277.6,85.31,82.08,253.25,277.68,0.0
2018-09-09 08:32:00,88.67077,46.56267,1012.181,264.87,86.2,15.8,-1.53,0.46,-108.07,86.13,81.96,253.38,277.76,85.3,82.18,253.32,277.66,0.0
2018-09-09 08:32:00,88.67077,46.56267,1012.174,264.87,86.2,15.8,-1.67,0.28,-109.81,85.67,82.03,253.5,277.92,85.32,82.27,253.35,277.61,0.0
2018-09-09 08:32:00,88.67077,46.56267,1012.189,264.87,86.3,15.7,-1.27,0.34,-111.56,85.8,81.96,253.42,277.41,85.38,82.36,253.3,277.55,0.0
2018-09-09 08:32:00,88.67077,46.56267,1012.167,264.87,86.2,15.9,-0.74,0.22,-113.35,85.6,81.96,252.87,277.43,85.47,82.43,253.31,277.51,0.0
2018-09-09 08:32:00,88.67077,46.56267,1012.149,264.87,86.2,16.0,-0.62,0.14,-115.09,86.0,82.1,252.84,277.22,85.59,82.47,253.3,277.5,0.0
2018-09-09 08:32:00,88.67077,46.56267,1012.138,264.87,86.2,16.1,-0.52,0.1,-116.79,86.13,82.17,253.32,277.24,85.72,82.48,253.28,277.48,0.0
2018-09-09 08:32:00,88.67077,46.56267,1012.103,264.87,86.3,16.3,-0.06,0.05,-118.54,86.0,82.17,253.3,277.18,85.86,82.45,253.27,277.43,0.0
2018-09-09 08:32:00,88.67077,46.56267,1012.133,264.86,86.3,16.1,-0.38,0.07,-120.2,85.86,82.1,253.46,277.39,85.98,82.4,253.25,277.38,0.0
2018-09-09 08:32:00,88.67077,46.56267,1012.113,264.85,86.3,16.3,-0.47,-0.1,-121.85,85.8,82.1,253.57,277.39,86.07,82.33,253.26,277.36,0.0
2018-09-09 08:32:00,88.67077,46.56267,1012.101,264.86,86.3,16.4,-0.15,-0.11,-123.54,85.93,81.96,253.46,277.39,86.12,82.24,253.37,277.35,0.0
2018-09-09 08:32:00,88.67077,46.56266,1012.102,264.86,86.3,16.4,0.1,-0.16,-125.15,85.8,82.17,253.5,277.32,86.12,82.15,253.46,277.36,0.0
2018-09-09 08:32:00,88.67077,46.56266,1012.106,264.85,86.3,16.3,0.16,-0.3,-126.71,85.8,82.17,253.76,277.22,86.06,82.07,253.52,277.38,0.0
2018-09-09 08:32:00,88.67077,46.56266,1012.1,264.85,86.3,16.4,0.59,-0.18,-128.25,86.0,82.24,253.57,277.58,85.95,82.01,253.61,277.38,0.0
2018-09-09 08:32:00,88.67077,46.56266,1012.081,264.83,86.3,16.5,0.47,-0.24,-129.73,86.0,81.96,253.64,277.88,85.8,81.98,253.68,277.4,0.0
2018-09-09 08:32:00,88.67077,46.56266,1012.056,264.83,86.3,16.7,0.44,-0.18,-131.2,85.93,82.17,253.86,277.68,85.63,81.96,253.72,277.42,0.0
2018-09-09 08:32:00,88.67076,46.56266,1012.06,264.83,86.3,16.7,0.64,-0.22,-132.62,86.0,82.17,253.57,277.99,85.44,81.95,253.73,277.45,0.0
2018-09-09 08:32:00,88.67076,46.56266,1012.09,264.83,86.3,16.4,0.89,-0.38,-134.01,86.13,82.03,253.39,277.81,85.26,81.95,253.7,277.48,0.0
2018-09-09 08:32:00,88.67076,46.56265,1012.084,264.83,86.3,16.5,0.94,-0.49,-135.36,85.93,82.17,253.8,277.55,85.11,81.95,253.64,277.5,0.0
2018-09-09 08:32:00,88.67076,46.56265,1012.071,264.83,86.3,16.6,1.23,-0.47,-136.61,85.93,81.96,253.79,277.65,85.0,81.93,253.58,277.48,0.0
2018-09-09 08:32:00,88.67076,46.56262,1012.059,264.82,86.3,16.7,1.49,-0.26,-137.76,85.41,81.96,253.69,277.54,84.93,81.89,253.5,277.48,0.0
2018-09-09 08:32:00,88.67076,46.56258,1012.037,264.81,86.3,16.8,1.74,-0.19,-138.87,85.8,81.96,253.64,277.73,84.91,81.82,253.42,277.48,0.0
2018-09-09 08:32:00,88.67076,46.56254,1012.017,264.82,86.3,17.0,2.03,-0.2,-139.92,85.67,82.17,253.57,277.49,84.94,81.72,253.4,277.46,0.0
2018-09-09 08:32:00,88.67076,46.5625,1012.02,264.82,86.3,17.0,2.36,-0.19,-140.95,85.8,82.1,253.39,277.54,85.0,81.61,253.42,277.44,0.0
2018-09-09 08:32:00,88.67076,46.56246,1012.029,264.82,86.3,16.9,2.44,-0.21,-141.84,85.73,82.1,253.69,277.55,85.09,81.5,253.41,277.44,0.0
2018-09-09 08:32:00,88.67076,46.56241,1012.019,264.82,86.3,17.0,2.82,-0.18,-142.71,85.8,82.17,253.5,277.6,85.2,81.39,253.46,277.46,0.0
2018-09-09 08:32:00,88.67076,46.56237,1012.016,264.82,86.3,17.0,2.96,-0.23,-143.43,85.67,82.1,253.67,277.78,85.3,81.3,253.48,277.48,0.0
2018-09-09 08:32:00,88.67076,46.56233,1012.02,264.82,86.3,17.0,2.98,-0.19,-144.05,85.86,82.1,253.62,277.79,85.39,81.24,253.5,277.5,0.0
2018-09-09 08:32:00,88.67076,46.56229,1012.019,264.82,86.3,17.0,3.05,-0.07,-144.64,85.67,81.89,253.67,277.73,85.46,81.22,253.52,277.53,0.0
2018-09-09 08:32:00,88.67076,46.56225,1011.984,264.83,86.3,17.3,3.3,-0.1,-145.17,85.54,81.96,253.4,277.55,85.49,81.23,253.5,277.55,0.0
2018-09-09 08:32:00,88.67076,46.5622,1011.992,264.83,86.4,17.2,3.32,-0.21,-145.59,85.54,81.62,253.58,277.76,85.5,81.28,253.45,277.6,0.0
2018-09-09 08:32:00,88.67076,46.56216,1011.973,264.83,86.4,17.3,3.58,-0.25,-145.93,85.73,81.89,253.22,277.7,85.48,81.34,253.4,277.6,0.0
2018-09-09 08:32:00,88.67076,46.56212,1011.962,264.83,86.4,17.4,3.77,-0.24,-146.23,85.86,81.82,253.15,277.76,85.43,81.4,253.33,277.59,0.0
2018-09-09 08:32:00,88.67076,46.56209,1011.966,264.83,86.4,17.4,3.89,-0.25,-146.49,85.6,81.82,253.59,277.61,85.37,81.45,253.25,277.58,0.0
2018-09-09 08:32:00,88.67076,46.56208,1011.949,264.83,86.4,17.5,4.06,-0.3,-146.72,85.8,81.89,253.31,277.63,85.3,81.48,253.19,277.57,0.0
2018-09-09 08:32:00,88.67077,46.56207,1011.962,264.84,86.4,17.4,4.17,-0.32,-146.85,85.8,81.96,253.38,277.86,85.24,81.48,253.19,277.57,0.0
2018-09-09 08:32:00,88.67077,46.56206,1011.951,264.85,86.4,17.5,4.27,-0.45,-146.89,85.54,82.03,253.44,277.42,85.18,81.45,253.15,277.52,0.0
2018-09-09 08:32:00,88.67077,46.56204,1011.931,264.85,86.4,17.7,4.39,-0.46,-146.82,85.54,81.96,253.54,277.5,85.13,81.39,253.18,277.46,0.0
2018-09-09 08:32:00,88.67077,46.56203,1011.918,264.86,86.4,17.8,4.36,-0.4,-146.66,85.54,81.89,253.53,277.65,85.09,81.31,253.25,277.4,0.0
2018-09-09 08:32:00,88.67077,46.56202,1011.917,264.86,86.4,17.8,4.16,-0.4,-146.44,85.47,81.82,253.65,277.56,85.07,81.23,253.32,277.34,0.0
2018-09-09 08:32:00,88.67077,46.562,1011.874,264.86,86.4,18.1,4.1,-0.71,-146.2,85.73,81.76,253.46,277.5,85.06,81.15,253.43,277.28,0.0
2018-09-09 08:32:00,88.67077,46.56199,1011.857,264.87,86.4,18.2,4.03,-0.78,-145.81,85.67,81.76,252.97,277.34,85.06,81.09,253.49,277.21,0.0
2018-09-09 08:32:00,88.67077,46.56198,1011.869,264.87,86.4,18.1,3.9,-1.18,-145.48,85.6,81.69,253.38,277.26,85.06,81.05,253.5,277.16,0.0
2018-09-09 08:32:00,88.67077,46.56197,1011.876,264.87,86.4,18.1,3.76,-1.32,-145.06,85.54,81.69,253.51,277.38,85.05,81.05,253.49,277.1,0.0
2018-09-09 08:32:00,88.67077,46.56195,1011.867,264.88,86.4,18.1,3.61,-1.23,-144.55,85.6,81.76,253.51,277.22,85.04,81.06,253.45,277.03,0.0
2018-09-09 08:32:00,88.67077,46.56192,1011.872,264.88,86.4,18.1,3.44,-1.36,-144.01,85.34,81.76,253.94,277.18,85.03,81.09,253.4,276.97,0.0
2018-09-09 08:32:00,88.67077,46.56188,1011.863,264.88,86.4,18.2,3.35,-1.33,-143.36,85.54,81.62,253.41,277.28,85.02,81.13,253.35,276.91,0.0
2018-09-09 08:32:00,88.67077,46.56183,1011.856,264.89,86.4,18.2,3.43,-1.28,-142.7,85.34,81.82,253.35,277.4,85.02,81.16,253.36,276.9,0.0
2018-09-09 08:32:00,88.67077,46.56178,1011.825,264.89,86.4,18.5,3.52,-1.22,-142.01,85.67,81.55,253.64,277.29,85.04,81.19,253.35,276.9,0.0
2018-09-09 08:32:00,88.67077,46.56174,1011.789,264.88,86.4,18.7,3.63,-1.26,-141.31,85.6,81.69,253.51,277.12,85.08,81.19,253.36,276.92,0.0
2018-09-09 08:32:00,88.67077,46.56169,1011.798,264.89,86.4,18.7,3.73,-1.39,-140.56,85.47,81.69,253.56,277.14,85.16,81.17,253.41,276.94,0.0
2018-09-09 08:32:00,88.67077,46.56164,1011.781,264.89,86.4,18.8,3.59,-1.13,-139.68,85.21,81.76,253.69,277.33,85.29,81.14,253.48,276.97,0.0
2018-09-09 08:32:00,88.67077,46.5616,1011.776,264.9,86.5,18.8,3.57,-1.35,-138.81,85.47,81.69,253.78,277.43,85.45,81.1,253.53,277.01,0.0
2018-09-09 08:32:00,88.67077,46.56155,1011.78,264.89,86.5,18.8,3.46,-1.3,-137.84,85.6,81.62,253.66,277.23,85.65,81.06,253.63,277.04,0.0
2018-09-09 08:32:00,88.67077,46.5615,1011.795,264.89,86.5,18.7,3.29,-1.24,-136.84,85.28,81.62,253.37,277.39,85.89,81.03,253.76,277.08,0.0
2018-09-09 08:32:00,88.67077,46.56145,1011.806,264.9,86.5,18.6,3.12,-1.22,-135.79,85.73,81.55,253.87,277.44,86.13,81.02,253.87,277.12,0.0
2018-09-09 08:32:00,88.67077,46.56141,1011.765,264.89,86.5,18.9,3.05,-1.0,-134.72,85.28,81.48,253.53,277.32,86.37,81.03,253.93,277.12,0.0
2018-09-09 08:32:00,88.67077,46.56136,1011.744,264.9,86.5,19.1,2.99,-1.07,-133.55,85.34,81.34,253.15,277.12,86.58,81.07,253.94,277.13,0.0
2018-09-09 08:32:00,88.67077,46.56131,1011.747,264.9,86.5,19.1,2.82,-1.04,-132.28,85.6,81.69,253.56,277.3,86.74,81.13,253.92,277.15,0.0
2018-09-09 08:32:00,88.67078,46.56127,1011.736,264.9,86.5,19.1,2.79,-1.01,-131.0,85.54,81.55,254.1,277.34,86.85,81.22,253.91,277.19,0.0
2018-09-09 08:32:00,88.67078,46.56122,1011.713,264.9,86.5,19.3,2.78,-1.03,-129.71,85.8,81.48,254.54,277.28,86.87,81.32,253.87,277.23,0.0
2018-09-09 08:32:00,88.67078,46.56116,1011.724,264.91,86.5,19.2,2.57,-1.06,-128.31,85.67,81.69,254.11,277.32,86.82,81.43,253.78,277.29,0.0
2018-09-09 08:32:00,88.67078,46.56111,1011.746,264.91,86.5,19.1,2.6,-0.81,-126.94,85.86,81.55,254.01,277.16,86.68,81.54,253.73,277.37,0.0
2018-09-09 08:32:00,88.67078,46.56105,1011.712,264.9,86.5,19.3,2.52,-0.85,-125.52,85.6,81.34,254.07,277.38,86.47,81.65,253.76,277.46,0.0
2018-09-09 08:32:00,88.67078,46.561,1011.694,264.9,86.5,19.5,2.31,-0.76,-124.03,85.93,81.62,254.23,277.32,86.2,81.74,253.79,277.55,0.0
2018-09-09 08:32:00,88.67078,46.56094,1011.694,264.91,86.5,19.5,2.13,-0.71,-122.53,85.67,81.55,253.78,277.47,85.88,81.82,253.78,277.62,0.0
2018-09-09 08:32:00,88.67078,46.56089,1011.682,264.9,86.5,19.6,2.05,-0.74,-121.0,85.8,81.55,253.39,277.7,85.55,81.88,253.71,277.67,0.0
2018-09-09 08:32:00,88.67078,46.56084,1011.673,264.9,86.5,19.6,1.93,-0.42,-119.48,86.0,81.55,253.64,277.42,85.21,81.9,253.65,277.7,0.0
2018-09-09 08:32:00,88.67078,46.56078,1011.671,264.9,86.5,19.6,1.86,-0.52,-117.93,85.67,81.55,253.52,277.73,84.88,81.9,253.61,277.65,0.0
2018-09-09 08:32:00,88.67078,46.56073,1011.647,264.9,86.5,19.8,1.71,-0.26,-116.36,85.54,81.55,254.05,277.54,84.59,81.87,253.52,277.57,0.0
2018-09-09 08:32:00,88.67078,46.5607,1011.64,264.9,86.5,19.9,1.54,-0.11,-114.74,85.54,81.55,253.64,277.62,84.35,81.81,253.41,277.46,0.0
2018-09-09 08:32:00,88.67078,46.56067,1011.663,264.91,86.5,19.7,1.35,-0.04,-113.12,85.73,81.62,253.21,277.79,84.15,81.71,253.31,277.32,0.0
2018-09-09 08:32:00,88.67078,46.56065,1011.658,264.91,86.5,19.7,1.08,0.26,-111.51,85.6,81.82,253.44,277.48,84.01,81.59,253.24,277.17,0.0
2018-09-09 08:32:00,88.67078,46.56062,1011.643,264.91,86.5,19.8,0.94,0.12,-109.85,85.41,81.55,253.46,277.35,83.93,81.45,253.1,277.05,0.0
2018-09-09 08:32:00,88.67078,46.56059,1011.646,264.92,86.5,19.8,0.79,0.07,-108.23,85.54,81.55,253.43,277.33,83.89,81.29,253.04,276.92,0.0
2018-09-09 08:32:00,88.67078,46.56057,1011.646,264.92,86.5,19.8,0.64,0.23,-106.58,85.34,81.69,253.44,277.48,83.88,81.14,252.99,276.85,0.0
2018-09-09 08:32:00,88.67078,46.56054,1011.643,264.92,86.5,19.8,0.57,0.46,-104.94,85.6,81.55,253.77,277.35,83.9,81.0,253.02,276.86,0.0
2018-09-09 08:32:00,88.67078,46.56051,1011.649,264.91,86.5,19.8,0.63,0.63,-103.31,85.28,81.48,253.43,277.52,83.94,80.89,253.12,276.93,0.0
2018-09-09 08:32:00,88.67078,46.56049,1011.648,264.92,86.5,19.8,0.46,0.82,-101.6,85.21,81.62,253.14,277.48,83.98,80.81,253.25,277.04,0.0
2018-09-09 08:32:00,88.67078,46.56046,1011.625,264.92,86.5,20.0,0.26,0.68,-99.91,85.34,81.55,253.37,277.35,84.01,80.77,253.38,277.11,0.0
2018-09-09 08:32:00,88.67078,46.56043,1011.604,264.92,86.5,20.1,0.15,0.73,-98.19,85.41,81.48,253.96,277.43,84.02,80.77,253.64,277.15,0.0
2018-09-09 08:32:00,88.67078,46.5604,1011.587,264.92,86.5,20.3,0.03,0.85,-96.49,84.88,81.41,253.86,277.68,84.01,80.81,253.87,277.12,0.0
2018-09-09 08:32:00,88.67078,46.56038,1011.57,264.92,86.5,20.4,-0.21,0.91,-94.76,85.21,81.27,253.71,277.81,83.98,80.88,253.97,277.01,0.0
2018-09-09 08:32:00,88.67078,46.56035,1011.574,264.92,86.5,20.4,-0.67,0.84,-92.99,85.01,81.27,253.58,277.66,83.92,80.98,254.01,276.83,0.0
2018-09-09 08:32:00,88.67078,46.56032,1011.564,264.92,86.5,20.4,-0.92,1.1,-91.18,85.6,81.41,253.59,276.83,83.85,81.08,254.14,276.68,0.0
2018-09-09 08:32:00,88.67078,46.56029,1011.581,264.93,86.5,20.3,-1.17,1.2,-89.35,85.34,81.76,255.24,276.71,83.77,81.18,254.19,276.54,0.0
2018-09-09 08:32:00,88.67079,46.56026,1011.561,264.93,86.5,20.5,-1.47,1.26,-87.46,84.95,81.48,255.08,276.27,83.69,81.28,254.29,276.43,0.0
2018-09-09 08:32:00,88.67079,46.56023,1011.514,264.93,86.5,20.8,-1.72,1.35,-85.56,84.75,81.27,253.73,275.65,83.61,81.36,254.43,276.32,0.0
2018-09-09 08:32:00,88.67079,46.5602,1011.539,264.93,86.5,20.6,-1.84,1.48,-83.59,85.01,81.34,253.27,275.04,83.55,81.44,254.6,276.21,0.0
2018-09-09 08:32:00,88.67079,46.56018,1011.509,264.93,86.5,20.9,-2.26,1.63,-81.6,85.01,81.34,254.12,275.71,83.51,81.5,254.8,276.14,0.0
2018-09-09 08:32:00,88.67079,46.56015,1011.522,264.93,86.5,20.8,-2.48,1.76,-79.63,84.95,81.55,253.76,275.94,83.49,81.56,255.0,276.17,0.0
2018-09-09 08:32:00,88.67079,46.56012,1011.514,264.93,86.5,20.8,-2.72,1.9,-77.61,84.82,81.48,254.7,276.88,83.49,81.63,255.08,276.28,0.0
2018-09-09 08:32:00,88.67079,46.56009,1011.474,264.93,86.5,21.1,-2.91,2.02,-75.53,84.88,81.48,255.4,277.08,83.51,81.69,255.19,276.45,0.0
2018-09-09 08:32:00,88.67079,46.56006,1011.429,264.93,86.5,21.5,-2.98,2.06,-73.39,84.88,81.27,255.66,277.41,83.53,81.77,255.39,276.68,0.0
2018-09-09 08:32:00,88.67079,46.56004,1011.419,264.92,86.5,21.6,-3.13,2.08,-71.26,84.75,81.55,255.62,277.2,83.56,81.84,255.64,276.96,0.0
2018-09-09 08:32:00,88.67079,46.56003,1011.412,264.93,86.5,21.6,-2.94,2.37,-69.09,84.75,81.34,255.35,277.25,83.57,81.92,255.79,277.17,0.0
2018-09-09 08:32:00,88.67079,46.56003,1011.42,264.93,86.6,21.5,-3.05,2.39,-66.84,84.69,81.48,255.57,277.02,83.57,82.0,255.95,277.31,0.0
2018-09-09 08:32:00,88.67079,46.56002,1011.423,264.93,86.6,21.5,-3.09,2.55,-64.63,84.75,81.48,255.53,277.25,83.55,82.06,255.98,277.41,0.0
2018-09-09 08:32:00,88.67079,46.56002,1011.41,264.93,86.5,21.6,-3.02,2.81,-62.41,84.56,81.48,255.49,277.07,83.5,82.11,255.93,277.46,0.0
2018-09-09 08:32:00,88.67079,46.56001,1011.399,264.93,86.6,21.7,-3.07,2.82,-60.16,84.56,81.55,255.61,277.2,83.44,82.14,255.87,277.49,0.0
2018-09-09 08:32:00,88.67079,46.56001,1011.404,264.93,86.6,21.7,-3.43,3.2,-57.83,84.88,81.62,255.75,277.1,83.36,82.16,255.79,277.52,0.0
2018-09-09 08:32:00,88.67079,46.56,1011.418,264.93,86.5,21.6,-3.32,3.28,-55.57,84.75,81.62,255.5,276.78,83.29,82.16,255.75,277.56,0.0
2018-09-09 08:32:00,88.67079,46.56,1011.41,264.93,86.5,21.6,-3.19,3.37,-53.24,84.29,81.55,255.39,277.27,83.22,82.15,255.71,277.57,0.0
2018-09-09 08:32:00,88.67079,46.55999,1011.392,264.93,86.6,21.8,-3.14,3.5,-50.86,84.49,81.69,255.2,277.37,83.17,82.14,255.69,277.56,0.0
2018-09-09 08:32:00,88.67079,46.55999,1011.402,264.93,86.5,21.7,-3.11,3.69,-48.39,84.49,81.48,255.37,277.47,83.16,82.13,255.65,277.51,0.0
2018-09-09 08:32:00,88.67079,46.55998,1011.413,264.93,86.5,21.6,-2.97,4.06,-45.95,84.56,81.62,255.28,277.47,83.19,82.14,255.57,277.41,0.0
2018-09-09 08:32:00,88.67079,46.55998,1011.403,264.93,86.6,21.7,-2.72,4.15,-43.39,84.69,81.62,255.43,277.88,83.26,82.16,255.53,277.35,0.0
2018-09-09 08:32:00,88.67079,46.55996,1011.384,264.93,86.6,21.8,-2.74,4.32,-40.76,84.03,81.55,255.43,277.45,83.38,82.19,255.49,277.3,0.0
2018-09-09 08:32:00,88.67079,46.55995,1011.366,264.93,86.6,22.0,-2.7,4.53,-38.05,84.29,81.76,255.49,277.37,83.53,82.22,255.45,277.19,0.0
2018-09-09 08:32:00,88.67079,46.55994,1011.356,264.93,86.6,22.0,-2.53,4.71,-35.37,84.29,81.55,254.95,276.59,83.72,82.26,255.4,277.07,0.0
2018-09-09 08:32:00,88.67079,46.55993,1011.365,264.93,86.6,22.0,-2.52,4.88,-32.64,84.03,81.76,254.6,275.92,83.92,82.3,255.33,276.99,0.0
2018-09-09 08:32:00,88.67079,46.55992,1011.361,264.93,86.6,22.0,-2.6,5.1,-29.81,84.49,81.69,255.11,276.27,84.13,82.31,255.27,276.89,0.0
2018-09-09 08:32:00,88.67079,46.55991,1011.374,264.93,86.6,21.9,-2.11,5.22,-27.13,84.29,81.76,255.15,276.49,84.33,82.31,255.23,276.77,0.0
2018-09-09 08:32:00,88.6708,46.5599,1011.368,264.93,86.6,21.9,-1.73,5.49,-24.41,84.69,81.62,255.18,276.33,84.53,82.29,255.22,276.68,0.0
2018-09-09 08:32:00,88.6708,46.55988,1011.342,264.92,86.6,22.1,-1.51,5.76,-21.68,84.23,81.89,255.1,276.55,84.71,82.25,255.19,276.61,0.0
2018-09-09 08:32:00,88.6708,46.55987,1011.353,264.92,86.6,22.1,-1.05,5.69,-18.91,84.29,81.76,255.02,277.38,84.86,82.18,255.16,276.55,0.0
2018-09-09 08:32:00,88.6708,46.55986,1011.358,264.92,86.6,22.0,-0.59,5.93,-16.19,84.29,81.89,255.04,277.32,85.01,82.1,255.25,276.62,0.0
2018-09-09 08:32:00,88.6708,46.55985,1011.338,264.91,86.6,22.2,-0.48,5.97,-13.56,84.36,81.69,255.31,277.49,85.14,82.02,255.31,276.69,0.0
2018-09-09 08:32:00,88.6708,46.55984,1011.312,264.91,86.6,22.4,-0.41,6.11,-11.07,84.69,81.76,255.25,277.25,85.26,81.94,255.36,276.78,0.0
2018-09-09 08:32:00,88.6708,46.55982,1011.297,264.9,86.6,22.5,-0.4,6.25,-8.66,84.23,81.69,254.87,276.71,85.39,81.88,255.42,276.87,0.0
2018-09-09 08:32:00,88.6708,46.55981,1011.299,264.9,86.6,22.5,-0.53,6.32,-6.31,84.29,81.76,254.49,276.04,85.54,81.83,255.46,276.9,0.0
2018-09-09 08:32:00,88.6708,46.55983,1011.283,264.89,86.6,22.6,-0.81,6.62,-4.18,84.29,81.89,255.42,276.78,85.71,81.79,255.48,276.8,0.0
2018-09-09 08:32:00,88.6708,46.55986,1011.276,264.88,86.6,22.6,-0.55,6.57,-2.32,84.69,81.76,255.36,276.73,85.9,81.78,255.41,276.77,0.0
2018-09-09 08:32:00,88.6708,46.55988,1011.264,264.88,86.6,22.7,-0.59,6.68,-0.54,84.75,81.89,255.41,276.68,86.13,81.79,255.34,276.73,0.0
2018-09-09 08:32:00,88.6708,46.5599,1011.262,264.88,86.6,22.8,-0.55,6.81,1.16,84.75,81.76,255.52,276.67,86.39,81.8,255.29,276.67,0.0
2018-09-09 08:32:00,88.6708,46.55993,1011.272,264.87,86.6,22.7,-0.31,6.91,2.72,84.56,81.76,255.5,276.19,86.67,81.83,255.27,276.64,0.0
2018-09-09 08:32:00,88.67079,46.55995,1011.276,264.87,86.6,22.6,-0.02,7.01,4.14,84.62,81.69,255.35,275.43,86.98,81.86,255.26,276.63,0.0
2018-09-09 08:32:00,88.67079,46.55998,1011.242,264.87,86.6,22.9,-0.04,6.94,5.33,84.62,81.62,254.64,276.38,87.29,81.88,255.27,276.58,0.0
2018-09-09 08:32:00,88.67079,46.56,1011.233,264.87,86.6,23.0,-0.21,7.09,6.39,84.75,81.89,255.11,276.86,87.59,81.9,255.33,276.57,0.0
2018-09-09 08:32:00,88.67079,46.56002,1011.245,264.87,86.6,22.9,-0.13,7.07,7.29,85.08,81.76,255.55,277.05,87.88,81.91,255.37,276.52,0.0
2018-09-09 08:32:00,88.67079,46.56005,1011.245,264.88,86.6,22.9,-0.0,7.02,8.01,84.82,81.89,255.37,277.17,88.14,81.9,255.41,276.48,0.0
2018-09-09 08:32:00,88.67079,46.56007,1011.192,264.87,86.6,23.3,-0.07,7.14,8.6,85.08,81.82,254.86,276.56,88.35,81.89,255.49,276.53,0.0
2018-09-09 08:32:00,88.67079,46.56009,1011.222,264.88,86.6,23.1,0.08,7.09,9.06,85.01,81.96,255.85,277.23,88.51,81.86,255.58,276.68,0.0
2018-09-09 08:32:00,88.67079,46.56011,1011.201,264.88,86.6,23.2,0.23,6.87,9.34,85.41,81.69,255.59,277.23,88.61,81.83,255.72,276.76,0.0
2018-09-09 08:32:00,88.67079,46.56013,1011.191,264.88,86.6,23.3,0.27,6.76,9.63,85.6,81.76,255.41,276.73,88.65,81.79,255.79,276.85,0.0
2018-09-09 08:32:00,88.67079,46.56016,1011.19,264.89,86.6,23.3,0.21,6.63,9.78,85.41,81.69,255.36,276.13,88.63,81.75,255.79,276.93,0.0
2018-09-09 08:32:00,88.67079,46.56018,1011.172,264.88,86.6,23.4,0.03,6.34,9.59,85.54,81.76,255.53,276.5,88.56,81.71,255.79,277.0,0.0
