Date/Time,Latitude,Longitude,PPPP [hPa],TTT grad [K],RH [%],Height [m],Pitch [deg],Roll [deg],Yaw [deg],SWD [W/m**2] (raw),SWU [W/m**2] (raw),LWD [W/m**2] (raw),LWU [W/m**2] (raw),SWD [W/m**2] (corrected),SWU [W/m**2] (corrected),LWD [W/m**2] (corrected),LWU [W/m**2] (corrected),Flag
2018-09-09 09:08:00,88.67093,46.65668,868.087,265.54,88.3,1182.5,0.25,3.56,-83.33,64.07,58.88,225.83,279.28,63.79,58.39,226.44,279.05,0.0
2018-09-09 09:08:00,88.67093,46.65668,868.111,265.54,88.3,1182.3,0.33,3.56,-84.05,62.96,58.95,226.29,279.28,63.55,58.48,226.36,279.15,0.0
2018-09-09 09:08:00,88.67093,46.65668,868.139,265.54,88.3,1182.1,0.39,3.63,-84.79,64.53,58.74,226.21,278.83,63.22,58.61,226.23,279.19,0.0
2018-09-09 09:08:00,88.67093,46.65668,868.142,265.54,88.3,1182.0,0.47,3.67,-85.52,64.92,58.88,226.08,278.66,62.83,58.76,226.14,279.16,0.0
2018-09-09 09:08:00,88.67093,46.65668,868.142,265.54,88.3,1182.0,0.63,3.62,-86.24,64.66,59.02,226.38,279.34,62.42,58.91,226.08,279.09,0.0
2018-09-09 09:08:00,88.67093,46.65669,868.144,265.54,88.3,1182.0,0.7,3.83,-86.92,64.92,59.02,227.85,279.62,62.05,59.06,226.04,278.96,0.0
2018-09-09 09:08:00,88.67093,46.65669,868.134,265.54,88.3,1182.1,0.67,3.8,-87.56,63.48,58.95,226.33,279.27,61.75,59.19,226.06,278.79,0.0
2018-09-09 09:08:00,88.67093,46.65669,868.129,265.54,88.3,1182.2,0.71,3.84,-88.2,63.09,58.95,225.85,278.95,61.59,59.29,226.09,278.63,0.0
2018-09-09 09:08:00,88.67093,46.65669,868.141,265.54,88.3,1182.0,0.76,3.92,-88.85,64.33,58.95,225.85,278.73,61.58,59.35,226.14,278.52,0.0
2018-09-09 09:08:00,88.67093,46.65669,868.161,265.54,88.3,1181.9,0.79,3.94,-89.45,62.76,59.02,225.64,279.09,61.72,59.37,226.22,278.44,0.0
2018-09-09 09:08:00,88.67093,46.65669,868.135,265.54,88.3,1182.1,0.82,3.92,-90.0,63.48,59.02,225.82,278.62,62.0,59.35,226.3,278.38,0.0
2018-09-09 09:08:00,88.67093,46.65669,868.121,265.54,88.3,1182.2,0.68,3.98,-90.54,64.07,59.16,225.85,278.38,62.36,59.28,226.24,278.34,0.0
2018-09-09 09:08:00,88.67093,46.65669,868.114,265.54,88.3,1182.3,0.55,3.91,-91.01,64.92,59.09,226.22,278.58,62.75,59.19,226.41,278.27,0.0
2018-09-09 09:08:00,88.67093,46.65669,868.129,265.54,88.3,1182.1,0.41,3.88,-91.45,63.09,59.02,226.3,278.63,63.11,59.06,226.58,278.28,0.0
2018-09-09 09:08:00,88.67093,46.6567,868.152,265.53,88.3,1182.0,0.33,3.9,-91.83,62.17,58.88,226.69,278.41,63.38,58.93,226.68,278.36,0.0
2018-09-09 09:08:00,88.67093,46.6567,868.129,265.54,88.3,1182.2,0.33,3.84,-92.14,64.66,59.09,226.49,278.25,63.54,58.79,226.75,278.44,0.0
2018-09-09 09:08:00,88.67093,46.6567,868.11,265.53,88.3,1182.3,0.34,3.84,-92.37,63.74,58.88,226.38,278.32,63.57,58.65,226.83,278.5,0.0
2018-09-09 09:08:00,88.67093,46.6567,868.117,265.53,88.3,1182.3,0.45,3.81,-92.52,63.28,59.02,227.61,277.68,63.49,58.54,226.86,278.54,0.0
2018-09-09 09:08:00,88.67093,46.6567,868.119,265.53,88.3,1182.2,0.53,3.77,-92.59,63.48,58.95,226.92,277.6,63.35,58.45,226.84,278.53,0.0
2018-09-09 09:08:00,88.67093,46.6567,868.122,265.52,88.3,1182.2,0.62,3.77,-92.57,65.12,59.16,226.38,278.12,63.19,58.38,226.82,278.5,0.0
2018-09-09 09:08:00,88.67093,46.65671,868.145,265.52,88.3,1182.0,0.75,3.78,-92.49,63.94,59.09,226.68,277.92,63.06,58.36,226.81,278.47,0.0
2018-09-09 09:08:00,88.67093,46.65671,868.156,265.52,88.3,1181.9,0.81,3.73,-92.33,63.94,58.81,226.53,278.24,63.02,58.36,226.85,278.43,0.0
2018-09-09 09:08:00,88.67093,46.65672,868.14,265.52,88.3,1182.1,0.8,3.77,-92.09,62.5,58.95,226.47,277.85,63.07,58.4,226.89,278.38,0.0
2018-09-09 09:08:00,88.67093,46.65672,868.129,265.52,88.3,1182.1,0.81,3.75,-91.79,62.56,58.74,226.73,278.52,63.23,58.47,226.85,278.44,0.0
2018-09-09 09:08:00,88.67093,46.65672,868.133,265.52,88.3,1182.1,0.81,3.74,-91.41,63.61,58.95,226.83,278.59,63.46,58.55,226.85,278.5,0.0
2018-09-09 09:08:00,88.67093,46.65673,868.15,265.52,88.3,1182.0,0.78,3.75,-90.96,64.07,58.74,227.0,278.64,63.72,58.64,226.92,278.57,0.0
2018-09-09 09:08:00,88.67093,46.65673,868.161,265.52,88.3,1181.9,0.74,3.72,-90.47,63.15,58.88,227.39,278.82,63.95,58.74,227.01,278.67,0.0
2018-09-09 09:08:00,88.67093,46.65673,868.16,265.51,88.3,1181.9,0.69,3.68,-89.91,64.53,58.81,227.21,279.04,64.1,58.83,227.09,278.81,0.0
2018-09-09 09:08:00,88.67093,46.65674,868.167,265.51,88.3,1181.8,0.67,3.68,-89.27,63.09,58.95,227.18,278.91,64.12,58.9,227.13,278.91,0.0
2018-09-09 09:08:00,88.67093,46.65674,868.144,265.51,88.3,1182.0,0.67,3.68,-88.58,63.09,59.09,227.08,278.92,63.99,58.96,227.16,279.02,0.0
2018-09-09 09:08:00,88.67093,46.65674,868.119,265.51,88.3,1182.2,0.66,3.68,-87.86,64.53,58.74,227.0,278.88,63.7,58.99,227.16,279.15,0.0
2018-09-09 09:08:00,88.67093,46.65674,868.148,265.51,88.3,1182.0,0.64,3.7,-87.09,64.59,59.02,226.95,278.92,63.28,59.01,227.11,279.26,0.0
2018-09-09 09:08:00,88.67093,46.65675,868.157,265.51,88.3,1181.9,0.59,3.71,-86.29,63.55,58.67,227.14,278.92,62.78,59.02,226.98,279.32,0.0
2018-09-09 09:08:00,88.67093,46.65675,868.158,265.51,88.3,1181.9,0.65,3.7,-85.45,62.56,58.95,226.02,278.19,62.25,59.01,226.86,279.38,0.0
2018-09-09 09:08:00,88.67093,46.65675,868.151,265.51,88.4,1182.0,0.74,3.7,-84.57,63.55,58.95,226.31,278.37,61.76,59.01,226.77,279.4,0.0
2018-09-09 09:08:00,88.67093,46.65675,868.149,265.51,88.3,1182.0,0.75,3.71,-83.65,64.72,58.95,226.45,279.15,61.37,59.01,226.69,279.41,0.0
2018-09-09 09:08:00,88.67093,46.65676,868.163,265.52,88.3,1181.9,0.66,3.71,-82.71,63.35,59.09,226.34,279.63,61.13,59.01,226.58,279.43,0.0
2018-09-09 09:08:00,88.67093,46.65676,868.176,265.51,88.3,1181.7,0.57,3.74,-81.83,62.11,58.88,226.26,279.43,61.05,59.03,226.47,279.44,0.0
2018-09-09 09:08:00,88.67093,46.65676,868.173,265.51,88.4,1181.8,0.42,3.7,-80.88,63.74,58.67,226.38,279.33,61.15,59.05,226.37,279.45,0.0
2018-09-09 09:08:00,88.67093,46.65677,868.164,265.51,88.4,1181.8,0.38,3.71,-79.9,63.09,58.95,226.76,279.33,61.4,59.07,226.36,279.53,0.0
2018-09-09 09:08:00,88.67093,46.65677,868.161,265.51,88.4,1181.9,0.34,3.75,-78.9,63.42,58.95,226.76,279.12,61.76,59.09,226.38,279.57,0.0
2018-09-09 09:08:00,88.67093,46.65677,868.168,265.52,88.4,1181.8,0.29,3.75,-77.93,62.76,58.88,226.49,279.36,62.18,59.1,226.39,279.54,0.0
2018-09-09 09:08:00,88.67093,46.65677,868.18,265.52,88.4,1181.7,0.24,3.69,-77.02,63.61,58.88,225.97,279.67,62.61,59.09,226.38,279.47,0.0
2018-09-09 09:08:00,88.67093,46.65678,868.207,265.52,88.4,1181.5,0.27,3.78,-76.01,62.76,58.95,225.89,279.45,62.99,59.06,226.37,279.39,0.0
2018-09-09 09:08:00,88.67093,46.65678,868.191,265.52,88.4,1181.6,0.4,3.8,-75.05,63.09,59.02,226.04,279.43,63.28,59.01,226.42,279.4,0.0
2018-09-09 09:08:00,88.67093,46.65678,868.175,265.52,88.4,1181.8,0.54,3.88,-74.09,62.89,58.88,226.06,279.15,63.44,58.94,226.42,279.34,0.0
2018-09-09 09:08:00,88.67093,46.65679,868.172,265.52,88.4,1181.8,0.65,3.9,-73.16,64.27,59.16,226.25,278.96,63.49,58.85,226.35,279.2,0.0
2018-09-09 09:08:00,88.67093,46.65679,868.182,265.52,88.4,1181.7,0.72,3.82,-72.25,62.76,58.95,225.64,278.91,63.41,58.76,226.26,279.02,0.0
2018-09-09 09:08:00,88.67094,46.65679,868.217,265.52,88.4,1181.4,0.84,3.82,-71.44,63.35,58.95,226.12,278.51,63.24,58.68,226.23,278.88,0.0
2018-09-09 09:08:00,88.67094,46.6568,868.228,265.53,88.4,1181.3,0.82,3.73,-70.69,63.15,58.95,226.94,279.83,63.02,58.62,226.19,278.75,0.0
2018-09-09 09:08:00,88.67094,46.6568,868.214,265.53,88.4,1181.4,0.82,3.69,-69.99,63.28,58.74,226.83,278.9,62.79,58.58,226.17,278.66,0.0
2018-09-09 09:08:00,88.67094,46.6568,868.194,265.52,88.4,1181.6,0.84,3.64,-69.36,62.7,58.95,226.06,278.36,62.6,58.57,226.15,278.61,0.0
2018-09-09 09:08:00,88.67094,46.6568,868.201,265.53,88.4,1181.5,0.84,3.56,-68.81,63.48,58.81,225.8,278.18,62.49,58.6,226.16,278.63,0.0
2018-09-09 09:08:00,88.67094,46.65681,868.245,265.52,88.4,1181.1,0.82,3.45,-68.36,62.63,58.81,226.44,278.46,62.49,58.65,226.25,278.73,0.0
2018-09-09 09:08:00,88.67094,46.65681,868.205,265.52,88.4,1181.5,0.75,3.4,-68.01,63.42,58.88,226.58,278.41,62.6,58.72,226.3,278.78,0.0
2018-09-09 09:08:00,88.67094,46.65682,868.224,265.52,88.4,1181.3,0.84,3.35,-67.78,64.14,58.81,226.83,278.31,62.83,58.81,226.26,278.72,0.0
2018-09-09 09:08:00,88.67094,46.65682,868.242,265.52,88.4,1181.2,0.85,3.3,-67.64,62.11,59.02,226.37,278.62,63.16,58.89,226.26,278.69,0.0
2018-09-09 09:08:00,88.67094,46.65682,868.236,265.52,88.4,1181.2,0.8,3.18,-67.58,63.48,58.95,226.69,278.82,63.54,58.97,226.34,278.73,0.0
2018-09-09 09:08:00,88.67094,46.65682,868.212,265.52,88.4,1181.4,0.75,2.95,-67.56,63.55,58.88,227.03,279.24,63.95,59.03,226.43,278.77,0.0
2018-09-09 09:08:00,88.67094,46.65683,868.237,265.52,88.4,1181.2,0.77,2.88,-67.61,62.96,58.67,226.53,278.41,64.32,59.07,226.44,278.72,0.0
2018-09-09 09:08:00,88.67094,46.65683,868.253,265.51,88.4,1181.1,0.74,2.72,-67.79,62.17,59.09,226.36,278.5,64.63,59.08,226.48,278.73,0.0
2018-09-09 09:08:00,88.67094,46.65684,868.231,265.52,88.4,1181.3,0.8,2.59,-68.07,61.98,58.81,226.49,278.46,64.85,59.07,226.52,278.73,0.0
2018-09-09 09:08:00,88.67094,46.65684,868.215,265.52,88.4,1181.4,0.88,2.5,-68.41,64.27,59.02,226.83,278.86,64.96,59.04,226.57,278.74,0.0
2018-09-09 09:08:00,88.67094,46.65684,868.235,265.52,88.4,1181.2,0.9,2.4,-68.82,63.74,58.88,226.86,278.67,64.98,59.0,226.62,278.75,0.0
2018-09-09 09:08:00,88.67094,46.65684,868.266,265.52,88.4,1181.0,0.87,2.22,-69.27,64.27,58.88,226.54,278.43,64.92,58.97,226.65,278.73,0.0
2018-09-09 09:08:00,88.67094,46.65685,868.259,265.52,88.4,1181.0,0.95,2.21,-69.82,63.74,58.88,227.0,278.63,64.82,58.94,226.75,278.77,0.0
2018-09-09 09:08:00,88.67094,46.65685,868.27,265.52,88.4,1180.9,1.02,2.11,-70.44,62.76,58.88,227.29,279.17,64.72,58.93,226.82,278.84,0.0
2018-09-09 09:08:00,88.67094,46.65685,868.277,265.52,88.4,1180.9,1.05,2.03,-71.1,62.56,58.81,226.68,279.1,64.66,58.93,226.86,278.91,0.0
2018-09-09 09:08:00,88.67094,46.65686,868.273,265.52,88.4,1180.9,1.04,1.99,-71.85,64.46,59.02,226.96,279.01,64.67,58.95,226.87,278.98,0.0
2018-09-09 09:08:00,88.67094,46.65686,868.265,265.52,88.4,1181.0,1.02,1.95,-72.65,64.53,59.09,227.15,279.1,64.76,58.99,226.86,279.06,0.0
2018-09-09 09:08:00,88.67094,46.65686,868.272,265.51,88.4,1180.9,1.03,1.9,-73.5,63.15,58.81,227.18,278.91,64.94,59.04,226.84,279.16,0.0
2018-09-09 09:08:00,88.67094,46.65686,868.267,265.51,88.4,1181.0,1.03,1.97,-74.39,63.28,59.02,226.71,279.24,65.16,59.09,226.78,279.18,0.0
2018-09-09 09:08:00,88.67094,46.65687,868.28,265.51,88.4,1180.8,1.07,2.04,-75.34,62.44,58.74,226.41,279.4,65.41,59.14,226.7,279.17,0.0
2018-09-09 09:08:00,88.67094,46.65687,868.303,265.51,88.4,1180.6,1.12,2.09,-76.29,62.96,58.88,226.41,279.17,65.64,59.17,226.59,279.08,0.0
2018-09-09 09:08:00,88.67094,46.65687,868.32,265.52,88.4,1180.5,1.15,2.11,-77.26,64.14,58.95,226.25,279.56,65.8,59.19,226.44,278.96,0.0
2018-09-09 09:08:00,88.67094,46.65687,868.319,265.52,88.4,1180.5,1.09,2.11,-78.26,64.92,58.95,226.32,279.38,65.86,59.18,226.26,278.96,0.0
2018-09-09 09:08:00,88.67094,46.65688,868.3,265.52,88.4,1180.7,1.08,2.09,-79.3,64.07,59.02,226.44,279.49,65.8,59.16,226.08,278.97,0.0
2018-09-09 09:08:00,88.67094,46.65688,868.297,265.52,88.4,1180.7,1.03,2.13,-80.36,63.87,58.95,227.09,279.59,65.62,59.12,226.05,278.93,0.0
2018-09-09 09:08:00,88.67094,46.65688,868.297,265.52,88.4,1180.7,1.05,2.15,-81.4,63.87,58.88,226.64,278.9,65.33,59.07,226.04,278.91,0.0
2018-09-09 09:08:00,88.67094,46.65688,868.291,265.52,88.4,1180.8,1.12,2.15,-82.47,64.14,58.95,226.41,278.41,64.97,59.02,226.04,278.92,0.0
2018-09-09 09:08:00,88.67094,46.65689,868.292,265.52,88.4,1180.7,1.13,2.19,-83.52,63.61,59.02,225.92,279.58,64.58,58.97,226.06,278.92,0.0
2018-09-09 09:08:00,88.67093,46.65689,868.305,265.51,88.4,1180.6,1.16,2.18,-84.54,64.66,59.09,225.66,279.36,64.2,58.93,226.1,278.82,0.0
2018-09-09 09:08:00,88.67093,46.6569,868.313,265.52,88.4,1180.6,1.27,2.28,-85.52,64.33,59.09,226.74,278.31,63.87,58.91,226.18,278.8,0.0
2018-09-09 09:08:00,88.67093,46.6569,868.311,265.52,88.4,1180.6,1.25,2.3,-86.5,63.61,59.09,226.4,278.5,63.62,58.9,226.23,278.79,0.0
2018-09-09 09:08:00,88.67093,46.6569,868.311,265.52,88.4,1180.6,1.17,2.3,-87.43,63.55,58.74,225.73,278.72,63.46,58.89,226.25,278.81,0.0
2018-09-09 09:08:00,88.67093,46.65691,868.334,265.52,88.4,1180.4,1.15,2.38,-88.32,63.81,58.67,225.74,278.5,63.4,58.89,226.26,278.81,0.0
2018-09-09 09:08:00,88.67093,46.65691,868.355,265.51,88.4,1180.2,1.08,2.56,-89.15,64.27,58.81,225.6,277.27,63.42,58.88,226.26,278.65,0.0
2018-09-09 09:08:00,88.67093,46.65692,868.381,265.51,88.4,1180.0,1.05,2.55,-89.93,62.96,59.09,226.12,278.43,63.51,58.86,226.24,278.52,0.0
2018-09-09 09:08:00,88.67093,46.65692,868.36,265.51,88.4,1180.2,0.88,2.57,-90.64,64.4,59.02,226.37,278.76,63.65,58.82,226.15,278.46,0.0
2018-09-09 09:08:00,88.67093,46.65692,868.326,265.51,88.4,1180.5,0.62,2.56,-91.3,63.87,59.09,226.47,278.9,63.81,58.75,226.09,278.41,0.0
2018-09-09 09:08:00,88.67093,46.65692,868.33,265.52,88.4,1180.4,0.41,2.52,-91.89,64.86,58.95,226.34,278.93,63.98,58.68,226.08,278.36,0.0
2018-09-09 09:08:00,88.67093,46.65692,868.329,265.51,88.4,1180.4,0.38,2.59,-92.42,63.22,58.88,226.31,278.47,64.14,58.59,226.08,278.32,0.0
2018-09-09 09:08:00,88.67093,46.65692,868.336,265.51,88.4,1180.4,0.28,2.59,-92.83,63.94,59.02,226.28,278.84,64.29,58.5,226.1,278.44,0.0
2018-09-09 09:08:00,88.67093,46.65692,868.339,265.51,88.4,1180.3,0.4,2.52,-93.16,64.0,58.95,226.38,278.26,64.41,58.41,226.1,278.49,0.0
2018-09-09 09:08:00,88.67093,46.65692,868.341,265.51,88.4,1180.3,0.63,2.43,-93.38,63.68,58.81,226.57,278.72,64.5,58.33,226.14,278.57,0.0
2018-09-09 09:08:00,88.67093,46.65693,868.348,265.51,88.4,1180.3,0.85,2.39,-93.5,65.05,58.81,226.74,278.41,64.54,58.28,226.22,278.67,0.0
2018-09-09 09:08:00,88.67093,46.65693,868.36,265.51,88.4,1180.2,0.99,2.39,-93.51,63.42,58.95,226.25,278.23,64.53,58.25,226.35,278.75,0.0
2018-09-09 09:08:00,88.67093,46.65693,868.368,265.5,88.4,1180.1,1.12,2.36,-93.43,63.15,58.81,226.5,278.65,64.45,58.25,226.47,278.82,0.0
2018-09-09 09:08:00,88.67093,46.65693,868.342,265.49,88.4,1180.3,1.23,2.33,-93.28,64.27,58.88,226.62,278.73,64.29,58.26,226.76,278.91,0.0
2018-09-09 09:08:00,88.67093,46.65693,868.345,265.49,88.4,1180.3,1.26,2.33,-93.04,63.48,58.67,226.59,279.2,64.07,58.29,226.96,278.9,0.0
2018-09-09 09:08:00,88.67093,46.65693,868.372,265.5,88.4,1180.1,1.18,2.31,-92.72,64.79,58.67,226.9,279.11,63.8,58.33,227.04,278.82,0.0
2018-09-09 09:08:00,88.67093,46.65693,868.383,265.5,88.4,1180.0,1.01,2.26,-92.32,63.35,58.81,226.7,279.22,63.52,58.37,227.08,278.72,0.0
2018-09-09 09:08:00,88.67093,46.65693,868.371,265.49,88.4,1180.1,0.87,2.34,-91.81,64.53,58.74,227.28,279.03,63.25,58.41,227.17,278.58,0.0
2018-09-09 09:08:00,88.67093,46.65693,868.375,265.49,88.4,1180.0,0.81,2.33,-91.23,65.58,59.16,229.14,279.53,63.05,58.45,227.24,278.55,0.0
2018-09-09 09:08:00,88.67093,46.65693,868.362,265.48,88.4,1180.1,0.82,2.46,-90.57,63.35,58.67,228.42,278.66,62.97,58.48,227.35,278.49,0.0
2018-09-09 09:08:00,88.67093,46.65692,868.364,265.48,88.4,1180.1,0.89,2.55,-89.86,63.15,58.54,227.17,277.94,63.04,58.51,227.47,278.41,0.0
2018-09-09 09:08:00,88.67093,46.65692,868.389,265.49,88.4,1179.9,0.97,2.55,-89.05,64.33,58.81,226.75,277.66,63.26,58.55,227.6,278.37,0.0
2018-09-09 09:08:00,88.67093,46.65692,868.394,265.49,88.4,1179.9,0.97,2.53,-88.16,63.28,58.67,227.43,276.78,63.64,58.59,227.74,278.37,0.0
2018-09-09 09:08:00,88.67093,46.65692,868.397,265.48,88.4,1179.8,1.03,2.59,-87.24,63.55,58.95,227.22,278.4,64.12,58.65,227.79,278.31,0.0
2018-09-09 09:08:00,88.67093,46.65692,868.368,265.48,88.4,1180.1,1.21,2.55,-86.3,63.55,58.81,227.83,277.91,64.64,58.72,227.66,278.21,0.0
2018-09-09 09:08:00,88.67093,46.65692,868.377,265.48,88.4,1180.0,1.24,2.56,-85.36,63.74,58.74,227.94,278.32,65.12,58.8,227.57,278.14,0.0
2018-09-09 09:08:00,88.67093,46.65692,868.411,265.49,88.4,1179.7,1.21,2.56,-84.36,64.46,58.54,228.47,278.59,65.47,58.88,227.57,278.12,0.0
2018-09-09 09:08:00,88.67093,46.65692,868.414,265.49,88.4,1179.7,1.25,2.47,-83.32,63.87,58.47,228.75,278.49,65.62,58.96,227.57,278.13,0.0
2018-09-09 09:08:00,88.67093,46.65692,868.456,265.49,88.4,1179.3,1.2,2.46,-82.23,63.48,58.88,227.58,277.83,65.54,59.02,227.51,278.17,0.0
2018-09-09 09:08:00,88.67093,46.65692,868.42,265.49,88.4,1179.6,1.07,2.46,-81.17,64.27,58.81,227.59,278.18,65.21,59.06,227.47,278.1,0.0
2018-09-09 09:08:00,88.67093,46.65692,868.411,265.49,88.4,1179.7,1.08,2.45,-80.06,64.59,59.02,227.61,277.95,64.68,59.07,227.44,278.04,0.0
2018-09-09 09:08:00,88.67093,46.65692,868.428,265.49,88.4,1179.6,1.03,2.43,-78.89,65.51,58.74,227.76,278.08,64.02,59.06,227.43,277.98,0.0
2018-09-09 09:08:00,88.67093,46.65692,868.445,265.49,88.4,1179.4,0.92,2.41,-77.67,63.48,58.81,227.45,278.28,63.34,59.02,227.32,277.93,0.0
2018-09-09 09:08:00,88.67093,46.65692,868.416,265.49,88.4,1179.7,0.99,2.36,-76.47,64.53,58.67,227.43,278.13,62.75,58.97,227.04,277.91,0.0
2018-09-09 09:08:00,88.67093,46.65692,868.409,265.49,88.5,1179.7,1.07,2.41,-75.32,63.74,58.88,227.16,278.04,62.37,58.92,226.96,278.02,0.0
2018-09-09 09:08:00,88.67093,46.65692,868.406,265.49,88.5,1179.8,1.08,2.43,-74.13,63.48,58.81,227.39,277.66,62.27,58.87,226.79,278.01,0.0
2018-09-09 09:08:00,88.67093,46.65692,868.417,265.49,88.5,1179.7,1.23,2.42,-72.96,64.07,58.95,227.32,277.36,62.49,58.83,226.6,278.02,0.0
2018-09-09 09:08:00,88.67093,46.65692,868.436,265.5,88.5,1179.5,1.49,2.42,-71.79,64.14,58.81,226.6,278.07,63.01,58.81,226.41,277.99,0.0
2018-09-09 09:08:00,88.67093,46.65692,868.449,265.5,88.5,1179.4,1.77,2.42,-70.62,63.87,58.67,224.97,277.91,63.77,58.8,226.17,277.89,0.0
2018-09-09 09:08:00,88.67093,46.65692,868.456,265.5,88.5,1179.3,1.94,2.53,-69.46,61.52,58.74,226.05,278.52,64.64,58.82,225.96,277.84,0.0
2018-09-09 09:08:00,88.67093,46.65692,868.445,265.49,88.5,1179.4,2.31,2.56,-68.43,64.46,58.67,224.94,276.97,65.5,58.84,225.71,277.69,0.0
2018-09-09 09:08:00,88.67093,46.65692,868.453,265.49,88.5,1179.4,2.44,2.5,-67.44,64.0,58.88,224.86,277.19,66.21,58.85,225.45,277.61,0.0
2018-09-09 09:08:00,88.67093,46.65692,868.472,265.5,88.5,1179.2,2.36,2.39,-66.53,65.71,58.74,225.53,277.26,66.64,58.86,225.31,277.48,0.0
2018-09-09 09:08:00,88.67093,46.65692,868.465,265.5,88.5,1179.2,2.26,2.32,-65.71,62.7,58.95,225.38,276.98,66.73,58.85,225.38,277.3,0.0
2018-09-09 09:08:00,88.67093,46.65692,868.455,265.5,88.5,1179.3,2.25,2.35,-65.0,64.53,58.81,225.51,277.56,66.46,58.82,225.63,277.16,0.0
2018-09-09 09:08:00,88.67093,46.65692,868.479,265.5,88.5,1179.1,2.01,2.33,-64.42,64.66,58.95,225.46,277.09,65.85,58.76,225.79,276.95,0.0
2018-09-09 09:08:00,88.67093,46.65692,868.476,265.5,88.5,1179.2,1.75,2.28,-63.95,64.66,58.67,225.56,277.6,65.01,58.69,226.1,276.95,0.0
2018-09-09 09:08:00,88.67093,46.65692,868.466,265.5,88.5,1179.2,1.62,2.21,-63.57,64.14,58.74,226.93,277.21,64.07,58.61,226.42,277.01,0.0
2018-09-09 09:08:00,88.67093,46.65692,868.482,265.5,88.5,1179.1,1.6,2.14,-63.27,64.53,58.88,228.0,276.85,63.16,58.54,226.69,277.05,0.0
2018-09-09 09:08:00,88.67093,46.65692,868.518,265.5,88.5,1178.8,1.57,2.06,-63.06,65.12,58.74,227.97,277.33,62.43,58.48,226.92,277.1,0.0
2018-09-09 09:08:00,88.67093,46.65692,868.518,265.5,88.5,1178.8,1.63,2.05,-62.97,63.81,59.02,227.68,276.76,62.01,58.45,227.22,277.16,0.0
2018-09-09 09:08:00,88.67093,46.65692,868.525,265.5,88.5,1178.7,1.68,2.09,-63.0,64.59,58.74,227.9,277.48,61.94,58.44,227.53,277.3,0.0
2018-09-09 09:08:00,88.67093,46.65692,868.525,265.5,88.5,1178.7,1.71,2.06,-63.13,63.02,58.74,227.62,277.86,62.25,58.48,227.78,277.37,0.0
2018-09-09 09:08:00,88.67093,46.65692,868.509,265.5,88.5,1178.9,1.73,2.0,-63.39,63.55,58.47,226.63,276.99,62.9,58.55,227.86,277.44,0.0
2018-09-09 09:08:00,88.67093,46.65692,868.476,265.5,88.5,1179.2,1.75,1.98,-63.74,63.28,58.67,226.37,276.78,63.79,58.65,227.81,277.56,0.0
2018-09-09 09:08:00,88.67093,46.65692,868.492,265.5,88.5,1179.0,1.76,1.87,-64.2,63.87,58.74,227.77,277.24,64.82,58.78,227.77,277.57,0.0
2018-09-09 09:08:00,88.67093,46.65692,868.512,265.5,88.5,1178.8,1.72,1.9,-64.78,64.66,58.81,227.98,277.65,65.84,58.92,227.71,277.65,0.0
2018-09-09 09:08:00,88.67093,46.65692,868.527,265.49,88.5,1178.7,1.73,1.92,-65.41,62.76,58.88,228.02,277.18,66.74,59.08,227.64,277.65,0.0
2018-09-09 09:08:00,88.67093,46.65692,868.543,265.49,88.5,1178.6,1.76,1.9,-66.13,64.72,58.67,228.16,277.71,67.41,59.23,227.6,277.67,0.0
2018-09-09 09:08:00,88.67093,46.65692,868.563,265.49,88.5,1178.4,1.8,1.87,-66.93,64.07,58.88,228.19,277.94,67.79,59.37,227.59,277.75,0.0
2018-09-09 09:08:00,88.67093,46.65692,868.586,265.49,88.5,1178.2,1.77,1.84,-67.81,64.92,58.67,228.45,277.39,67.87,59.49,227.61,277.84,0.0
2018-09-09 09:08:00,88.67093,46.65692,868.57,265.49,88.5,1178.3,1.77,1.85,-68.78,65.31,58.95,227.83,277.62,67.66,59.6,227.63,277.96,0.0
2018-09-09 09:08:00,88.67093,46.65692,868.562,265.49,88.5,1178.4,1.72,1.87,-69.81,64.4,58.88,227.82,277.56,67.22,59.67,227.63,278.01,0.0
2018-09-09 09:08:00,88.67093,46.65692,868.58,265.49,88.5,1178.3,1.62,1.84,-70.9,65.44,58.74,227.87,277.64,66.62,59.72,227.62,278.12,0.0
2018-09-09 09:08:00,88.67093,46.65692,868.6,265.49,88.5,1178.1,1.52,1.79,-72.07,64.53,58.74,226.99,277.9,65.95,59.74,227.59,278.21,0.0
2018-09-09 09:08:00,88.67093,46.65692,868.559,265.48,88.5,1178.4,1.51,1.82,-73.26,63.61,58.88,226.45,277.73,65.3,59.72,227.51,278.26,0.0
2018-09-09 09:08:00,88.67093,46.65693,868.549,265.48,88.5,1178.5,1.53,1.81,-74.49,63.87,59.09,227.72,278.46,64.72,59.68,227.37,278.35,0.0
2018-09-09 09:08:00,88.67093,46.65693,868.55,265.48,88.5,1178.5,1.49,1.87,-75.79,65.77,58.95,227.31,277.92,64.25,59.61,227.28,278.29,0.0
2018-09-09 09:08:00,88.67093,46.65693,868.564,265.48,88.5,1178.4,1.43,1.91,-77.09,64.2,59.16,227.47,278.31,63.92,59.51,227.19,278.25,0.0
2018-09-09 09:08:00,88.67093,46.65693,868.572,265.48,88.5,1178.3,1.35,1.94,-78.39,64.66,58.88,227.4,278.51,63.72,59.4,227.08,278.15,0.0
2018-09-09 09:08:00,88.67093,46.65693,868.564,265.48,88.5,1178.4,1.32,1.98,-79.68,65.12,59.09,226.9,278.35,63.61,59.27,227.02,278.03,0.0
2018-09-09 09:08:00,88.67093,46.65694,868.566,265.48,88.5,1178.4,1.47,2.0,-81.04,64.79,58.95,226.9,278.52,63.57,59.13,227.03,277.99,0.0
2018-09-09 09:08:00,88.67093,46.65694,868.578,265.48,88.5,1178.3,1.48,2.06,-82.33,64.66,58.95,227.13,277.06,63.55,58.99,226.95,277.79,0.0
2018-09-09 09:08:00,88.67093,46.65694,868.573,265.48,88.5,1178.3,1.56,2.07,-83.61,64.33,59.02,227.11,277.73,63.5,58.86,226.96,277.83,0.0
2018-09-09 09:08:00,88.67093,46.65694,868.566,265.48,88.5,1178.4,1.62,2.04,-84.88,64.72,59.09,227.16,277.59,63.39,58.73,226.98,277.89,0.0
2018-09-09 09:08:00,88.67093,46.65694,868.568,265.48,88.5,1178.4,1.63,2.07,-86.13,63.35,58.95,226.85,277.93,63.2,58.62,226.97,277.85,0.0
2018-09-09 09:08:00,88.67093,46.65695,868.59,265.48,88.5,1178.2,1.65,2.23,-87.36,63.28,58.88,226.69,277.67,62.94,58.51,227.03,277.86,0.0
2018-09-09 09:08:00,88.67093,46.65695,868.576,265.48,88.5,1178.3,1.63,2.24,-88.53,65.12,58.95,226.79,276.62,62.6,58.42,227.09,277.77,0.0
2018-09-09 09:08:00,88.67093,46.65695,868.564,265.48,88.5,1178.4,1.61,2.31,-89.63,65.18,58.95,227.68,278.88,62.23,58.35,227.11,277.82,0.0
2018-09-09 09:08:00,88.67093,46.65695,868.575,265.48,88.5,1178.3,1.54,2.33,-90.66,64.59,58.95,227.24,278.7,61.86,58.29,227.17,277.79,0.0
2018-09-09 09:08:00,88.67093,46.65695,868.609,265.47,88.5,1178.0,1.38,2.33,-91.61,64.14,58.74,226.69,277.5,61.55,58.24,227.24,277.75,0.0
2018-09-09 09:08:00,88.67093,46.65696,868.608,265.48,88.5,1178.0,1.14,2.36,-92.46,64.4,58.95,227.12,277.56,61.35,58.22,227.3,277.69,0.0
2018-09-09 09:08:00,88.67093,46.65696,868.611,265.48,88.5,1178.0,0.93,2.32,-93.25,64.66,58.95,227.06,276.89,61.3,58.21,227.36,277.56,0.0
2018-09-09 09:08:00,88.67093,46.65696,868.616,265.48,88.5,1178.0,0.93,2.21,-93.89,63.68,58.88,227.22,277.1,61.45,58.23,227.4,277.57,0.0
2018-09-09 09:08:00,88.67093,46.65696,868.619,265.47,88.5,1177.9,0.95,2.16,-94.39,62.37,58.88,227.5,276.86,61.83,58.27,227.3,277.35,0.0
2018-09-09 09:08:00,88.67093,46.65696,868.622,265.47,88.5,1177.9,1.11,2.14,-94.8,63.68,58.74,227.88,276.81,62.44,58.32,227.25,277.13,0.0
2018-09-09 09:08:00,88.67093,46.65696,868.623,265.47,88.5,1177.9,1.39,2.15,-95.1,64.46,58.74,227.78,277.0,63.24,58.39,227.29,277.03,0.0
2018-09-09 09:08:00,88.67093,46.65696,868.608,265.46,88.5,1178.0,1.57,2.12,-95.26,63.48,58.74,227.78,276.72,64.21,58.46,227.28,276.91,0.0
2018-09-09 09:08:00,88.67093,46.65697,868.604,265.46,88.5,1178.1,1.61,2.1,-95.26,63.48,58.74,227.42,277.73,65.26,58.54,227.3,276.93,0.0
2018-09-09 09:08:00,88.67093,46.65697,868.615,265.47,88.5,1178.0,1.62,2.07,-95.16,62.96,58.74,226.71,277.24,66.31,58.59,227.31,276.9,0.0
2018-09-09 09:08:00,88.67093,46.65697,868.629,265.47,88.5,1177.8,1.54,2.05,-94.96,65.51,58.81,227.24,277.76,67.26,58.63,227.26,276.96,0.0
2018-09-09 09:08:00,88.67093,46.65697,868.641,265.46,88.5,1177.7,1.41,2.06,-94.67,63.94,58.74,227.87,278.13,68.02,58.64,227.24,277.05,0.0
2018-09-09 09:08:00,88.67093,46.65697,868.647,265.46,88.5,1177.7,1.3,2.11,-94.28,64.53,58.95,227.8,277.39,68.5,58.63,227.26,277.13,0.0
2018-09-09 09:08:00,88.67093,46.65696,868.654,265.46,88.5,1177.6,1.32,2.08,-93.85,63.55,58.74,227.82,278.02,68.64,58.59,227.27,277.29,0.0
2018-09-09 09:08:00,88.67093,46.65696,868.633,265.45,88.5,1177.8,1.2,2.02,-93.24,64.07,58.74,227.87,277.54,68.42,58.53,227.36,277.36,0.0
2018-09-09 09:08:00,88.67093,46.65696,868.63,265.45,88.5,1177.8,1.15,2.08,-92.53,64.92,58.88,227.71,277.94,67.85,58.47,227.44,277.5,0.0
2018-09-09 09:08:00,88.67093,46.65696,868.644,265.45,88.5,1177.7,1.18,2.12,-91.75,64.66,58.54,227.86,277.8,66.96,58.41,227.43,277.63,0.0
2018-09-09 09:08:00,88.67093,46.65696,868.656,265.45,88.5,1177.6,1.22,2.06,-90.91,65.77,58.88,228.17,277.3,65.82,58.36,227.37,277.73,0.0
2018-09-09 09:08:00,88.67094,46.65696,868.658,265.45,88.5,1177.6,1.19,2.05,-89.96,65.12,58.88,227.75,277.98,64.55,58.34,227.38,277.9,0.0
2018-09-09 09:08:00,88.67094,46.65696,868.666,265.45,88.5,1177.5,1.21,2.04,-88.93,65.58,58.74,228.55,276.87,63.25,58.34,227.35,277.94,0.0
2018-09-09 09:08:00,88.67094,46.65696,868.655,265.45,88.5,1177.6,1.25,2.03,-87.86,63.55,58.6,227.26,277.55,62.02,58.38,227.3,278.03,0.0
2018-09-09 09:08:00,88.67094,46.65696,868.657,265.45,88.5,1177.6,1.27,2.1,-86.74,63.61,58.54,226.2,277.81,60.97,58.44,227.2,278.07,0.0
2018-09-09 09:08:00,88.67094,46.65696,868.678,265.45,88.6,1177.4,1.29,2.16,-85.59,64.4,58.6,226.68,277.31,60.17,58.51,227.04,278.1,0.0
2018-09-09 09:08:00,88.67094,46.65696,868.641,265.45,88.6,1177.7,1.32,2.03,-84.43,65.12,58.74,227.0,278.44,59.67,58.59,226.89,278.16,0.0
2018-09-09 09:08:00,88.67094,46.65695,868.672,265.45,88.6,1177.5,1.23,2.05,-83.25,64.92,58.88,226.83,277.98,59.5,58.66,226.79,278.1,0.0
2018-09-09 09:08:00,88.67094,46.65695,868.683,265.44,88.6,1177.4,1.07,2.09,-82.02,64.53,58.6,226.7,278.26,59.62,58.73,226.64,278.13,0.0
2018-09-09 09:08:00,88.67094,46.65695,868.689,265.44,88.6,1177.3,1.02,2.05,-80.81,63.35,58.6,226.12,278.15,60.02,58.77,226.6,278.1,0.0
2018-09-09 09:08:00,88.67094,46.65694,868.696,265.45,88.6,1177.3,1.05,1.98,-79.54,62.37,58.67,226.18,278.07,60.62,58.8,226.65,278.06,0.0
2018-09-09 09:08:00,88.67094,46.65694,868.701,265.44,88.6,1177.2,1.09,1.97,-78.19,62.37,58.74,226.7,278.29,61.37,58.82,226.71,278.08,0.0
2018-09-09 09:08:00,88.67094,46.65694,868.71,265.45,88.6,1177.1,1.15,1.89,-76.83,64.07,58.81,226.97,277.37,62.18,58.83,226.73,278.03,0.0
2018-09-09 09:08:00,88.67094,46.65694,868.721,265.45,88.6,1177.0,1.27,1.86,-75.46,64.46,58.74,227.15,277.75,63.01,58.84,226.78,278.09,0.0
2018-09-09 09:08:00,88.67094,46.65694,868.724,265.45,88.6,1177.0,1.26,1.87,-74.14,62.83,58.88,226.66,277.83,63.78,58.86,226.84,278.07,0.0
2018-09-09 09:08:00,88.67094,46.65693,868.72,265.45,88.6,1177.1,1.18,1.86,-72.79,65.12,58.67,226.49,277.65,64.46,58.88,226.96,278.09,0.0
2018-09-09 09:08:00,88.67094,46.65693,868.714,265.45,88.6,1177.1,1.09,1.82,-71.43,63.35,58.54,226.63,278.03,65.01,58.92,227.09,278.11,0.0
2018-09-09 09:08:00,88.67094,46.65693,868.726,265.46,88.6,1177.0,0.96,1.75,-70.07,63.42,58.6,226.86,277.91,65.41,58.95,227.15,278.03,0.0
2018-09-09 09:08:00,88.67094,46.65693,868.75,265.45,88.6,1176.8,0.89,1.89,-68.83,64.27,58.95,226.5,278.33,65.66,58.99,227.15,278.06,0.0
2018-09-09 09:08:00,88.67094,46.65692,868.74,265.46,88.6,1176.9,0.77,1.85,-67.59,63.94,58.47,226.45,277.91,65.75,59.01,227.17,277.99,0.0
2018-09-09 09:08:00,88.67094,46.65692,868.738,265.46,88.6,1176.9,0.64,1.85,-66.37,63.68,58.81,226.76,277.53,65.7,59.02,227.18,277.93,0.0
2018-09-09 09:08:00,88.67094,46.65691,868.756,265.46,88.6,1176.7,0.56,1.9,-65.2,64.0,58.74,226.85,277.72,65.54,59.01,227.18,277.84,0.0
2018-09-09 09:08:00,88.67094,46.6569,868.748,265.46,88.6,1176.8,0.55,1.9,-64.07,63.28,58.88,227.0,277.04,65.29,58.97,227.17,277.69,0.0
2018-09-09 09:08:00,88.67094,46.6569,868.762,265.46,88.6,1176.7,0.55,1.84,-63.03,64.07,58.88,226.99,277.68,64.99,58.91,227.18,277.6,0.0
2018-09-09 09:08:00,88.67094,46.65689,868.769,265.46,88.6,1176.6,0.6,1.88,-62.08,64.99,58.74,227.64,276.72,64.68,58.84,227.1,277.35,0.0
2018-09-09 09:08:00,88.67094,46.65689,868.777,265.46,88.6,1176.6,0.63,1.87,-61.26,64.46,58.88,227.61,276.97,64.39,58.77,227.1,277.23,0.0
2018-09-09 09:08:00,88.67094,46.65688,868.788,265.46,88.6,1176.5,0.59,1.8,-60.53,63.28,58.74,227.29,277.18,64.16,58.71,227.14,277.16,0.0
2018-09-09 09:08:00,88.67094,46.65687,868.8,265.46,88.6,1176.4,0.51,1.76,-59.91,64.27,58.74,227.37,276.83,64.03,58.68,227.17,277.08,0.0
2018-09-09 09:08:00,88.67094,46.65687,868.811,265.46,88.6,1176.3,0.54,1.83,-59.43,64.33,58.81,227.11,277.51,64.01,58.67,227.25,277.13,0.0
2018-09-09 09:08:00,88.67094,46.65686,868.802,265.46,88.6,1176.3,0.51,1.68,-59.08,63.94,58.6,226.05,275.93,64.11,58.7,227.33,277.11,0.0
2018-09-09 09:08:00,88.67094,46.65686,868.789,265.46,88.6,1176.5,0.5,1.65,-58.85,64.46,58.81,226.43,277.24,64.34,58.77,227.32,277.19,0.0
2018-09-09 09:08:00,88.67094,46.65685,868.771,265.46,88.6,1176.6,0.56,1.65,-58.71,63.09,58.6,227.33,277.72,64.66,58.85,227.32,277.25,0.0
2018-09-09 09:08:00,88.67094,46.65685,868.754,265.46,88.6,1176.8,0.66,1.62,-58.66,64.86,58.74,227.39,277.61,65.04,58.95,227.34,277.28,0.0
2018-09-09 09:08:00,88.67094,46.65684,868.756,265.46,88.6,1176.7,0.68,1.53,-58.74,63.42,58.67,227.67,278.41,65.45,59.04,227.36,277.36,0.0
2018-09-09 09:08:00,88.67094,46.65684,868.776,265.45,88.6,1176.6,0.74,1.4,-58.98,64.33,58.95,227.55,277.21,65.83,59.12,227.35,277.33,0.0
2018-09-09 09:08:00,88.67094,46.65683,868.797,265.46,88.6,1176.4,0.69,1.37,-59.32,63.81,58.81,227.46,278.18,66.17,59.17,227.44,277.47,0.0
2018-09-09 09:08:00,88.67094,46.65683,868.82,265.46,88.6,1176.2,0.71,1.32,-59.77,64.53,58.88,227.6,277.6,66.41,59.18,227.46,277.51,0.0
2018-09-09 09:08:00,88.67094,46.65682,868.83,265.46,88.6,1176.1,0.85,1.27,-60.35,64.33,58.74,228.16,277.75,66.54,59.16,227.46,277.52,0.0
2018-09-09 09:08:00,88.67094,46.65682,868.801,265.46,88.6,1176.4,0.93,1.28,-61.0,63.74,58.81,227.91,278.11,66.56,59.12,227.48,277.64,0.0
2018-09-09 09:08:00,88.67094,46.65681,868.802,265.45,88.6,1176.3,0.83,1.27,-61.68,64.2,58.88,227.52,277.22,66.46,59.05,227.5,277.87,0.0
2018-09-09 09:08:00,88.67094,46.65681,868.81,265.45,88.6,1176.3,0.9,1.13,-62.54,65.31,58.88,227.55,277.81,66.27,58.99,227.5,278.06,0.0
2018-09-09 09:08:00,88.67094,46.6568,868.807,265.45,88.6,1176.3,0.93,1.26,-63.46,65.12,58.74,227.17,277.86,66.0,58.93,227.48,278.13,0.0
2018-09-09 09:08:00,88.67094,46.6568,868.804,265.45,88.6,1176.3,0.92,1.27,-64.46,65.58,58.88,227.34,278.16,65.68,58.91,227.45,278.24,0.0
2018-09-09 09:08:00,88.67094,46.65679,868.811,265.45,88.6,1176.3,0.92,1.08,-65.5,64.07,58.88,227.36,278.98,65.31,58.91,227.38,278.43,0.0
2018-09-09 09:08:00,88.67094,46.65679,868.814,265.45,88.6,1176.2,0.97,1.18,-66.63,65.25,59.02,227.45,280.78,64.93,58.96,227.24,278.61,0.0
2018-09-09 09:08:00,88.67094,46.65678,868.805,265.44,88.6,1176.3,0.89,1.08,-67.78,63.48,58.54,226.92,279.05,64.53,59.04,227.19,278.88,0.0
2018-09-09 09:08:00,88.67094,46.65678,868.804,265.45,88.6,1176.3,0.96,1.05,-69.02,63.48,58.67,226.14,277.8,64.12,59.15,227.12,279.02,0.0
2018-09-09 09:08:00,88.67094,46.65677,868.803,265.45,88.6,1176.3,1.06,1.12,-70.32,64.4,58.88,226.17,277.7,63.7,59.27,227.05,279.11,0.0
2018-09-09 09:08:00,88.67094,46.65676,868.801,265.45,88.6,1176.4,1.11,1.22,-71.64,64.59,58.88,226.61,278.26,63.28,59.38,226.96,279.12,0.0
2018-09-09 09:08:00,88.67094,46.65676,868.822,265.44,88.6,1176.2,1.06,1.15,-73.0,65.71,59.02,226.11,278.82,62.85,59.46,226.85,279.0,0.0
2018-09-09 09:08:00,88.67094,46.65676,868.859,265.45,88.6,1175.9,1.17,1.3,-74.37,64.14,58.88,227.65,279.35,62.45,59.49,226.75,278.76,0.0
2018-09-09 09:08:00,88.67094,46.65675,868.861,265.45,88.6,1175.8,1.22,1.29,-75.79,65.71,59.09,227.37,278.98,62.09,59.46,226.69,278.57,0.0
2018-09-09 09:08:00,88.67094,46.65674,868.852,265.45,88.6,1175.9,1.21,1.3,-77.2,64.86,58.81,227.23,279.24,61.8,59.36,226.73,278.49,0.0
2018-09-09 09:08:00,88.67094,46.65674,868.846,265.44,88.6,1176.0,1.17,1.35,-78.62,62.24,58.95,227.25,279.04,61.62,59.19,226.79,278.44,0.0
2018-09-09 09:08:00,88.67094,46.65673,868.849,265.44,88.6,1175.9,1.14,1.43,-80.0,64.46,58.88,227.3,278.79,61.57,58.97,226.88,278.37,0.0
2018-09-09 09:08:00,88.67094,46.65673,868.854,265.44,88.6,1175.9,1.11,1.59,-81.41,64.79,59.09,227.61,279.29,61.67,58.7,227.1,278.33,0.0
2018-09-09 09:08:00,88.67094,46.65672,868.872,265.44,88.6,1175.7,1.12,1.62,-82.84,64.2,58.95,227.35,278.69,61.93,58.41,227.2,278.23,0.0
2018-09-09 09:08:00,88.67094,46.65672,868.862,265.44,88.6,1175.8,1.14,1.65,-84.2,63.28,58.88,227.52,278.85,62.34,58.12,227.36,278.25,0.0
2018-09-09 09:08:00,88.67094,46.65671,868.85,265.44,88.6,1175.9,1.19,1.66,-85.56,63.42,58.88,227.75,278.66,62.86,57.86,227.55,278.34,0.0
2018-09-09 09:08:00,88.67094,46.65671,868.861,265.44,88.6,1175.8,1.27,1.68,-86.89,64.92,59.09,227.63,278.6,63.46,57.65,227.74,278.47,0.0
2018-09-09 09:08:00,88.67094,46.6567,868.866,265.44,88.6,1175.8,1.39,1.77,-88.2,62.11,58.95,227.99,279.07,64.09,57.51,227.89,278.6,0.0
2018-09-09 09:08:00,88.67094,46.6567,868.854,265.44,88.6,1175.9,1.44,1.95,-89.38,63.15,58.54,227.7,277.44,64.69,57.45,227.95,278.53,0.0
2018-09-09 09:08:00,88.67094,46.65669,868.896,265.44,88.6,1175.5,1.4,2.0,-90.44,64.66,58.67,227.8,278.32,65.22,57.47,228.0,278.54,0.0
2018-09-09 09:08:00,88.67094,46.65669,868.916,265.44,88.6,1175.4,1.71,2.01,-91.4,65.18,58.81,228.23,278.6,65.63,57.56,227.99,278.47,0.0
2018-09-09 09:08:00,88.67094,46.65668,868.898,265.44,88.6,1175.5,2.19,2.04,-92.26,66.17,58.6,228.4,278.89,65.9,57.71,227.94,278.38,0.0
2018-09-09 09:08:00,88.67094,46.65668,868.901,265.44,88.6,1175.5,2.43,2.06,-93.01,64.14,58.67,227.86,278.6,66.02,57.9,227.88,278.32,0.0
2018-09-09 09:08:00,88.67094,46.65667,868.864,265.43,88.6,1175.8,2.44,1.9,-93.57,62.5,58.4,227.37,276.99,66.0,58.12,227.77,278.19,0.0
2018-09-09 09:08:00,88.67094,46.65667,868.893,265.43,88.6,1175.6,2.25,1.92,-94.08,61.58,58.47,227.38,277.46,65.87,58.33,227.73,278.17,0.0
2018-09-09 09:08:00,88.67094,46.65667,868.896,265.43,88.6,1175.5,2.1,1.9,-94.49,65.84,58.67,227.86,277.72,65.64,58.51,227.68,278.13,0.0
2018-09-09 09:08:00,88.67094,46.65667,868.892,265.43,88.7,1175.6,1.98,1.86,-94.78,65.31,58.74,228.13,278.12,65.35,58.66,227.63,278.09,0.0
2018-09-09 09:08:00,88.67094,46.65666,868.921,265.43,88.6,1175.3,1.87,1.84,-94.94,64.72,58.67,228.41,278.89,65.01,58.75,227.61,278.09,0.0
2018-09-09 09:08:00,88.67094,46.65666,868.905,265.43,88.7,1175.5,1.69,1.81,-94.98,64.46,58.74,228.29,278.48,64.64,58.79,227.66,278.1,0.0
2018-09-09 09:08:00,88.67094,46.65666,868.902,265.42,88.7,1175.5,1.63,1.66,-94.85,63.48,58.67,228.66,278.52,64.25,58.77,227.82,278.3,0.0
2018-09-09 09:09:00,88.67094,46.65665,868.903,265.42,88.7,1175.5,1.64,1.71,-94.56,65.25,58.74,228.59,278.64,63.84,58.7,227.95,278.43,0.0
2018-09-09 09:09:00,88.67094,46.65665,868.916,265.42,88.7,1175.4,1.7,1.75,-94.18,64.07,58.6,228.35,278.75,63.42,58.59,228.09,278.63,0.0
2018-09-09 09:09:00,88.67094,46.65665,868.937,265.43,88.7,1175.2,1.75,1.74,-93.71,63.02,58.67,228.22,278.86,62.99,58.47,228.22,278.82,0.0
2018-09-09 09:09:00,88.67094,46.65664,868.949,265.43,88.7,1175.1,1.76,1.78,-93.14,64.92,58.67,228.21,278.55,62.57,58.34,228.3,278.89,0.0
2018-09-09 09:09:00,88.67094,46.65664,868.935,265.42,88.7,1175.2,1.68,1.78,-92.47,65.12,58.6,228.72,278.83,62.19,58.22,228.38,279.07,0.0
2018-09-09 09:09:00,88.67094,46.65664,868.943,265.42,88.7,1175.1,1.45,1.76,-91.72,64.79,58.74,228.13,278.69,61.87,58.12,228.34,279.14,0.0
2018-09-09 09:09:00,88.67094,46.65664,868.941,265.42,88.7,1175.1,1.23,1.74,-90.89,62.89,58.4,227.79,278.99,61.66,58.07,228.28,279.2,0.0
2018-09-09 09:09:00,88.67094,46.65663,868.941,265.43,88.7,1175.1,1.13,1.75,-89.97,63.94,58.54,227.88,279.28,61.6,58.05,228.17,279.21,0.0
2018-09-09 09:09:00,88.67094,46.65662,868.979,265.43,88.7,1174.8,1.23,1.78,-88.92,63.81,58.54,227.94,278.49,61.71,58.08,227.99,279.19,0.0
2018-09-09 09:09:00,88.67094,46.65662,868.99,265.42,88.7,1174.7,1.34,1.78,-87.76,63.55,58.74,227.88,279.77,62.0,58.16,227.79,279.22,0.0
2018-09-09 09:09:00,88.67094,46.65661,868.965,265.42,88.7,1174.9,1.51,1.87,-86.55,65.31,58.67,227.65,278.89,62.47,58.28,227.54,279.19,0.0
2018-09-09 09:09:00,88.67094,46.6566,868.968,265.42,88.7,1174.9,1.78,2.0,-85.32,63.02,58.47,227.9,279.05,63.08,58.43,227.37,279.21,0.0
2018-09-09 09:09:00,88.67094,46.65659,868.99,265.42,88.7,1174.7,1.99,2.02,-84.01,62.96,58.54,227.25,278.91,63.77,58.6,227.16,279.11,0.0
2018-09-09 09:09:00,88.67094,46.65658,869.006,265.42,88.7,1174.6,2.03,1.9,-82.64,63.35,58.47,227.35,279.11,64.47,58.77,226.96,278.95,0.0
2018-09-09 09:09:00,88.67094,46.65658,869.01,265.42,88.7,1174.5,1.98,1.83,-81.3,64.46,58.54,227.28,278.98,65.1,58.93,226.93,278.99,0.0
2018-09-09 09:09:00,88.67094,46.65657,869.015,265.42,88.7,1174.5,1.96,1.78,-79.91,63.09,58.33,227.19,278.76,65.6,59.07,226.92,278.87,0.0
2018-09-09 09:09:00,88.67094,46.65656,869.019,265.42,88.7,1174.5,1.85,1.71,-78.49,64.46,58.67,227.19,278.53,65.92,59.17,227.0,278.85,0.0
2018-09-09 09:09:00,88.67094,46.65655,869.001,265.42,88.7,1174.6,1.7,1.71,-77.03,64.53,58.74,226.76,277.79,66.04,59.23,227.07,278.81,0.0
2018-09-09 09:09:00,88.67094,46.65654,868.979,265.42,88.7,1174.8,1.62,1.72,-75.56,64.07,58.67,226.19,277.57,65.96,59.24,227.16,278.76,0.0
2018-09-09 09:09:00,88.67094,46.65653,869.021,265.42,88.7,1174.4,1.69,1.63,-74.06,63.94,58.6,227.34,279.03,65.72,59.21,227.32,278.74,0.0
2018-09-09 09:09:00,88.67094,46.65652,869.014,265.42,88.7,1174.5,1.67,1.61,-72.54,64.2,58.67,227.14,278.24,65.4,59.14,227.45,278.64,0.0
2018-09-09 09:09:00,88.67094,46.65651,869.04,265.42,88.7,1174.3,1.85,1.6,-71.03,64.86,58.67,227.46,278.76,65.06,59.05,227.57,278.58,0.0
2018-09-09 09:09:00,88.67094,46.6565,869.043,265.42,88.7,1174.3,2.01,1.53,-69.55,64.66,58.67,227.26,278.3,64.79,58.95,227.62,278.46,0.0
2018-09-09 09:09:00,88.67094,46.65649,869.021,265.42,88.7,1174.4,2.14,1.49,-68.07,63.09,58.81,227.37,278.2,64.63,58.85,227.75,278.44,0.0
2018-09-09 09:09:00,88.67094,46.65648,869.001,265.42,88.7,1174.6,2.29,1.5,-66.6,64.72,58.88,227.67,278.33,64.64,58.77,227.91,278.47,0.0
2018-09-09 09:09:00,88.67094,46.65647,869.053,265.43,88.7,1174.2,2.38,1.41,-65.23,62.76,58.54,227.52,278.12,64.8,58.71,227.87,278.32,0.0
2018-09-09 09:09:00,88.67094,46.65646,869.054,265.42,88.8,1174.2,2.24,1.33,-63.93,64.79,58.6,227.61,278.51,65.08,58.68,227.86,278.27,0.0
2018-09-09 09:09:00,88.67094,46.65645,869.044,265.42,88.8,1174.2,2.06,1.3,-62.7,64.92,58.81,227.53,278.09,65.42,58.67,227.83,278.12,0.0
2018-09-09 09:09:00,88.67094,46.65644,869.049,265.42,88.8,1174.2,1.98,1.28,-61.53,63.74,58.54,227.88,278.42,65.73,58.69,227.82,278.05,0.0
2018-09-09 09:09:00,88.67094,46.65644,869.071,265.43,88.8,1174.0,1.97,1.23,-60.45,64.66,58.47,228.34,278.65,65.95,58.72,227.83,278.04,0.0
2018-09-09 09:09:00,88.67094,46.65644,869.072,265.43,88.8,1174.0,1.9,1.14,-59.46,64.2,58.74,227.56,278.08,66.0,58.75,227.83,278.02,0.0
2018-09-09 09:09:00,88.67094,46.65644,869.052,265.42,88.8,1174.2,2.05,1.06,-58.63,64.92,58.74,228.0,278.32,65.84,58.77,227.93,278.1,0.0
2018-09-09 09:09:00,88.67094,46.65644,869.04,265.43,88.8,1174.3,2.33,1.02,-57.95,64.0,58.67,227.89,277.77,65.47,58.78,228.01,278.16,0.0
2018-09-09 09:09:00,88.67094,46.65644,869.044,265.43,88.8,1174.2,2.38,0.94,-57.4,64.92,58.81,227.89,278.23,64.9,58.77,228.14,278.29,0.0
2018-09-09 09:09:00,88.67094,46.65644,869.052,265.43,88.8,1174.2,2.27,0.83,-56.95,63.74,58.81,228.22,278.35,64.22,58.75,228.23,278.38,0.0
2018-09-09 09:09:00,88.67094,46.65645,869.046,265.42,88.8,1174.2,2.13,0.71,-56.64,64.07,58.6,228.01,278.29,63.51,58.71,228.29,278.39,0.0
2018-09-09 09:09:00,88.67094,46.65645,869.04,265.43,88.8,1174.3,1.98,0.64,-56.48,64.86,58.67,228.75,278.6,62.86,58.67,228.43,278.44,0.0
2018-09-09 09:09:00,88.67094,46.65645,869.043,265.43,88.8,1174.3,1.75,0.74,-56.42,65.51,58.74,228.06,278.58,62.37,58.63,228.47,278.31,0.0
2018-09-09 09:09:00,88.67094,46.65645,869.05,265.43,88.8,1174.2,1.62,0.78,-56.53,65.12,58.67,228.46,278.91,62.1,58.61,228.51,278.31,0.0
2018-09-09 09:09:00,88.67094,46.65645,869.048,265.43,88.8,1174.2,1.55,0.72,-56.77,64.72,58.6,228.53,278.65,62.1,58.61,228.5,278.27,0.0
2018-09-09 09:09:00,88.67094,46.65645,869.035,265.42,88.8,1174.3,1.54,0.64,-57.1,62.76,58.74,228.18,278.29,62.35,58.64,228.45,278.17,0.0
2018-09-09 09:09:00,88.67094,46.65645,869.049,265.42,88.8,1174.2,1.61,0.65,-57.44,64.66,58.67,228.63,278.12,62.84,58.68,228.41,278.15,0.0
2018-09-09 09:09:00,88.67094,46.65645,869.065,265.41,88.7,1174.1,1.8,0.65,-58.01,62.04,58.54,228.03,276.94,63.5,58.74,228.27,278.08,0.0
2018-09-09 09:09:00,88.67094,46.65644,869.079,265.42,88.7,1173.9,1.93,0.7,-58.67,64.27,58.81,227.99,277.87,64.25,58.81,228.21,278.08,0.0
2018-09-09 09:09:00,88.67094,46.65644,869.09,265.42,88.8,1173.8,2.01,0.76,-59.39,63.28,58.74,228.22,278.28,65.01,58.87,228.13,278.11,0.0
2018-09-09 09:09:00,88.67094,46.65643,869.1,265.42,88.8,1173.8,2.09,0.79,-60.22,64.92,58.54,227.94,278.41,65.7,58.93,228.07,278.21,0.0
2018-09-09 09:09:00,88.67094,46.65643,869.116,265.42,88.8,1173.6,2.19,0.75,-61.17,63.94,58.67,228.11,279.19,66.27,58.97,228.03,278.41,0.0
2018-09-09 09:09:00,88.67094,46.65642,869.12,265.42,88.8,1173.6,2.2,0.84,-62.19,64.99,58.74,227.82,278.71,66.67,59.0,227.95,278.68,0.0
2018-09-09 09:09:00,88.67094,46.65642,869.132,265.42,88.8,1173.5,2.1,0.85,-63.31,64.92,58.74,227.84,279.07,66.89,59.01,227.95,279.03,0.0
2018-09-09 09:09:00,88.67094,46.65641,869.129,265.42,88.8,1173.5,2.02,0.85,-64.49,65.12,58.74,227.84,279.22,66.94,59.01,227.88,279.2,0.0
2018-09-09 09:09:00,88.67094,46.65641,869.123,265.42,88.8,1173.6,1.94,0.84,-65.74,63.74,58.95,227.64,278.93,66.85,59.0,227.83,279.33,0.0
2018-09-09 09:09:00,88.67094,46.6564,869.134,265.41,88.8,1173.5,1.87,0.83,-67.02,64.66,58.74,227.38,279.57,66.65,58.99,227.81,279.44,0.0
2018-09-09 09:09:00,88.67094,46.6564,869.127,265.41,88.8,1173.5,1.86,0.87,-68.39,64.2,58.6,227.04,280.22,66.36,58.98,227.75,279.38,0.0
2018-09-09 09:09:00,88.67094,46.65639,869.135,265.41,88.8,1173.5,1.84,0.94,-69.78,64.66,58.67,227.28,279.04,66.01,58.97,227.69,279.37,0.0
2018-09-09 09:09:00,88.67094,46.65638,869.14,265.41,88.8,1173.4,1.92,1.04,-71.19,65.44,58.95,226.81,278.42,65.63,58.96,227.55,279.25,0.0
2018-09-09 09:09:00,88.67094,46.65638,869.146,265.41,88.8,1173.4,2.01,1.1,-72.64,63.94,58.54,226.88,278.24,65.23,58.95,227.43,279.09,0.0
2018-09-09 09:09:00,88.67094,46.65638,869.144,265.41,88.8,1173.4,2.06,1.11,-74.1,63.61,58.81,227.62,278.41,64.82,58.92,227.34,278.93,0.0
2018-09-09 09:09:00,88.67094,46.65637,869.099,265.41,88.8,1173.8,2.1,1.11,-75.61,65.44,58.74,227.2,278.28,64.4,58.88,227.27,278.72,0.0
2018-09-09 09:09:00,88.67094,46.65637,869.118,265.4,88.8,1173.6,2.11,1.26,-77.11,65.64,58.74,227.64,278.44,63.99,58.82,227.28,278.52,0.0
2018-09-09 09:09:00,88.67095,46.65637,869.124,265.4,88.8,1173.6,2.11,1.26,-78.63,65.51,58.81,227.19,278.18,63.6,58.75,227.28,278.35,0.0
2018-09-09 09:09:00,88.67095,46.65636,869.131,265.4,88.8,1173.5,2.07,1.34,-80.1,63.74,58.95,227.6,278.1,63.27,58.66,227.4,278.3,0.0
2018-09-09 09:09:00,88.67095,46.65636,869.147,265.41,88.8,1173.4,2.03,1.49,-81.55,63.61,58.81,227.96,278.66,63.0,58.58,227.53,278.28,0.0
2018-09-09 09:09:00,88.67095,46.65635,869.166,265.41,88.8,1173.2,1.99,1.58,-83.01,64.07,58.67,227.84,278.1,62.83,58.51,227.63,278.24,0.0
2018-09-09 09:09:00,88.67095,46.65635,869.2,265.4,88.8,1172.9,1.91,1.62,-84.43,65.77,58.88,228.14,278.4,62.78,58.46,227.76,278.2,0.0
2018-09-09 09:09:00,88.67095,46.65635,869.18,265.4,88.8,1173.1,1.79,1.71,-85.79,65.9,58.74,227.68,277.95,62.85,58.43,227.89,278.0,0.0
2018-09-09 09:09:00,88.67095,46.65634,869.174,265.4,88.8,1173.1,1.79,1.72,-87.07,63.87,58.6,228.06,277.82,63.05,58.44,228.03,277.93,0.0
2018-09-09 09:09:00,88.67095,46.65634,869.181,265.4,88.8,1173.1,1.83,1.79,-88.31,63.15,58.81,228.05,278.19,63.35,58.47,228.1,277.9,0.0
2018-09-09 09:09:00,88.67095,46.65634,869.184,265.4,88.8,1173.0,1.84,1.96,-89.49,63.74,58.6,227.88,278.06,63.73,58.52,228.1,277.84,0.0
2018-09-09 09:09:00,88.67095,46.65633,869.179,265.4,88.8,1173.1,1.81,2.02,-90.6,64.14,58.6,227.62,277.18,64.16,58.59,228.11,277.82,0.0
2018-09-09 09:09:00,88.67095,46.65632,869.204,265.4,88.8,1172.9,1.61,2.01,-91.55,63.35,58.47,227.86,275.69,64.58,58.64,228.05,277.76,0.0
2018-09-09 09:09:00,88.67095,46.6563,869.208,265.4,88.8,1172.8,1.34,1.96,-92.45,64.59,58.95,227.94,277.33,64.97,58.68,228.02,277.79,0.0
2018-09-09 09:09:00,88.67095,46.65629,869.198,265.4,88.8,1172.9,1.14,1.91,-93.25,65.77,58.81,227.83,278.13,65.28,58.7,227.97,277.79,0.0
2018-09-09 09:09:00,88.67095,46.65627,869.187,265.4,88.8,1173.0,0.98,1.88,-93.97,64.46,58.81,228.1,277.78,65.49,58.67,227.95,277.78,0.0
2018-09-09 09:09:00,88.67095,46.65626,869.186,265.39,88.8,1173.0,0.76,1.89,-94.57,64.86,58.74,228.58,278.85,65.61,58.62,227.98,277.85,0.0
2018-09-09 09:09:00,88.67095,46.65624,869.22,265.4,88.8,1172.7,0.55,1.8,-94.96,65.25,58.54,228.17,278.55,65.62,58.54,227.95,277.96,0.0
2018-09-09 09:09:00,88.67095,46.65622,869.213,265.39,88.8,1172.8,0.44,1.63,-95.25,63.28,58.88,228.37,278.94,65.54,58.45,228.01,278.26,0.0
2018-09-09 09:09:00,88.67095,46.6562,869.217,265.39,88.8,1172.7,0.55,1.55,-95.38,64.07,58.74,228.37,278.5,65.38,58.36,228.09,278.41,0.0
2018-09-09 09:09:00,88.67095,46.65619,869.24,265.39,88.8,1172.5,0.77,1.55,-95.38,63.68,58.6,228.32,278.03,65.16,58.29,228.18,278.52,0.0
2018-09-09 09:09:00,88.67095,46.65617,869.267,265.39,88.8,1172.3,1.03,1.59,-95.26,65.64,58.67,228.64,278.48,64.9,58.24,228.25,278.67,0.0
2018-09-09 09:09:00,88.67095,46.65615,869.297,265.39,88.8,1172.0,1.3,1.46,-95.04,64.92,58.67,227.42,277.77,64.61,58.23,228.24,278.71,0.0
2018-09-09 09:09:00,88.67095,46.65614,869.267,265.39,88.8,1172.3,1.39,1.57,-94.69,64.53,58.54,228.26,278.54,64.29,58.26,228.24,278.76,0.0
2018-09-09 09:09:00,88.67095,46.65612,869.244,265.39,88.8,1172.5,1.48,1.52,-94.22,64.33,58.67,228.2,278.15,63.96,58.31,228.18,278.76,0.0
2018-09-09 09:09:00,88.67095,46.6561,869.246,265.39,88.8,1172.5,1.33,1.15,-93.53,64.66,58.67,227.93,278.43,63.61,58.37,228.08,278.76,0.0
2018-09-09 09:09:00,88.67095,46.65608,869.265,265.39,88.8,1172.3,0.89,0.8,-92.71,64.66,58.54,227.83,278.93,63.27,58.44,227.95,278.74,0.0
2018-09-09 09:09:00,88.67095,46.65607,869.264,265.39,88.8,1172.3,0.38,1.19,-91.92,64.46,58.67,227.55,278.46,62.95,58.49,227.76,278.67,0.0
2018-09-09 09:09:00,88.67095,46.65605,869.274,265.39,88.8,1172.3,0.58,1.6,-91.13,64.66,58.6,227.94,278.67,62.67,58.51,227.72,278.71,0.0
2018-09-09 09:09:00,88.67095,46.65603,869.269,265.39,88.8,1172.3,0.6,1.88,-90.23,63.94,58.67,227.69,279.04,62.45,58.49,227.56,278.65,0.0
2018-09-09 09:09:00,88.67095,46.65602,869.264,265.39,88.8,1172.3,0.43,1.78,-89.18,64.07,58.54,227.84,278.73,62.31,58.43,227.44,278.67,0.0
2018-09-09 09:09:00,88.67095,46.656,869.274,265.39,88.9,1172.3,0.31,1.48,-88.0,63.81,58.67,227.53,278.75,62.27,58.34,227.39,278.67,0.0
2018-09-09 09:09:00,88.67095,46.65598,869.311,265.39,88.9,1171.9,0.5,1.26,-86.79,65.51,58.54,227.44,278.82,62.34,58.23,227.35,278.63,0.0
2018-09-09 09:09:00,88.67095,46.65596,869.29,265.38,88.9,1172.1,0.64,1.49,-85.57,64.27,58.6,227.96,279.26,62.51,58.12,227.26,278.68,0.0
2018-09-09 09:09:00,88.67095,46.65595,869.31,265.38,88.9,1171.9,0.9,1.45,-84.32,63.68,58.74,227.24,278.6,62.77,58.02,227.11,278.74,0.0
2018-09-09 09:09:00,88.67095,46.65594,869.326,265.38,88.9,1171.8,1.05,1.57,-83.03,63.48,58.74,227.5,278.79,63.08,57.96,226.98,278.7,0.0
2018-09-09 09:09:00,88.67095,46.65592,869.33,265.38,88.9,1171.8,1.06,1.5,-81.65,64.14,58.74,227.47,278.47,63.41,57.93,226.9,278.67,0.0
2018-09-09 09:09:00,88.67095,46.65591,869.335,265.39,88.9,1171.7,0.96,1.11,-80.22,64.79,58.26,227.02,278.61,63.72,57.96,226.83,278.66,0.0
2018-09-09 09:09:00,88.67095,46.6559,869.285,265.38,88.9,1172.1,0.98,1.33,-78.82,62.24,58.33,226.08,278.01,63.99,58.04,226.65,278.51,0.0
2018-09-09 09:09:00,88.67095,46.65588,869.301,265.38,88.9,1172.0,0.98,1.35,-77.44,64.27,58.33,225.38,278.17,64.19,58.16,226.45,278.26,0.0
2018-09-09 09:09:00,88.67095,46.65587,869.302,265.37,88.9,1172.0,0.87,1.37,-75.98,63.94,58.47,225.5,277.22,64.3,58.3,226.3,278.04,0.0
2018-09-09 09:09:00,88.67095,46.65585,869.304,265.37,88.9,1172.0,0.8,1.35,-74.53,64.92,58.47,226.06,277.39,64.34,58.46,226.13,277.78,0.0
2018-09-09 09:09:00,88.67095,46.65584,869.33,265.38,88.9,1171.8,0.77,1.31,-73.06,65.44,58.54,226.59,277.96,64.32,58.62,225.94,277.49,0.0
2018-09-09 09:09:00,88.67095,46.65583,869.342,265.39,88.9,1171.7,0.65,1.31,-71.63,63.81,58.54,225.16,276.53,64.27,58.74,225.78,277.22,0.0
2018-09-09 09:09:00,88.67095,46.65581,869.334,265.38,88.9,1171.7,0.92,1.44,-70.18,63.15,58.74,225.65,276.74,64.22,58.83,225.71,276.93,0.0
2018-09-09 09:09:00,88.67095,46.6558,869.322,265.39,88.9,1171.8,1.07,1.31,-68.71,64.72,58.54,226.02,276.93,64.18,58.88,225.7,276.63,0.0
2018-09-09 09:09:00,88.67095,46.65579,869.337,265.39,88.9,1171.7,1.25,1.33,-67.28,63.87,58.47,225.89,276.83,64.17,58.88,225.71,276.47,0.0
2018-09-09 09:09:00,88.67095,46.65578,869.354,265.39,88.9,1171.5,1.38,1.35,-65.91,63.74,58.6,225.96,276.68,64.21,58.83,225.69,276.36,0.0
2018-09-09 09:09:00,88.67095,46.65577,869.333,265.39,88.9,1171.7,1.45,1.21,-64.61,63.28,58.54,225.55,276.48,64.26,58.75,225.68,276.29,0.0
2018-09-09 09:09:00,88.67095,46.65576,869.349,265.39,88.9,1171.6,1.62,1.28,-63.39,64.53,58.54,225.45,276.55,64.32,58.64,225.81,276.38,0.0
2018-09-09 09:09:00,88.67095,46.65575,869.34,265.38,88.9,1171.7,1.57,1.18,-62.28,64.86,58.33,225.55,276.39,64.35,58.53,225.83,276.5,0.0
2018-09-09 09:09:00,88.67095,46.65574,869.339,265.39,88.9,1171.7,1.44,1.0,-61.26,63.87,58.54,225.57,277.04,64.34,58.42,225.86,276.61,0.0
2018-09-09 09:09:00,88.67095,46.65573,869.343,265.39,88.9,1171.6,1.31,0.91,-60.35,64.27,58.81,225.62,276.94,64.25,58.31,225.9,276.75,0.0
2018-09-09 09:09:00,88.67095,46.65572,869.35,265.39,88.9,1171.6,1.2,0.9,-59.53,63.15,58.6,226.39,277.3,64.1,58.23,225.94,276.9,0.0
2018-09-09 09:09:00,88.67095,46.65571,869.403,265.39,88.9,1171.1,1.03,0.77,-58.86,63.81,58.54,226.58,277.32,63.89,58.17,225.97,277.0,0.0
2018-09-09 09:09:00,88.67095,46.6557,869.395,265.39,88.9,1171.2,1.01,0.8,-58.32,65.84,58.54,225.56,277.22,63.65,58.12,225.91,276.98,0.0
2018-09-09 09:09:00,88.67095,46.6557,869.368,265.39,88.9,1171.4,1.04,0.79,-57.91,64.92,58.67,226.33,277.38,63.43,58.1,225.89,277.0,0.0
2018-09-09 09:09:00,88.67095,46.65568,869.352,265.39,88.9,1171.6,1.04,0.8,-57.6,63.42,58.4,226.41,277.69,63.26,58.1,225.87,277.0,0.0
2018-09-09 09:09:00,88.67095,46.65568,869.351,265.39,88.9,1171.6,1.04,0.8,-57.38,63.87,58.12,226.37,277.29,63.2,58.11,225.85,276.97,0.0
2018-09-09 09:09:00,88.67095,46.65567,869.338,265.38,88.9,1171.7,1.12,0.73,-57.28,64.07,58.54,226.2,276.84,63.27,58.14,225.78,276.91,0.0
2018-09-09 09:09:00,88.67095,46.65566,869.341,265.38,88.9,1171.7,1.21,0.77,-57.31,62.56,58.47,224.99,275.72,63.48,58.19,225.6,276.8,0.0
2018-09-09 09:09:00,88.67095,46.65566,869.365,265.38,88.9,1171.4,1.21,0.8,-57.49,64.14,58.4,225.6,276.58,63.82,58.25,225.66,276.82,0.0
2018-09-09 09:09:00,88.67095,46.65565,869.385,265.38,88.9,1171.3,1.18,0.77,-57.78,65.44,58.67,225.84,277.04,64.25,58.33,225.64,276.86,0.0
2018-09-09 09:09:00,88.67095,46.65564,869.385,265.38,88.9,1171.3,1.1,0.75,-58.19,63.55,58.47,225.89,277.23,64.72,58.44,225.56,276.88,0.0
2018-09-09 09:09:00,88.67095,46.65564,869.367,265.38,88.9,1171.4,0.97,0.76,-58.72,62.89,58.6,225.49,277.34,65.15,58.56,225.48,276.89,0.0
2018-09-09 09:09:00,88.67095,46.65563,869.387,265.38,89.0,1171.3,0.82,0.64,-59.35,63.09,58.26,224.26,276.8,65.47,58.7,225.4,276.97,0.0
2018-09-09 09:09:00,88.67095,46.65562,869.411,265.38,89.0,1171.1,0.83,0.74,-60.09,64.72,58.47,226.32,277.92,65.64,58.84,225.43,277.17,0.0
2018-09-09 09:09:00,88.67095,46.65562,869.399,265.38,89.0,1171.2,0.85,0.7,-60.95,65.31,58.4,225.64,277.92,65.6,58.99,225.4,277.28,0.0
2018-09-09 09:09:00,88.67095,46.65561,869.399,265.38,89.0,1171.2,0.93,0.63,-61.85,66.49,58.4,225.39,277.53,65.34,59.12,225.35,277.34,0.0
2018-09-09 09:09:00,88.67095,46.6556,869.423,265.38,88.9,1170.9,1.08,0.63,-62.79,63.09,58.54,225.32,277.83,64.9,59.23,225.32,277.38,0.0
2018-09-09 09:09:00,88.67095,46.6556,869.406,265.37,88.9,1171.1,1.26,0.71,-63.81,63.35,58.54,224.99,277.58,64.31,59.31,225.31,277.42,0.0
2018-09-09 09:09:00,88.67095,46.65559,869.44,265.37,88.9,1170.8,1.4,0.71,-64.93,63.81,58.67,225.22,277.54,63.65,59.34,225.4,277.5,0.0
2018-09-09 09:09:00,88.67095,46.65558,869.438,265.37,88.9,1170.8,1.34,0.7,-66.08,65.05,58.6,224.94,277.36,63.02,59.32,225.32,277.48,0.0
2018-09-09 09:09:00,88.67095,46.65558,869.441,265.37,88.9,1170.8,1.3,0.67,-67.32,63.28,58.6,224.92,277.07,62.49,59.26,225.34,277.44,0.0
2018-09-09 09:09:00,88.67095,46.65556,869.451,265.37,88.9,1170.7,1.29,0.65,-68.63,63.48,58.54,224.92,277.08,62.13,59.16,225.37,277.39,0.0
2018-09-09 09:09:00,88.67095,46.65555,869.438,265.37,89.0,1170.8,1.27,0.66,-69.96,64.33,58.74,225.16,277.39,62.01,59.04,225.39,277.31,0.0
2018-09-09 09:09:00,88.67095,46.65553,869.445,265.37,89.0,1170.8,1.23,0.74,-71.38,66.3,58.67,224.68,277.02,62.13,58.9,225.45,277.2,0.0
2018-09-09 09:09:00,88.67095,46.65552,869.43,265.37,89.0,1170.9,1.15,0.7,-72.82,63.48,58.6,225.61,277.53,62.47,58.76,225.54,277.11,0.0
2018-09-09 09:09:00,88.67095,46.6555,869.437,265.37,89.0,1170.8,1.1,0.72,-74.28,62.89,58.74,225.38,276.89,62.99,58.65,225.62,277.0,0.0
2018-09-09 09:09:00,88.67095,46.65549,869.452,265.37,89.0,1170.7,1.06,0.77,-75.71,65.58,58.67,225.38,276.66,63.59,58.56,225.7,276.89,0.0
2018-09-09 09:09:00,88.67095,46.65547,869.455,265.37,89.0,1170.7,1.02,0.82,-77.15,61.19,58.74,225.36,276.37,64.2,58.5,225.76,276.78,0.0
2018-09-09 09:09:00,88.67095,46.65546,869.466,265.37,89.0,1170.6,1.01,0.87,-78.67,63.74,58.54,225.79,276.61,64.71,58.48,225.8,276.67,0.0
2018-09-09 09:09:00,88.67095,46.65544,869.464,265.37,89.0,1170.6,0.99,0.91,-80.06,63.35,58.47,226.05,276.89,65.06,58.5,225.84,276.58,0.0
2018-09-09 09:09:00,88.67095,46.65544,869.466,265.37,89.0,1170.6,0.99,0.91,-81.52,65.58,58.47,225.99,276.55,65.19,58.53,225.87,276.49,0.0
2018-09-09 09:09:00,88.67095,46.65543,869.474,265.37,89.0,1170.5,1.03,0.93,-82.94,64.46,58.67,225.8,276.57,65.09,58.58,225.91,276.53,0.0
2018-09-09 09:09:00,88.67095,46.65542,869.48,265.37,89.0,1170.5,1.1,0.97,-84.35,62.5,58.67,225.63,276.31,64.79,58.64,225.98,276.68,0.0
2018-09-09 09:09:00,88.67095,46.65541,869.465,265.37,89.0,1170.6,1.17,0.97,-85.71,64.72,58.54,225.63,276.61,64.32,58.68,226.01,276.79,0.0
2018-09-09 09:09:00,88.67095,46.6554,869.49,265.37,89.0,1170.4,1.3,1.02,-87.07,64.33,58.74,225.52,276.65,63.78,58.71,225.98,276.92,0.0
2018-09-09 09:09:00,88.67095,46.6554,869.489,265.37,89.0,1170.4,1.29,1.09,-88.37,65.05,58.67,225.8,276.57,63.25,58.71,226.03,277.05,0.0
2018-09-09 09:09:00,88.67095,46.65539,869.504,265.37,89.0,1170.2,1.24,1.13,-89.64,65.25,58.74,226.13,277.55,62.82,58.69,226.05,277.17,0.0
2018-09-09 09:09:00,88.67095,46.65538,869.529,265.37,89.0,1170.0,1.14,1.16,-90.87,63.55,58.47,226.73,278.25,62.57,58.64,226.1,277.27,0.0
2018-09-09 09:09:00,88.67095,46.65537,869.528,265.37,89.0,1170.0,0.96,1.21,-91.99,63.09,58.67,225.76,277.05,62.54,58.57,226.18,277.32,0.0
2018-09-09 09:09:00,88.67095,46.65537,869.534,265.37,89.0,1170.0,0.66,1.18,-93.08,63.61,58.54,225.77,276.98,62.74,58.49,226.24,277.39,0.0
2018-09-09 09:09:00,88.67095,46.65536,869.53,265.37,89.0,1170.0,0.37,1.18,-94.01,61.98,58.67,226.84,277.32,63.15,58.39,226.29,277.44,0.0
2018-09-09 09:09:00,88.67095,46.65535,869.524,265.37,89.0,1170.1,0.39,1.13,-94.84,64.72,58.67,226.69,277.23,63.73,58.28,226.35,277.45,0.0
2018-09-09 09:09:00,88.67095,46.65534,869.531,265.37,89.0,1170.0,0.44,1.09,-95.51,64.07,58.67,226.64,276.6,64.39,58.17,226.33,277.37,0.0
2018-09-09 09:09:00,88.67095,46.65532,869.549,265.37,89.0,1169.9,0.36,1.07,-96.05,63.94,58.54,226.74,276.54,65.05,58.06,226.29,277.24,0.0
2018-09-09 09:09:00,88.67095,46.6553,869.534,265.36,89.0,1170.0,0.23,1.01,-96.47,65.12,58.67,226.09,277.06,65.64,57.97,226.31,277.22,0.0
2018-09-09 09:09:00,88.67095,46.65528,869.545,265.36,89.0,1169.9,0.4,1.01,-96.75,61.78,58.47,226.02,276.69,66.07,57.88,226.32,277.24,0.0
2018-09-09 09:09:00,88.67095,46.65526,869.553,265.35,89.0,1169.8,0.42,0.97,-96.85,64.2,58.47,226.0,277.19,66.3,57.82,226.15,277.26,0.0
2018-09-09 09:09:00,88.67095,46.65524,869.563,265.35,89.0,1169.7,0.52,0.93,-96.86,64.53,58.67,225.81,277.06,66.31,57.79,226.01,277.32,0.0
2018-09-09 09:09:00,88.67095,46.65522,869.57,265.36,89.0,1169.7,0.66,0.89,-96.77,65.44,58.33,225.75,277.64,66.11,57.78,225.87,277.44,0.0
2018-09-09 09:09:00,88.67095,46.6552,869.561,265.35,89.0,1169.7,0.7,0.85,-96.54,64.66,58.54,225.85,277.81,65.73,57.8,225.66,277.58,0.0
2018-09-09 09:09:00,88.67095,46.65518,869.595,265.35,89.0,1169.5,0.59,0.78,-96.15,63.87,58.4,225.61,277.84,65.22,57.85,225.43,277.64,0.0
2018-09-09 09:09:00,88.67095,46.65516,869.576,265.36,89.0,1169.6,0.82,0.89,-95.7,64.27,58.47,225.44,277.76,64.62,57.93,225.26,277.7,0.0
2018-09-09 09:09:00,88.67095,46.65514,869.573,265.36,89.0,1169.7,0.85,0.92,-95.15,63.94,58.54,225.38,278.0,64.0,58.02,225.12,277.73,0.0
2018-09-09 09:09:00,88.67095,46.65511,869.596,265.36,89.0,1169.4,0.8,0.91,-94.47,64.46,58.47,225.42,277.52,63.42,58.11,225.02,277.73,0.0
2018-09-09 09:09:00,88.67095,46.65509,869.632,265.35,89.0,1169.1,0.8,0.96,-93.68,63.09,58.54,225.23,277.58,62.9,58.2,224.96,277.68,0.0
2018-09-09 09:09:00,88.67095,46.65508,869.618,265.35,89.0,1169.3,0.9,1.06,-92.87,64.72,58.12,224.58,277.03,62.47,58.29,224.92,277.59,0.0
2018-09-09 09:09:00,88.67095,46.65506,869.635,265.36,89.0,1169.1,0.68,1.01,-91.92,64.14,58.4,224.72,277.17,62.15,58.35,224.93,277.51,0.0
2018-09-09 09:09:00,88.67095,46.65505,869.638,265.36,89.0,1169.1,0.59,1.05,-90.89,64.72,58.33,225.1,277.29,61.95,58.39,225.02,277.41,0.0
2018-09-09 09:09:00,88.67095,46.65504,869.636,265.36,89.0,1169.1,0.52,1.07,-89.82,64.4,58.4,225.15,277.51,61.85,58.42,225.08,277.33,0.0
2018-09-09 09:09:00,88.67095,46.65502,869.63,265.36,89.0,1169.2,0.41,1.05,-88.69,63.42,58.47,225.19,277.47,61.86,58.43,225.12,277.27,0.0
2018-09-09 09:09:00,88.67095,46.65501,869.602,265.35,89.0,1169.4,0.32,1.03,-87.45,63.87,58.47,225.2,277.42,61.96,58.44,225.23,277.23,0.0
2018-09-09 09:09:00,88.67095,46.65499,869.601,265.35,89.0,1169.4,0.3,1.11,-86.21,64.59,58.54,225.19,277.18,62.14,58.45,225.36,277.21,0.0
2018-09-09 09:09:00,88.67095,46.65498,869.617,265.35,89.0,1169.3,0.34,1.11,-84.9,63.02,58.47,225.7,277.12,62.39,58.47,225.49,277.16,0.0
2018-09-09 09:09:00,88.67095,46.65496,869.615,265.35,89.0,1169.3,0.42,1.12,-83.55,62.89,58.67,224.99,277.18,62.7,58.51,225.53,277.12,0.0
2018-09-09 09:09:00,88.67095,46.65495,869.606,265.35,89.0,1169.4,0.5,1.15,-82.14,63.94,58.33,225.04,277.12,63.04,58.56,225.49,277.1,0.0
2018-09-09 09:09:00,88.67095,46.65494,869.625,265.35,89.0,1169.2,0.55,1.16,-80.73,62.89,58.33,225.63,277.2,63.41,58.62,225.43,277.07,0.0
2018-09-09 09:09:00,88.67095,46.65492,869.644,265.35,89.0,1169.0,0.51,1.06,-79.32,64.27,58.26,225.44,276.44,63.75,58.69,225.38,277.02,0.0
2018-09-09 09:09:00,88.67095,46.65491,869.625,265.35,89.1,1169.2,0.52,1.08,-77.87,64.46,58.4,226.54,276.36,64.06,58.75,225.32,276.96,0.0
2018-09-09 09:09:00,88.67095,46.65491,869.626,265.35,89.1,1169.2,0.49,1.09,-76.39,64.53,58.33,226.15,276.53,64.29,58.79,225.31,276.91,0.0
2018-09-09 09:09:00,88.67095,46.65491,869.629,265.35,89.1,1169.2,0.45,1.06,-74.87,63.94,58.47,225.7,276.46,64.43,58.81,225.34,276.84,0.0
2018-09-09 09:09:00,88.67095,46.65491,869.621,265.35,89.1,1169.2,0.45,1.05,-73.36,62.96,58.54,225.46,276.59,64.47,58.79,225.37,276.76,0.0
