Date/Time,Latitude,Longitude,PPPP [hPa],TTT grad [K],RH [%],Height [m],Pitch [deg],Roll [deg],Yaw [deg],SWD [W/m**2] (raw),SWU [W/m**2] (raw),LWD [W/m**2] (raw),LWU [W/m**2] (raw),SWD [W/m**2] (corrected),SWU [W/m**2] (corrected),LWD [W/m**2] (corrected),LWU [W/m**2] (corrected),Flag
2018-09-09 22:34:00,88.6584,46.39428,887.856,265.56,89.0,1043.1,0.75,-1.05,74.16,67.08,46.99,199.49,268.37,64.55,47.81,199.53,268.62,1.0
2018-09-09 22:34:00,88.6584,46.3943,887.848,265.56,89.0,1043.1,0.77,-1.0,74.1,66.03,47.2,199.77,268.28,64.55,47.9,199.52,268.56,1.0
2018-09-09 22:34:00,88.6584,46.39432,887.865,265.56,89.0,1043.0,0.79,-1.03,74.03,66.17,47.34,199.68,268.66,64.68,47.95,199.52,268.5,1.0
2018-09-09 22:34:00,88.6584,46.39434,887.877,265.56,89.0,1042.9,0.6,-1.33,73.97,65.77,47.13,199.87,268.67,64.97,47.95,199.53,268.45,1.0
2018-09-09 22:34:00,88.6584,46.39435,887.915,265.57,89.0,1042.6,0.36,-1.31,73.91,65.84,47.2,199.77,268.67,65.38,47.91,199.54,268.42,1.0
2018-09-09 22:34:00,88.6584,46.39436,887.904,265.57,89.0,1042.7,0.37,-1.28,73.83,65.38,47.2,199.77,268.57,65.9,47.84,199.66,268.31,1.0
2018-09-09 22:34:00,88.65839,46.39436,887.902,265.57,89.0,1042.7,0.34,-1.16,73.76,65.84,47.13,199.68,268.47,66.48,47.73,199.76,268.27,1.0
2018-09-09 22:34:00,88.65839,46.39437,887.914,265.57,89.0,1042.6,0.32,-1.08,73.7,66.82,47.27,199.68,268.86,67.08,47.6,199.8,268.28,1.0
2018-09-09 22:34:00,88.65839,46.39437,887.908,265.57,89.0,1042.6,0.36,-1.11,73.64,66.17,47.34,199.68,268.67,67.65,47.47,199.77,268.29,1.0
2018-09-09 22:34:00,88.65839,46.39438,887.874,265.57,89.0,1042.9,0.34,-1.11,73.65,66.43,47.27,199.72,268.54,68.15,47.33,199.74,268.3,1.0
2018-09-09 22:34:00,88.65839,46.39438,887.911,265.57,89.0,1042.6,0.43,-1.0,73.62,66.1,46.99,200.76,267.65,68.55,47.2,199.7,268.31,1.0
2018-09-09 22:34:00,88.65839,46.39438,887.91,265.57,89.0,1042.6,0.53,-0.97,73.6,65.31,47.13,200.78,267.92,68.82,47.08,199.74,268.26,1.0
2018-09-09 22:34:00,88.65839,46.39439,887.889,265.57,89.0,1042.8,0.53,-1.0,73.61,66.75,47.34,200.0,268.67,68.96,46.98,199.83,268.19,1.0
2018-09-09 22:34:00,88.65839,46.3944,887.878,265.57,89.0,1042.9,0.41,-1.04,73.61,66.89,47.2,199.69,268.58,68.97,46.92,199.88,268.1,1.0
2018-09-09 22:34:00,88.65839,46.3944,887.889,265.56,89.0,1042.8,0.27,-1.02,73.58,65.97,47.41,199.69,268.58,68.88,46.88,199.88,267.98,1.0
2018-09-09 22:34:00,88.65839,46.3944,887.911,265.57,89.0,1042.6,0.29,-0.99,73.55,66.69,47.13,199.78,268.68,68.69,46.88,199.98,267.96,1.0
2018-09-09 22:34:00,88.65839,46.39441,887.918,265.57,89.0,1042.6,0.37,-0.92,73.56,66.56,47.34,200.63,267.88,68.44,46.91,199.94,268.0,1.0
2018-09-09 22:34:00,88.65839,46.39441,887.899,265.57,89.0,1042.7,0.49,-0.97,73.57,67.15,47.2,200.95,268.02,68.15,46.98,199.9,268.0,1.0
2018-09-09 22:34:00,88.65839,46.39442,887.876,265.57,89.0,1042.9,0.59,-1.04,73.58,66.56,47.27,200.57,267.76,67.84,47.08,199.91,267.98,1.0
2018-09-09 22:34:00,88.65839,46.39443,887.885,265.57,89.0,1042.8,0.65,-0.99,73.58,67.6,46.92,199.67,267.6,67.54,47.2,199.92,267.97,1.0
2018-09-09 22:34:00,88.65839,46.39444,887.884,265.57,89.0,1042.8,0.79,-0.9,73.56,65.71,47.13,200.32,268.41,67.25,47.34,199.92,267.97,1.0
2018-09-09 22:34:00,88.65839,46.39445,887.896,265.57,89.0,1042.7,0.89,-0.95,73.53,66.49,46.99,199.84,267.92,66.98,47.49,199.9,267.97,1.0
2018-09-09 22:34:00,88.65839,46.39446,887.895,265.56,89.0,1042.7,0.9,-0.99,73.5,67.15,46.99,199.77,268.11,66.75,47.62,199.71,268.06,1.0
2018-09-09 22:34:00,88.65839,46.39447,887.894,265.56,89.0,1042.8,0.87,-1.04,73.44,66.69,47.34,199.77,267.91,66.56,47.74,199.51,268.16,1.0
2018-09-09 22:34:00,88.65839,46.39448,887.902,265.57,89.0,1042.7,0.8,-1.05,73.34,66.1,47.27,199.68,268.38,66.4,47.83,199.4,268.28,1.0
2018-09-09 22:34:00,88.65839,46.39449,887.893,265.57,89.0,1042.8,0.65,-0.93,73.24,67.87,47.34,199.5,268.87,66.29,47.88,199.35,268.47,1.0
2018-09-09 22:34:00,88.65839,46.3945,887.919,265.57,89.0,1042.5,0.57,-1.08,73.14,66.89,47.41,199.78,268.58,66.2,47.9,199.26,268.52,1.0
2018-09-09 22:34:00,88.65839,46.39451,887.927,265.57,89.0,1042.5,0.55,-0.96,73.05,66.75,47.2,198.82,268.95,66.15,47.87,199.24,268.6,1.0
2018-09-09 22:34:00,88.65839,46.39452,887.926,265.57,89.0,1042.5,0.66,-0.91,72.98,66.49,47.2,198.78,268.58,66.13,47.82,199.25,268.69,1.0
2018-09-09 22:34:00,88.65839,46.39453,887.926,265.57,89.0,1042.5,0.79,-0.97,72.92,67.28,47.34,199.53,268.51,66.13,47.75,199.3,268.76,1.0
2018-09-09 22:34:00,88.65839,46.39454,887.932,265.57,89.0,1042.4,0.79,-1.03,72.89,65.51,47.13,199.14,269.13,66.14,47.67,199.39,268.83,1.0
2018-09-09 22:34:00,88.65839,46.39455,887.911,265.57,89.0,1042.6,0.83,-1.07,72.87,65.58,47.34,199.48,268.32,66.17,47.6,199.48,268.89,1.0
2018-09-09 22:34:00,88.65839,46.39456,887.902,265.57,89.0,1042.7,0.8,-1.0,72.84,67.15,47.41,199.68,268.67,66.22,47.54,199.65,268.86,1.0
2018-09-09 22:34:00,88.65839,46.39456,887.902,265.57,89.0,1042.7,0.85,-0.94,72.81,66.56,47.34,199.68,268.58,66.29,47.49,199.82,268.84,1.0
2018-09-09 22:34:00,88.65839,46.39457,887.9,265.57,89.0,1042.7,0.84,-0.89,72.79,67.67,47.48,199.68,268.58,66.38,47.48,199.91,268.86,1.0
2018-09-09 22:34:00,88.65839,46.39458,887.893,265.57,89.0,1042.8,0.75,-0.85,72.78,67.54,47.27,199.69,268.58,66.52,47.48,199.91,268.84,1.0
2018-09-09 22:34:00,88.65839,46.39459,887.915,265.57,89.0,1042.6,0.8,-0.9,72.77,66.69,47.34,199.53,268.58,66.69,47.5,199.88,268.74,1.0
2018-09-09 22:34:00,88.65839,46.39459,887.928,265.57,89.0,1042.5,0.93,-0.83,72.74,65.64,47.13,200.4,267.59,66.91,47.53,199.82,268.71,1.0
2018-09-09 22:34:00,88.65839,46.3946,887.918,265.57,89.0,1042.5,0.94,-0.82,72.73,65.97,47.41,199.86,267.93,67.18,47.56,199.74,268.68,1.0
2018-09-09 22:34:00,88.65839,46.39461,887.904,265.57,89.0,1042.7,0.94,-0.85,72.69,66.3,47.34,199.5,268.58,67.48,47.59,199.65,268.65,1.0
2018-09-09 22:34:00,88.65839,46.39462,887.9,265.57,89.0,1042.7,0.99,-0.82,72.62,66.95,47.41,199.59,268.51,67.8,47.6,199.58,268.6,1.0
2018-09-09 22:34:00,88.65839,46.39462,887.892,265.58,89.0,1042.8,1.0,-0.68,72.54,66.49,47.41,199.49,268.19,68.1,47.6,199.52,268.56,1.0
2018-09-09 22:34:00,88.65839,46.39462,887.923,265.57,89.0,1042.5,1.15,-0.86,72.51,66.89,47.41,199.59,268.23,68.37,47.58,199.48,268.52,1.0
2018-09-09 22:34:00,88.65839,46.39463,887.922,265.57,89.0,1042.5,1.24,-0.83,72.5,67.08,47.34,199.77,268.57,68.56,47.55,199.38,268.58,1.0
2018-09-09 22:34:00,88.65839,46.39463,887.927,265.57,89.0,1042.5,1.32,-0.82,72.47,66.23,47.2,199.5,268.87,68.66,47.52,199.34,268.6,1.0
2018-09-09 22:34:00,88.65839,46.39463,887.939,265.58,89.0,1042.4,1.37,-0.82,72.43,67.47,47.41,199.69,268.58,68.66,47.48,199.36,268.58,1.0
2018-09-09 22:34:00,88.65839,46.39463,887.934,265.57,89.0,1042.4,1.37,-0.8,72.4,66.75,47.41,199.6,268.58,68.55,47.45,199.38,268.58,1.0
2018-09-09 22:34:00,88.65839,46.39463,887.91,265.58,89.0,1042.6,1.37,-0.88,72.41,67.02,47.55,199.49,268.67,68.36,47.42,199.4,268.61,1.0
2018-09-09 22:34:00,88.65839,46.39463,887.908,265.57,89.0,1042.6,1.29,-0.88,72.41,67.67,47.41,199.69,268.58,68.1,47.41,199.4,268.6,1.0
2018-09-09 22:34:00,88.65839,46.39463,887.912,265.57,89.0,1042.6,1.22,-0.93,72.42,66.1,47.34,199.5,268.67,67.83,47.42,199.47,268.58,1.0
2018-09-09 22:34:00,88.65839,46.39464,887.918,265.57,89.0,1042.5,1.15,-0.94,72.42,67.02,47.41,199.69,268.67,67.58,47.43,199.54,268.56,1.0
2018-09-09 22:34:00,88.65839,46.39464,887.928,265.58,89.0,1042.5,1.13,-0.89,72.43,66.75,47.41,199.5,268.58,67.38,47.45,199.58,268.54,1.0
2018-09-09 22:34:00,88.65839,46.39464,887.925,265.58,89.0,1042.5,1.28,-0.93,72.45,67.47,47.34,199.41,268.77,67.25,47.47,199.56,268.5,1.0
2018-09-09 22:34:00,88.65839,46.39464,887.939,265.58,89.0,1042.4,1.28,-0.86,72.48,66.89,47.13,199.68,268.67,67.21,47.49,199.55,268.49,1.0
2018-09-09 22:34:00,88.65839,46.39464,887.942,265.57,89.0,1042.3,1.32,-0.86,72.51,67.74,47.55,200.18,268.48,67.25,47.5,199.56,268.47,1.0
2018-09-09 22:34:00,88.65839,46.39464,887.94,265.57,89.0,1042.4,1.29,-0.84,72.53,67.08,47.41,200.47,268.58,67.33,47.51,199.6,268.47,1.0
2018-09-09 22:34:00,88.65839,46.39464,887.936,265.58,89.0,1042.4,1.2,-0.83,72.55,67.34,47.41,200.46,268.53,67.44,47.51,199.66,268.47,1.0
2018-09-09 22:34:00,88.65839,46.39464,887.933,265.58,89.0,1042.4,1.15,-0.85,72.57,66.75,47.34,199.4,268.46,67.52,47.51,199.73,268.48,1.0
2018-09-09 22:34:00,88.65839,46.39464,887.923,265.57,89.0,1042.5,1.12,-0.99,72.58,66.36,47.55,199.21,268.38,67.54,47.51,199.82,268.5,1.0
2018-09-09 22:34:00,88.65839,46.39464,887.93,265.58,89.0,1042.4,0.98,-0.88,72.59,67.15,47.41,199.4,268.68,67.47,47.5,199.91,268.53,1.0
2018-09-09 22:34:00,88.65839,46.39464,887.936,265.58,89.0,1042.4,0.9,-0.79,72.61,66.75,47.34,199.49,268.48,67.32,47.5,199.91,268.55,1.0
2018-09-09 22:34:00,88.65839,46.39464,887.936,265.58,89.0,1042.4,0.93,-0.71,72.65,67.15,47.55,199.4,268.67,67.07,47.5,199.87,268.57,1.0
2018-09-09 22:34:00,88.65839,46.39464,887.934,265.58,89.0,1042.4,1.01,-0.63,72.72,67.21,47.48,199.5,268.77,66.76,47.49,199.83,268.6,1.0
2018-09-09 22:34:00,88.65839,46.39464,887.937,265.57,89.0,1042.4,1.01,-0.68,72.84,67.54,47.13,199.5,268.58,66.43,47.48,199.83,268.62,1.0
2018-09-09 22:34:00,88.65839,46.39464,887.953,265.58,89.0,1042.3,1.18,-0.74,72.93,67.6,47.41,199.51,268.29,66.11,47.46,199.81,268.64,1.0
2018-09-09 22:34:00,88.65838,46.39464,887.958,265.58,89.0,1042.2,1.31,-0.75,73.01,67.41,47.41,199.41,268.29,65.85,47.42,199.77,268.65,1.0
2018-09-09 22:34:00,88.65838,46.39464,887.955,265.58,89.0,1042.2,1.31,-0.72,73.09,67.15,47.55,199.41,268.58,65.67,47.37,199.72,268.67,1.0
2018-09-09 22:34:00,88.65838,46.39464,887.949,265.57,89.0,1042.3,1.23,-0.73,73.15,66.82,47.34,199.5,268.48,65.6,47.3,199.69,268.69,1.0
2018-09-09 22:34:00,88.65838,46.39464,887.939,265.57,89.0,1042.4,1.17,-0.83,73.2,66.49,47.55,199.5,268.56,65.63,47.21,199.66,268.72,1.0
2018-09-09 22:34:00,88.65838,46.39464,887.966,265.58,89.0,1042.2,0.99,-0.63,73.3,66.56,47.41,199.69,268.67,65.77,47.1,199.66,268.77,1.0
2018-09-09 22:34:00,88.65838,46.39464,887.966,265.58,89.0,1042.1,1.04,-0.76,73.4,67.15,47.48,199.41,268.86,65.97,47.0,199.68,268.81,1.0
2018-09-09 22:34:00,88.65838,46.39465,887.976,265.58,89.0,1042.1,0.99,-0.84,73.51,66.69,47.41,199.78,268.57,66.2,46.89,199.72,268.87,1.0
2018-09-09 22:34:00,88.65838,46.39465,887.988,265.58,89.0,1042.0,0.92,-0.8,73.61,66.69,47.27,199.96,268.58,66.44,46.8,199.76,268.92,1.0
2018-09-09 22:34:00,88.65838,46.39465,887.975,265.57,89.0,1042.1,0.98,-0.74,73.7,66.75,47.41,199.58,268.67,66.65,46.73,199.78,268.96,1.0
2018-09-09 22:34:00,88.65838,46.39465,887.985,265.58,89.0,1042.0,1.04,-0.69,73.82,66.69,47.34,199.69,268.38,66.8,46.68,199.69,268.98,1.0
2018-09-09 22:34:00,88.65838,46.39465,887.981,265.58,89.0,1042.0,0.93,-0.67,73.94,66.69,47.41,199.78,268.67,66.9,46.66,199.64,268.9,1.0
2018-09-09 22:34:00,88.65838,46.39465,887.959,265.57,89.0,1042.2,0.94,-0.67,74.06,67.6,47.34,199.78,268.67,66.94,46.67,199.6,268.85,1.0
2018-09-09 22:34:00,88.65838,46.39466,887.941,265.57,89.0,1042.4,0.91,-0.74,74.23,67.15,47.34,199.69,268.58,66.91,46.69,199.54,268.81,1.0
2018-09-09 22:34:00,88.65838,46.39466,887.949,265.58,89.0,1042.3,0.8,-0.84,74.44,67.47,47.13,199.2,268.86,66.85,46.73,199.46,268.76,1.0
2018-09-09 22:34:00,88.65838,46.39464,887.963,265.58,89.0,1042.2,0.83,-0.82,74.57,65.97,47.2,198.23,268.55,66.75,46.79,199.36,268.71,1.0
2018-09-09 22:34:00,88.65838,46.39461,887.954,265.58,89.0,1042.2,0.83,-0.71,74.74,66.56,47.27,199.2,267.88,66.63,46.84,199.25,268.65,1.0
2018-09-09 22:34:00,88.65838,46.39458,887.976,265.58,89.0,1042.1,0.76,-0.76,74.92,66.36,47.34,199.29,268.21,66.49,46.89,199.16,268.59,1.0
2018-09-09 22:34:00,88.65838,46.39456,887.992,265.58,89.0,1041.9,0.79,-0.71,75.07,67.28,47.13,199.51,268.77,66.34,46.92,199.08,268.55,1.0
2018-09-09 22:34:00,88.65838,46.39453,887.992,265.58,89.0,1041.9,0.86,-0.64,75.21,66.69,47.2,199.51,268.38,66.18,46.95,199.02,268.52,1.0
2018-09-09 22:34:00,88.65838,46.3945,888.011,265.58,89.0,1041.8,0.82,-0.75,75.36,66.75,47.27,199.6,268.87,66.01,46.97,198.98,268.48,1.0
2018-09-09 22:34:00,88.65838,46.39447,887.978,265.58,89.0,1042.0,0.81,-0.8,75.48,67.54,47.27,199.5,268.58,65.83,46.98,199.1,268.44,1.0
2018-09-09 22:34:00,88.65839,46.39444,887.962,265.58,89.0,1042.2,0.89,-0.85,75.58,66.56,47.34,199.6,268.77,65.66,46.98,199.19,268.52,1.0
2018-09-09 22:34:00,88.65839,46.39441,887.98,265.58,89.0,1042.0,0.81,-0.87,75.65,67.41,47.2,199.78,268.87,65.5,46.97,199.26,268.56,1.0
2018-09-09 22:34:00,88.65839,46.39438,888.006,265.58,89.0,1041.8,0.71,-0.86,75.69,66.1,47.2,199.46,268.77,65.37,46.97,199.32,268.56,1.0
2018-09-09 22:34:00,88.65839,46.39435,888.004,265.58,89.0,1041.8,0.71,-0.81,75.71,66.36,46.99,198.91,268.39,65.29,46.97,199.38,268.55,1.0
2018-09-09 22:34:00,88.65839,46.39432,887.995,265.57,89.0,1041.9,0.55,-0.76,75.73,66.69,47.13,199.3,268.01,65.27,46.97,199.44,268.51,1.0
2018-09-09 22:34:00,88.65839,46.39432,887.994,265.57,89.0,1041.9,0.54,-0.62,75.72,66.23,47.13,199.22,268.53,65.33,46.97,199.47,268.48,1.0
2018-09-09 22:34:00,88.65839,46.39432,888.002,265.57,89.0,1041.8,0.62,-0.56,75.73,67.15,47.34,199.51,268.65,65.47,46.98,199.5,268.45,1.0
2018-09-09 22:34:00,88.65839,46.39432,888.013,265.58,89.0,1041.8,0.66,-0.62,75.74,66.69,47.2,199.5,268.65,65.68,46.99,199.51,268.42,1.0
2018-09-09 22:34:00,88.65839,46.39433,888.016,265.57,89.0,1041.7,0.61,-0.75,75.75,66.75,47.27,199.5,268.62,65.93,47.02,199.53,268.4,1.0
2018-09-09 22:34:00,88.65839,46.39433,888.015,265.58,89.0,1041.7,0.7,-0.63,75.73,65.77,47.2,199.69,268.41,66.21,47.05,199.57,268.41,1.0
2018-09-09 22:34:00,88.65839,46.39434,888.01,265.57,89.0,1041.8,0.8,-0.76,75.71,66.36,46.99,199.69,268.53,66.47,47.1,199.57,268.45,1.0
2018-09-09 22:34:00,88.65839,46.39434,887.999,265.58,89.0,1041.9,0.71,-0.83,75.68,67.15,47.27,199.51,268.65,66.67,47.17,199.56,268.46,1.0
2018-09-09 22:34:00,88.65839,46.39434,887.993,265.58,89.0,1041.9,0.67,-0.93,75.63,66.17,46.99,199.5,268.56,66.8,47.25,199.55,268.47,1.0
2018-09-09 22:34:00,88.65839,46.39435,887.999,265.58,89.0,1041.9,0.72,-0.99,75.56,65.97,47.13,199.5,268.56,66.83,47.34,199.54,268.47,1.0
2018-09-09 22:34:00,88.65839,46.39435,888.012,265.58,89.0,1041.8,0.63,-0.71,75.46,66.1,47.2,199.5,268.75,66.75,47.45,199.52,268.47,1.0
2018-09-09 22:34:00,88.65839,46.39436,887.96,265.58,88.9,1042.2,0.71,-0.81,75.32,67.28,47.2,199.59,268.58,66.57,47.56,199.5,268.47,1.0
2018-09-09 22:34:00,88.65839,46.39436,887.977,265.58,89.0,1042.1,0.71,-0.65,75.21,66.89,47.13,199.5,268.68,66.32,47.67,199.46,268.44,1.0
2018-09-09 22:34:00,88.65839,46.39436,887.993,265.58,89.0,1041.9,0.78,-0.65,75.08,65.9,47.2,199.6,268.58,66.01,47.76,199.42,268.4,1.0
2018-09-09 22:34:00,88.65839,46.39436,887.994,265.58,89.0,1041.9,0.86,-0.68,74.96,67.08,47.2,199.59,268.67,65.71,47.82,199.37,268.36,1.0
2018-09-09 22:34:00,88.65839,46.39437,887.987,265.57,89.0,1042.0,0.9,-0.67,74.85,66.95,47.13,199.59,268.57,65.44,47.85,199.31,268.32,1.0
2018-09-09 22:34:00,88.65839,46.39437,888.007,265.58,89.0,1041.8,0.92,-0.78,74.73,66.56,47.34,199.69,268.56,65.25,47.85,199.26,268.3,1.0
2018-09-09 22:34:00,88.65839,46.39437,888.02,265.58,89.0,1041.7,0.89,-0.87,74.57,66.36,47.34,199.6,268.67,65.16,47.8,199.22,268.29,1.0
2018-09-09 22:34:00,88.65839,46.39438,888.018,265.58,89.0,1041.7,0.78,-0.88,74.42,66.62,47.2,199.5,268.67,65.21,47.72,199.19,268.3,1.0
2018-09-09 22:34:00,88.65839,46.39438,888.015,265.58,89.0,1041.7,0.72,-0.86,74.25,65.31,47.27,199.5,268.77,65.39,47.61,199.18,268.34,1.0
2018-09-09 22:34:00,88.65839,46.39438,888.011,265.58,89.0,1041.8,0.7,-0.81,74.07,66.49,47.27,199.5,268.38,65.71,47.49,199.19,268.36,1.0
2018-09-09 22:34:00,88.65839,46.39439,887.996,265.57,89.0,1041.9,0.67,-0.69,73.91,65.9,47.41,199.6,268.66,66.14,47.38,199.24,268.35,1.0
2018-09-09 22:34:00,88.65839,46.39439,887.989,265.57,89.0,1042.0,0.77,-0.47,73.74,65.9,47.13,199.5,268.38,66.64,47.29,199.33,268.41,1.0
2018-09-09 22:34:00,88.65839,46.39439,888.03,265.58,89.0,1041.6,0.77,-0.67,73.63,67.41,47.62,199.69,268.87,67.2,47.22,199.37,268.47,1.0
2018-09-09 22:34:00,88.65839,46.3944,888.043,265.58,89.0,1041.5,0.77,-0.86,73.49,66.36,47.27,199.5,268.58,67.75,47.2,199.39,268.5,1.0
2018-09-09 22:34:00,88.65839,46.3944,888.033,265.57,89.0,1041.6,0.81,-0.77,73.32,66.75,47.27,199.58,268.37,68.27,47.21,199.41,268.51,1.0
2018-09-09 22:34:00,88.65839,46.3944,888.041,265.58,89.0,1041.5,0.88,-0.5,73.17,65.25,47.13,199.64,267.6,68.7,47.26,199.42,268.5,1.0
2018-09-09 22:34:00,88.65839,46.3944,888.039,265.58,89.0,1041.5,0.86,-0.95,73.04,66.36,47.34,200.01,268.38,69.02,47.35,199.41,268.48,1.0
2018-09-09 22:34:00,88.65839,46.39441,888.051,265.57,89.0,1041.4,0.69,-0.84,72.89,66.62,47.34,199.46,268.39,69.2,47.45,199.4,268.44,1.0
2018-09-09 22:34:00,88.65839,46.39441,888.046,265.58,89.0,1041.5,0.78,-0.82,72.69,67.15,47.34,199.42,268.48,69.22,47.57,199.39,268.4,1.0
2018-09-09 22:34:00,88.65839,46.39442,888.031,265.58,89.0,1041.6,0.86,-0.77,72.5,66.1,47.2,199.52,268.47,69.08,47.67,199.39,268.38,1.0
2018-09-09 22:34:00,88.65839,46.39444,888.019,265.57,89.0,1041.7,0.77,-0.74,72.35,67.54,46.99,199.41,268.37,68.79,47.76,199.38,268.41,1.0
2018-09-09 22:34:00,88.65839,46.39445,888.022,265.58,89.0,1041.7,0.56,-0.91,72.24,66.36,47.41,199.4,268.47,68.38,47.83,199.36,268.51,1.0
2018-09-09 22:34:00,88.65839,46.39446,888.025,265.58,89.0,1041.7,0.47,-0.86,72.1,67.21,47.27,199.12,268.27,67.88,47.87,199.31,268.54,1.0
2018-09-09 22:34:00,88.65839,46.39447,888.028,265.58,89.0,1041.6,0.48,-0.72,71.96,67.08,47.55,199.4,268.66,67.35,47.88,199.32,268.59,1.0
2018-09-09 22:34:00,88.65838,46.39448,888.038,265.58,89.0,1041.5,0.43,-0.6,71.85,66.1,47.41,199.49,268.85,66.82,47.87,199.35,268.63,1.0
2018-09-09 22:34:00,88.65838,46.39449,888.053,265.58,89.0,1041.4,0.32,-0.67,71.79,67.08,47.41,199.4,268.85,66.36,47.82,199.37,268.67,1.0
2018-09-09 22:34:00,88.65838,46.3945,888.066,265.57,89.0,1041.3,0.23,-0.88,71.73,66.95,47.41,199.49,268.65,66.02,47.75,199.39,268.69,1.0
2018-09-09 22:34:00,88.65838,46.3945,888.059,265.58,89.0,1041.4,0.23,-0.5,71.66,67.15,47.41,199.4,268.36,65.82,47.65,199.4,268.69,1.0
2018-09-09 22:34:00,88.65838,46.39451,888.063,265.58,89.0,1041.3,0.51,-0.36,71.59,68.0,47.41,199.49,268.65,65.8,47.53,199.39,268.66,1.0
2018-09-09 22:34:00,88.65838,46.39451,888.058,265.58,89.0,1041.4,0.52,-0.53,71.56,67.02,47.34,199.49,268.65,65.95,47.39,199.37,268.61,1.0
2018-09-09 22:34:00,88.65838,46.39452,888.051,265.58,89.0,1041.4,0.43,-0.68,71.54,65.9,47.41,199.49,268.56,66.25,47.24,199.35,268.56,1.0
2018-09-09 22:34:00,88.65838,46.39452,888.052,265.57,89.0,1041.4,0.44,-0.66,71.52,66.36,47.48,199.49,268.56,66.68,47.07,199.33,268.51,1.0
2018-09-09 22:34:00,88.65838,46.39453,888.081,265.58,89.0,1041.2,0.65,-0.69,71.45,66.89,47.34,199.57,268.36,67.19,46.91,199.29,268.47,1.0
2018-09-09 22:34:00,88.65838,46.39453,888.092,265.57,89.0,1041.1,0.59,-0.59,71.41,65.77,47.34,199.2,268.65,67.73,46.75,199.26,268.45,1.0
2018-09-09 22:34:00,88.65838,46.39454,888.086,265.57,89.0,1041.1,0.53,-0.66,71.37,65.9,47.41,199.4,268.56,68.22,46.61,199.23,268.46,1.0
2018-09-09 22:34:00,88.65838,46.39454,888.08,265.57,89.0,1041.2,0.49,-0.77,71.35,67.08,47.41,199.69,268.75,68.63,46.5,199.22,268.49,1.0
2018-09-09 22:34:00,88.65838,46.39454,888.08,265.57,89.0,1041.2,0.47,-0.81,71.33,66.56,47.41,199.69,268.56,68.92,46.44,199.19,268.5,1.0
2018-09-09 22:34:00,88.65838,46.39455,888.074,265.58,89.0,1041.2,0.41,-0.73,71.34,68.72,47.27,199.39,268.85,69.07,46.43,199.12,268.48,1.0
2018-09-09 22:34:00,88.65838,46.39455,888.094,265.58,89.0,1041.1,0.46,-0.57,71.35,66.89,47.48,199.47,268.65,69.07,46.49,199.13,268.65,1.0
2018-09-09 22:34:00,88.65838,46.39456,888.069,265.58,89.0,1041.3,0.6,-0.59,71.41,67.93,47.13,199.68,268.56,68.94,46.6,199.14,268.72,1.0
2018-09-09 22:34:00,88.65838,46.39456,888.051,265.58,89.0,1041.4,0.74,-0.58,71.53,66.75,47.41,199.39,268.57,68.71,46.77,199.17,268.73,1.0
2018-09-09 22:34:00,88.65838,46.39456,888.052,265.57,89.0,1041.4,0.95,-0.54,71.67,65.97,47.06,199.02,267.98,68.42,46.98,199.18,268.7,1.0
2018-09-09 22:34:00,88.65838,46.39456,888.06,265.57,89.0,1041.4,1.26,-0.51,71.82,66.89,46.99,198.19,267.55,68.11,47.22,199.17,268.65,1.0
2018-09-09 22:34:00,88.65838,46.39456,888.066,265.58,89.0,1041.3,1.35,-0.58,72.04,67.34,46.99,198.68,269.72,67.8,47.45,199.17,268.59,1.0
2018-09-09 22:34:00,88.65838,46.39456,888.05,265.57,89.0,1041.5,1.38,-0.59,72.24,67.74,47.2,198.98,268.71,67.54,47.66,199.14,268.52,1.0
2018-09-09 22:34:00,88.65838,46.39456,888.052,265.58,89.0,1041.4,1.47,-0.62,72.46,66.56,47.2,199.12,268.55,67.32,47.82,199.09,268.46,1.0
2018-09-09 22:34:00,88.65838,46.39456,888.066,265.58,89.0,1041.3,1.48,-0.62,72.73,67.47,47.34,199.48,268.45,67.14,47.92,199.1,268.43,1.0
2018-09-09 22:34:00,88.65838,46.39456,888.077,265.58,89.0,1041.2,1.41,-0.6,73.02,67.34,47.34,199.39,268.84,66.99,47.95,199.17,268.46,1.0
2018-09-09 22:34:00,88.65838,46.39456,888.078,265.57,89.0,1041.2,1.43,-0.62,73.31,67.67,47.41,199.29,268.65,66.84,47.88,199.22,268.55,1.0
2018-09-09 22:34:00,88.65838,46.39456,888.086,265.58,89.0,1041.1,1.34,-0.69,73.67,67.47,47.48,199.14,268.65,66.67,47.74,199.21,268.47,1.0
2018-09-09 22:34:00,88.65838,46.39456,888.104,265.58,89.0,1041.0,1.48,-0.66,74.06,66.75,47.2,199.08,268.65,66.43,47.52,199.21,268.5,1.0
2018-09-09 22:34:00,88.65838,46.39456,888.11,265.58,89.0,1040.9,1.7,-0.58,74.47,66.69,47.41,199.57,268.93,66.13,47.23,199.21,268.56,1.0
2018-09-09 22:34:00,88.65838,46.39456,888.107,265.58,89.0,1041.0,1.88,-0.54,74.93,67.6,47.27,199.85,268.37,65.77,46.9,199.21,268.64,1.0
2018-09-09 22:34:00,88.65838,46.39456,888.121,265.58,89.0,1040.9,1.97,-0.61,75.44,67.87,47.27,199.4,268.65,65.36,46.54,199.23,268.7,1.0
2018-09-09 22:34:00,88.65838,46.39457,888.098,265.58,89.0,1041.0,2.08,-0.71,75.95,66.75,47.41,199.49,268.46,64.93,46.18,199.26,268.75,1.0
2018-09-09 22:34:00,88.65838,46.39457,888.1,265.58,89.0,1041.0,2.15,-0.64,76.48,66.03,47.34,199.49,268.55,64.54,45.83,199.33,268.77,1.0
2018-09-09 22:34:00,88.65838,46.39457,888.08,265.58,89.0,1041.2,2.19,-0.51,77.01,66.3,47.34,199.49,268.45,64.22,45.52,199.41,268.76,1.0
2018-09-09 22:34:00,88.65838,46.39458,888.069,265.58,89.0,1041.3,2.15,-0.47,77.53,67.87,47.2,199.49,268.65,64.04,45.27,199.43,268.73,1.0
2018-09-09 22:34:00,88.65838,46.39458,888.098,265.59,89.0,1041.0,2.0,-0.56,78.06,66.95,47.2,199.48,268.85,64.01,45.09,199.41,268.69,1.0
2018-09-09 22:34:00,88.65838,46.39458,888.097,265.58,89.0,1041.1,1.81,-0.67,78.6,67.47,46.99,199.49,268.56,64.16,45.0,199.46,268.65,1.0
2018-09-09 22:34:00,88.65838,46.39458,888.095,265.58,89.0,1041.1,1.72,-0.65,79.09,67.34,47.2,199.2,268.38,64.48,45.0,199.58,268.61,1.0
2018-09-09 22:34:00,88.65838,46.39459,888.086,265.58,89.0,1041.1,1.63,-0.51,79.58,65.25,46.92,199.39,268.56,64.94,45.1,199.62,268.57,1.0
2018-09-09 22:34:00,88.65838,46.39459,888.091,265.58,89.0,1041.1,1.57,-0.49,80.07,66.49,46.79,199.3,268.36,65.47,45.28,199.67,268.6,1.0
2018-09-09 22:34:00,88.65838,46.39459,888.11,265.58,89.0,1040.9,1.56,-0.52,80.56,66.36,46.92,199.3,268.56,66.02,45.54,199.72,268.66,1.0
2018-09-09 22:34:00,88.65838,46.39459,888.111,265.58,89.0,1040.9,1.66,-0.4,81.05,66.17,46.79,199.24,268.46,66.49,45.86,199.69,268.65,1.0
2018-09-09 22:34:00,88.65838,46.39459,888.118,265.58,89.0,1040.9,1.77,-0.72,81.56,66.62,46.86,200.22,268.56,66.83,46.23,199.65,268.65,1.0
2018-09-09 22:34:00,88.65838,46.39458,888.126,265.58,89.0,1040.8,1.86,-0.75,82.01,67.15,46.72,199.75,268.57,66.95,46.61,199.69,268.65,1.0
2018-09-09 22:34:00,88.65838,46.39458,888.132,265.58,89.0,1040.8,1.99,-0.74,82.43,65.77,46.72,200.13,269.26,66.82,46.99,199.76,268.65,1.0
2018-09-09 22:34:00,88.65838,46.39458,888.136,265.58,89.0,1040.7,2.14,-0.68,82.81,65.51,46.51,200.14,269.24,66.42,47.34,199.81,268.66,1.0
2018-09-09 22:34:00,88.65838,46.39458,888.141,265.58,89.0,1040.7,2.25,-0.55,83.13,66.49,46.92,199.11,268.36,65.79,47.63,199.83,268.66,1.0
2018-09-09 22:34:00,88.65838,46.39458,888.128,265.58,89.0,1040.8,2.29,-0.67,83.4,68.06,46.72,199.2,268.85,64.96,47.87,199.86,268.67,1.0
2018-09-09 22:34:00,88.65838,46.39457,888.115,265.58,89.0,1040.9,2.14,-0.76,83.59,66.95,46.99,200.25,268.37,64.01,48.03,199.82,268.69,1.0
2018-09-09 22:34:00,88.65838,46.39457,888.111,265.58,89.0,1040.9,2.07,-0.72,83.71,67.15,46.92,200.33,268.96,63.03,48.11,199.86,268.7,1.0
2018-09-09 22:34:00,88.65838,46.39457,888.104,265.58,89.0,1041.0,2.06,-0.61,83.78,66.89,46.99,200.04,268.56,62.12,48.13,199.86,268.67,1.0
2018-09-09 22:34:00,88.65838,46.39456,888.091,265.57,89.0,1041.1,2.04,-0.52,83.81,65.58,46.99,199.39,268.56,61.37,48.08,199.88,268.62,1.0
2018-09-09 22:34:00,88.65838,46.39456,888.12,265.58,89.0,1040.9,1.97,-0.58,83.82,66.56,47.13,199.39,268.75,60.85,47.99,200.04,268.64,1.0
2018-09-09 22:34:00,88.65838,46.39456,888.127,265.58,89.0,1040.8,1.85,-0.95,83.77,65.51,47.06,199.48,268.56,60.61,47.86,200.07,268.66,1.0
2018-09-09 22:34:00,88.65838,46.39456,888.116,265.57,89.0,1040.9,1.64,-1.22,83.72,66.23,46.99,199.48,268.56,60.67,47.7,199.99,268.66,1.0
2018-09-09 22:34:00,88.65838,46.39456,888.116,265.57,89.0,1040.9,1.5,-1.13,83.61,64.4,47.06,199.3,268.36,61.01,47.53,199.86,268.71,1.0
2018-09-09 22:34:00,88.65838,46.39455,888.134,265.57,89.0,1040.7,1.42,-0.92,83.45,65.38,46.92,200.0,268.85,61.58,47.35,199.77,268.75,1.0
2018-09-09 22:34:00,88.65838,46.39456,888.149,265.57,89.0,1040.6,1.33,-0.97,83.26,65.31,47.06,200.7,268.36,62.32,47.17,199.71,268.72,1.0
2018-09-09 22:34:00,88.65838,46.39457,888.12,265.57,89.0,1040.9,1.24,-0.85,83.01,66.56,47.2,199.45,268.63,63.13,47.0,199.65,268.67,1.0
2018-09-09 22:34:00,88.65838,46.39458,888.121,265.57,89.0,1040.9,1.13,-0.78,82.73,65.05,47.13,199.49,268.44,63.94,46.83,199.6,268.62,1.0
2018-09-09 22:34:00,88.65838,46.39459,888.125,265.57,89.0,1040.8,1.07,-0.88,82.4,65.58,47.13,199.3,269.29,64.67,46.67,199.56,268.58,1.0
2018-09-09 22:34:00,88.65838,46.39459,888.128,265.57,89.0,1040.8,1.02,-0.96,82.04,64.27,47.13,199.48,269.07,65.25,46.52,199.52,268.54,1.0
2018-09-09 22:34:00,88.65838,46.3946,888.133,265.57,89.0,1040.8,0.96,-0.94,81.62,64.99,47.2,199.48,268.36,65.63,46.41,199.45,268.51,1.0
2018-09-09 22:34:00,88.65838,46.39461,888.115,265.57,89.0,1040.9,0.91,-1.05,81.15,66.3,46.99,199.48,268.64,65.81,46.32,199.31,268.5,1.0
2018-09-09 22:34:00,88.65838,46.39462,888.123,265.57,89.0,1040.8,0.82,-1.05,80.64,65.44,46.99,199.39,268.75,65.79,46.29,199.29,268.51,1.0
2018-09-09 22:34:00,88.65838,46.39463,888.144,265.57,89.0,1040.7,0.77,-1.11,80.05,65.44,46.79,199.4,268.66,65.61,46.31,199.27,268.53,1.0
2018-09-09 22:34:00,88.65838,46.39463,888.151,265.57,89.0,1040.6,0.77,-1.18,79.45,64.72,46.99,199.49,268.37,65.3,46.39,199.32,268.57,1.0
2018-09-09 22:34:00,88.65838,46.39463,888.143,265.56,89.0,1040.7,0.79,-1.15,78.82,65.05,46.86,199.39,268.65,64.93,46.54,199.38,268.64,1.0
2018-09-09 22:34:00,88.65838,46.39464,888.175,265.57,89.0,1040.4,0.79,-0.93,78.19,65.9,47.13,199.41,268.54,64.55,46.76,199.34,268.69,1.0
2018-09-09 22:34:00,88.65838,46.39464,888.159,265.56,89.0,1040.5,0.94,-1.02,77.49,64.92,46.99,199.31,268.45,64.21,47.02,199.3,268.73,1.0
2018-09-09 22:34:00,88.65838,46.39464,888.161,265.56,89.0,1040.5,1.01,-0.92,76.87,65.9,46.92,199.3,268.65,63.95,47.32,199.27,268.76,1.0
2018-09-09 22:34:00,88.65838,46.39465,888.172,265.56,89.0,1040.4,1.16,-0.88,76.23,65.51,46.79,200.01,269.29,63.8,47.65,199.26,268.77,1.0
2018-09-09 22:34:00,88.65838,46.39465,888.172,265.57,89.0,1040.4,1.38,-0.84,75.59,65.77,46.79,200.22,269.49,63.77,47.96,199.25,268.77,1.0
2018-09-09 22:34:00,88.65838,46.39465,888.139,265.56,89.0,1040.7,1.56,-0.78,74.96,64.99,46.99,199.39,268.47,63.86,48.26,199.27,268.75,1.0
2018-09-09 22:34:00,88.65838,46.39466,888.15,265.56,89.0,1040.6,1.24,-1.01,74.32,64.86,46.92,199.39,268.56,64.05,48.5,199.3,268.72,1.0
2018-09-09 22:35:00,88.65838,46.39466,888.162,265.56,89.0,1040.5,1.0,-0.93,73.63,65.77,47.06,199.68,268.65,64.32,48.69,199.34,268.67,1.0
2018-09-09 22:35:00,88.65838,46.39466,888.166,265.56,89.0,1040.5,1.0,-0.92,72.93,64.27,47.13,199.3,268.75,64.66,48.82,199.39,268.63,1.0
2018-09-09 22:35:00,88.65838,46.39467,888.156,265.56,89.0,1040.6,1.02,-0.93,72.25,65.05,47.13,199.38,268.26,65.04,48.87,199.36,268.52,1.0
2018-09-09 22:35:00,88.65838,46.39466,888.139,265.57,89.1,1040.7,1.03,-0.94,71.62,63.68,47.34,199.18,268.63,65.43,48.87,199.3,268.4,1.0
2018-09-09 22:35:00,88.65838,46.39466,888.153,265.56,89.0,1040.6,1.15,-1.03,70.98,65.71,47.2,199.38,268.64,65.83,48.81,199.32,268.38,1.0
2018-09-09 22:35:00,88.65838,46.39466,888.18,265.56,89.0,1040.4,1.22,-0.92,70.38,64.86,47.34,199.2,268.24,66.21,48.72,199.32,268.38,1.0
2018-09-09 22:35:00,88.65837,46.39465,888.186,265.56,89.0,1040.3,1.48,-0.81,69.8,65.71,47.34,199.2,268.26,66.57,48.61,199.31,268.4,1.0
2018-09-09 22:35:00,88.65837,46.39465,888.182,265.56,89.0,1040.3,1.68,-0.85,69.24,65.77,47.34,199.2,268.56,66.92,48.49,199.27,268.42,1.0
2018-09-09 22:35:00,88.65837,46.39464,888.189,265.56,89.1,1040.3,1.75,-0.99,68.72,65.38,47.34,199.29,268.56,67.23,48.38,199.25,268.45,1.0
2018-09-09 22:35:00,88.65837,46.39464,888.231,265.57,89.1,1039.9,1.75,-1.01,68.23,65.58,47.48,199.29,268.85,67.52,48.29,199.28,268.51,1.0
2018-09-09 22:35:00,88.65837,46.39463,888.233,265.56,89.1,1039.9,1.83,-0.85,67.67,65.25,47.34,199.39,268.75,67.79,48.21,199.28,268.56,1.0
2018-09-09 22:35:00,88.65837,46.39463,888.209,265.56,89.1,1040.1,1.63,-0.85,67.18,64.72,47.62,199.38,268.75,68.03,48.16,199.29,268.61,1.0
2018-09-09 22:35:00,88.65837,46.39462,888.186,265.56,89.1,1040.3,1.36,-0.88,66.72,64.4,47.41,199.35,268.13,68.25,48.12,199.33,268.64,1.0
2018-09-09 22:35:00,88.65837,46.39462,888.175,265.56,89.1,1040.4,1.17,-0.88,66.28,66.03,47.34,199.25,268.07,68.45,48.1,199.38,268.65,1.0
2018-09-09 22:35:00,88.65837,46.39462,888.186,265.56,89.1,1040.3,1.2,-0.78,65.87,65.51,47.48,199.87,268.35,68.64,48.09,199.44,268.63,1.0
2018-09-09 22:35:00,88.65837,46.39461,888.202,265.57,89.1,1040.2,1.1,-0.68,65.47,65.97,47.55,199.31,268.56,68.81,48.08,199.51,268.61,1.0
2018-09-09 22:35:00,88.65837,46.39461,888.196,265.56,89.1,1040.2,1.31,-0.75,65.1,65.44,47.62,199.2,268.27,68.97,48.07,199.55,268.61,1.0
2018-09-09 22:35:00,88.65837,46.3946,888.194,265.56,89.1,1040.2,1.38,-0.79,64.81,65.9,47.55,199.29,268.65,69.12,48.06,199.61,268.64,1.0
2018-09-09 22:35:00,88.65837,46.3946,888.197,265.56,89.1,1040.2,1.42,-0.79,64.56,66.36,47.48,199.49,268.36,69.25,48.03,199.65,268.67,1.0
2018-09-09 22:35:00,88.65837,46.39459,888.198,265.56,89.1,1040.2,1.47,-0.73,64.33,66.1,47.41,199.31,268.83,69.36,47.99,199.65,268.69,1.0
2018-09-09 22:35:00,88.65837,46.39458,888.184,265.56,89.1,1040.3,1.52,-0.64,64.1,66.62,47.62,199.37,268.68,69.46,47.95,199.59,268.7,1.0
2018-09-09 22:35:00,88.65837,46.39458,888.21,265.57,89.1,1040.1,1.36,-0.65,63.92,65.97,47.75,199.04,268.99,69.53,47.88,199.55,268.74,1.0
2018-09-09 22:35:00,88.65837,46.39457,888.196,265.57,89.1,1040.2,1.21,-0.68,63.82,65.58,47.62,199.63,269.17,69.59,47.81,199.51,268.79,1.0
2018-09-09 22:35:00,88.65837,46.39457,888.199,265.57,89.1,1040.2,1.16,-0.68,63.76,66.95,47.62,199.25,268.67,69.63,47.73,199.46,268.85,1.0
2018-09-09 22:35:00,88.65837,46.39456,888.222,265.57,89.1,1040.0,1.15,-0.64,63.76,65.51,47.41,199.49,268.54,69.66,47.63,199.42,268.9,1.0
2018-09-09 22:35:00,88.65837,46.39456,888.22,265.56,89.1,1040.0,1.1,-0.62,63.84,66.36,47.55,199.21,268.73,69.69,47.53,199.38,268.95,1.0
2018-09-09 22:35:00,88.65837,46.39455,888.227,265.57,89.1,1040.0,1.03,-0.74,63.99,66.56,47.75,199.48,268.84,69.74,47.43,199.35,268.96,1.0
2018-09-09 22:35:00,88.65837,46.39455,888.229,265.57,89.1,1040.0,1.06,-0.6,64.2,66.49,47.55,199.39,268.36,69.81,47.32,199.35,268.92,1.0
2018-09-09 22:35:00,88.65837,46.39455,888.226,265.57,89.1,1040.0,1.03,-0.64,64.51,67.08,47.68,199.39,268.55,69.92,47.23,199.32,268.81,1.0
2018-09-09 22:35:00,88.65837,46.39455,888.216,265.57,89.1,1040.1,1.03,-0.66,64.88,67.47,47.62,199.3,268.56,70.07,47.15,199.29,268.69,1.0
2018-09-09 22:35:00,88.65837,46.39454,888.199,265.57,89.1,1040.2,1.1,-0.58,65.29,67.54,47.55,199.49,268.85,70.25,47.08,199.27,268.6,1.0
2018-09-09 22:35:00,88.65837,46.39454,888.179,265.57,89.1,1040.4,1.17,-0.57,65.78,66.69,47.41,199.48,268.56,70.44,47.05,199.25,268.5,1.0
2018-09-09 22:35:00,88.65837,46.39454,888.253,265.57,89.1,1039.8,1.33,-0.59,66.3,66.69,47.75,199.49,268.35,70.62,47.03,199.23,268.41,1.0
2018-09-09 22:35:00,88.65837,46.39454,888.283,265.57,89.1,1039.5,1.43,-0.49,66.89,66.75,47.41,199.48,268.55,70.75,47.04,199.2,268.34,1.0
2018-09-09 22:35:00,88.65837,46.39454,888.268,265.57,89.1,1039.6,1.51,-0.48,67.51,66.75,47.41,199.2,268.65,70.79,47.06,199.18,268.3,1.0
2018-09-09 22:35:00,88.65837,46.39454,888.236,265.57,89.1,1039.9,1.51,-0.56,68.17,67.87,47.62,199.48,268.65,70.69,47.09,199.16,268.3,1.0
2018-09-09 22:35:00,88.65837,46.39454,888.234,265.56,89.1,1039.9,1.39,-0.6,68.87,66.23,47.41,199.4,268.65,70.44,47.12,199.16,268.33,1.0
2018-09-09 22:35:00,88.65837,46.39454,888.251,265.57,89.1,1039.8,1.54,-0.6,69.61,67.74,47.48,199.3,268.54,70.0,47.12,199.16,268.4,1.0
2018-09-09 22:35:00,88.65837,46.39453,888.233,265.57,89.1,1039.9,1.51,-0.66,70.39,68.39,47.55,199.39,268.55,69.39,47.1,199.18,268.49,1.0
2018-09-09 22:35:00,88.65837,46.39453,888.223,265.57,89.1,1040.0,1.47,-0.64,71.2,67.87,47.41,199.2,268.94,68.63,47.03,199.2,268.59,1.0
2018-09-09 22:35:00,88.65837,46.39453,888.228,265.57,89.1,1040.0,1.52,-0.45,72.05,68.65,47.34,199.39,268.45,67.76,46.92,199.25,268.74,1.0
2018-09-09 22:35:00,88.65837,46.39453,888.235,265.57,89.1,1039.9,1.65,-0.18,72.94,66.89,47.48,199.29,268.64,66.86,46.77,199.31,268.95,1.0
2018-09-09 22:35:00,88.65837,46.39453,888.234,265.57,89.1,1039.9,1.63,-0.35,73.94,68.06,47.55,199.3,268.65,65.99,46.57,199.29,269.1,1.0
2018-09-09 22:35:00,88.65837,46.39453,888.237,265.57,89.1,1039.9,1.58,-0.43,74.86,67.15,47.55,199.4,268.58,65.23,46.35,199.28,269.13,1.0
2018-09-09 22:35:00,88.65837,46.39453,888.234,265.57,89.1,1039.9,1.54,-0.77,75.77,68.65,47.41,199.22,268.39,64.64,46.13,199.27,269.12,1.0
2018-09-09 22:35:00,88.65837,46.39453,888.24,265.57,89.1,1039.9,1.48,-0.94,76.63,66.56,47.2,199.51,268.99,64.28,45.92,199.24,269.09,1.0
2018-09-09 22:35:00,88.65837,46.39454,888.256,265.58,89.1,1039.7,1.42,-0.85,77.48,67.08,47.55,199.62,269.85,64.15,45.76,199.21,269.03,1.0
2018-09-09 22:35:00,88.65837,46.39454,888.248,265.57,89.1,1039.8,1.4,-0.8,78.29,67.28,47.13,198.87,269.64,64.25,45.65,199.2,268.94,1.0
2018-09-09 22:35:00,88.65837,46.39454,888.244,265.57,89.1,1039.8,1.31,-0.86,79.12,67.93,47.34,199.18,268.71,64.54,45.62,199.18,268.91,1.0
2018-09-09 22:35:00,88.65837,46.39454,888.255,265.57,89.1,1039.8,1.46,-0.96,79.92,66.75,47.2,199.22,268.66,64.95,45.67,199.19,268.89,1.0
2018-09-09 22:35:00,88.65837,46.39454,888.268,265.57,89.1,1039.6,1.53,-0.97,80.71,66.69,47.13,199.32,268.56,65.4,45.8,199.21,268.89,1.0
2018-09-09 22:35:00,88.65837,46.39454,888.269,265.58,89.1,1039.6,1.66,-0.92,81.46,66.75,47.06,199.46,268.44,65.81,46.0,199.24,268.84,1.0
2018-09-09 22:35:00,88.65837,46.39454,888.249,265.57,89.1,1039.8,1.99,-0.89,82.2,67.02,46.99,199.54,268.02,66.09,46.26,199.26,268.73,1.0
2018-09-09 22:35:00,88.65837,46.39453,888.25,265.58,89.1,1039.8,2.13,-1.04,82.92,66.89,46.99,199.5,268.75,66.2,46.54,199.36,268.64,1.0
2018-09-09 22:35:00,88.65837,46.39453,888.262,265.57,89.1,1039.7,2.12,-1.08,83.55,67.34,46.99,199.32,268.66,66.08,46.83,199.43,268.65,1.0
2018-09-09 22:35:00,88.65837,46.39452,888.262,265.58,89.1,1039.7,2.1,-1.13,84.1,66.69,46.99,199.41,268.56,65.72,47.11,199.48,268.65,1.0
2018-09-09 22:35:00,88.65837,46.39451,888.262,265.58,89.1,1039.7,1.95,-1.21,84.58,66.62,46.99,199.22,268.66,65.15,47.34,199.51,268.63,1.0
2018-09-09 22:35:00,88.65837,46.3945,888.271,265.58,89.1,1039.6,1.68,-1.35,85.03,66.95,46.92,199.41,268.66,64.41,47.51,199.49,268.61,1.0
2018-09-09 22:35:00,88.65837,46.3945,888.255,265.58,89.1,1039.8,1.43,-1.52,85.41,67.28,47.2,199.41,268.66,63.57,47.62,199.44,268.61,1.0
2018-09-09 22:35:00,88.65837,46.39449,888.259,265.58,89.1,1039.7,1.13,-1.66,85.68,67.93,47.13,199.23,268.85,62.69,47.67,199.36,268.54,1.0
2018-09-09 22:35:00,88.65837,46.39448,888.273,265.57,89.1,1039.6,1.13,-1.57,85.87,66.23,47.13,199.42,268.75,61.86,47.67,199.2,268.46,1.0
2018-09-09 22:35:00,88.65837,46.39448,888.277,265.57,89.1,1039.6,1.11,-1.53,85.98,66.56,46.99,199.22,268.66,61.14,47.63,199.04,268.32,1.0
2018-09-09 22:35:00,88.65837,46.39447,888.273,265.57,89.1,1039.6,1.05,-1.59,86.07,66.56,47.2,199.22,268.66,60.59,47.56,198.9,268.15,1.0
2018-09-09 22:35:00,88.65837,46.39446,888.285,265.57,89.1,1039.5,1.14,-1.68,86.12,66.23,47.13,199.22,268.85,60.24,47.48,198.75,268.0,1.0
2018-09-09 22:35:00,88.65837,46.39446,888.249,265.57,89.1,1039.8,1.37,-1.58,86.06,65.9,47.34,199.41,268.65,60.12,47.41,198.62,267.88,1.0
2018-09-09 22:35:00,88.65837,46.39446,888.251,265.57,89.1,1039.8,1.45,-1.45,85.98,65.58,47.27,198.78,268.55,60.2,47.36,198.6,267.85,1.0
2018-09-09 22:35:00,88.65837,46.39445,888.279,265.57,89.1,1039.6,1.47,-1.54,85.84,65.18,47.13,198.81,267.86,60.47,47.32,198.63,267.86,1.0
2018-09-09 22:35:00,88.65837,46.39445,888.297,265.57,89.1,1039.4,1.38,-1.62,85.64,66.62,47.06,198.68,267.28,60.88,47.29,198.69,267.88,1.0
2018-09-09 22:35:00,88.65837,46.39445,888.278,265.57,89.1,1039.6,1.24,-1.55,85.39,65.38,46.92,198.56,267.35,61.39,47.27,198.78,267.9,1.0
2018-09-09 22:35:00,88.65837,46.39445,888.304,265.57,89.1,1039.3,1.18,-1.63,85.05,65.31,47.13,198.3,267.48,61.92,47.24,198.89,267.91,1.0
2018-09-09 22:35:00,88.65837,46.39444,888.281,265.56,89.1,1039.5,1.08,-1.62,84.66,65.12,47.2,199.25,268.4,62.44,47.2,198.88,268.03,1.0
2018-09-09 22:35:00,88.65837,46.39444,888.288,265.56,89.1,1039.5,1.0,-1.57,84.23,64.72,47.41,199.23,268.46,62.9,47.13,198.86,268.13,1.0
2018-09-09 22:35:00,88.65837,46.39444,888.307,265.56,89.1,1039.3,1.04,-1.53,83.76,65.58,47.13,199.32,268.65,63.26,47.05,198.85,268.28,1.0
2018-09-09 22:35:00,88.65837,46.39444,888.314,265.56,89.1,1039.3,1.14,-1.52,83.23,64.72,47.34,199.3,268.24,63.52,46.94,198.88,268.48,1.0
2018-09-09 22:35:00,88.65837,46.39443,888.308,265.56,89.1,1039.3,1.1,-1.5,82.68,65.97,46.99,199.6,268.11,63.67,46.82,198.91,268.62,1.0
2018-09-09 22:35:00,88.65837,46.39443,888.317,265.56,89.1,1039.2,1.11,-1.52,82.08,64.53,47.06,198.3,269.01,63.74,46.7,198.94,268.73,1.0
2018-09-09 22:35:00,88.65837,46.39443,888.314,265.56,89.1,1039.3,1.19,-1.51,81.43,65.97,47.34,197.41,268.87,63.75,46.6,198.89,268.77,1.0
2018-09-09 22:35:00,88.65837,46.39443,888.304,265.56,89.1,1039.3,1.21,-1.55,80.75,64.07,47.13,198.32,268.89,63.74,46.53,198.84,268.79,1.0
2018-09-09 22:35:00,88.65837,46.39443,888.303,265.55,89.1,1039.4,1.18,-1.59,80.03,64.86,47.2,199.31,269.22,63.75,46.52,198.81,268.82,1.0
2018-09-09 22:35:00,88.65837,46.39444,888.305,265.56,89.2,1039.3,1.24,-1.43,79.19,64.86,46.99,199.23,268.36,63.82,46.57,198.8,268.85,1.0
2018-09-09 22:35:00,88.65837,46.39444,888.292,265.55,89.1,1039.5,1.22,-1.46,78.41,64.92,47.2,199.41,268.83,63.97,46.69,198.8,268.92,1.0
2018-09-09 22:35:00,88.65837,46.39445,888.304,265.55,89.2,1039.3,1.14,-1.4,77.58,66.56,46.99,199.13,268.55,64.21,46.87,198.92,268.87,1.0
2018-09-09 22:35:00,88.65837,46.39445,888.291,265.55,89.2,1039.5,1.25,-1.31,76.76,63.94,46.99,199.32,268.55,64.53,47.1,199.12,268.83,1.0
2018-09-09 22:35:00,88.65837,46.39445,888.28,265.55,89.2,1039.6,1.34,-1.35,75.93,64.92,46.92,199.22,268.64,64.91,47.38,199.27,268.74,1.0
2018-09-09 22:35:00,88.65837,46.39446,888.342,265.55,89.2,1039.0,1.16,-1.62,75.12,64.66,46.92,199.41,268.45,65.3,47.67,199.34,268.6,1.0
2018-09-09 22:35:00,88.65837,46.39446,888.355,265.55,89.2,1038.9,0.97,-1.6,74.31,64.59,47.06,199.22,268.85,65.66,47.96,199.38,268.6,1.0
2018-09-09 22:35:00,88.65837,46.39446,888.338,265.56,89.1,1039.1,1.0,-1.63,73.44,64.72,47.06,199.41,268.56,65.95,48.22,199.39,268.61,1.0
2018-09-09 22:35:00,88.65837,46.39447,888.338,265.56,89.1,1039.1,0.86,-1.51,72.59,64.92,47.34,199.22,268.56,66.12,48.45,199.38,268.6,1.0
2018-09-09 22:35:00,88.65837,46.39447,888.337,265.56,89.2,1039.1,0.79,-1.51,71.73,65.31,47.13,199.42,268.11,66.17,48.63,199.34,268.59,1.0
2018-09-09 22:35:00,88.65837,46.39447,888.336,265.55,89.2,1039.1,0.8,-1.56,70.87,64.66,47.13,199.05,267.52,66.1,48.77,199.29,268.58,1.0
2018-09-09 22:35:00,88.65837,46.39447,888.368,265.55,89.2,1038.8,0.74,-1.49,70.03,65.12,47.27,199.22,268.76,65.94,48.85,199.23,268.56,1.0
2018-09-09 22:35:00,88.65837,46.39447,888.34,265.56,89.2,1039.0,0.82,-1.59,69.21,64.72,47.2,199.3,268.56,65.74,48.89,199.18,268.53,1.0
2018-09-09 22:35:00,88.65837,46.39447,888.325,265.56,89.2,1039.2,0.82,-1.66,68.4,65.44,47.34,199.22,268.65,65.58,48.9,199.15,268.51,1.0
2018-09-09 22:35:00,88.65837,46.39447,888.335,265.56,89.2,1039.1,0.77,-1.61,67.61,66.03,47.48,199.22,268.66,65.51,48.89,199.14,268.48,1.0
2018-09-09 22:35:00,88.65837,46.39447,888.351,265.55,89.2,1039.0,0.71,-1.49,66.8,64.92,47.34,199.32,268.56,65.6,48.86,199.15,268.53,1.0
2018-09-09 22:35:00,88.65837,46.39446,888.35,265.55,89.2,1039.0,0.67,-1.37,65.98,65.9,47.41,199.32,268.36,65.9,48.81,199.14,268.57,1.0
2018-09-09 22:35:00,88.65837,46.39446,888.379,265.55,89.2,1038.7,0.5,-1.3,65.16,63.61,47.62,199.13,268.43,66.42,48.75,199.07,268.43,1.0
2018-09-09 22:35:00,88.65837,46.39446,888.372,265.55,89.2,1038.8,0.49,-1.22,64.38,64.99,47.48,199.32,268.56,67.16,48.67,199.05,268.42,1.0
2018-09-09 22:35:00,88.65837,46.39446,888.365,265.55,89.2,1038.8,0.41,-1.29,63.69,65.58,47.55,199.32,268.56,68.07,48.56,199.05,268.42,1.0
2018-09-09 22:35:00,88.65837,46.39446,888.374,265.55,89.2,1038.8,0.47,-1.29,63.02,65.64,47.55,199.32,268.65,69.09,48.43,199.02,268.43,1.0
2018-09-09 22:35:00,88.65837,46.39446,888.393,265.56,89.2,1038.6,0.68,-1.19,62.36,64.27,47.68,198.87,268.18,70.13,48.26,199.0,268.46,1.0
2018-09-09 22:35:00,88.65837,46.39446,888.377,265.56,89.2,1038.7,0.82,-1.2,61.74,65.25,47.55,197.76,267.36,71.11,48.07,199.0,268.49,1.0
2018-09-09 22:35:00,88.65837,46.39446,888.364,265.55,89.2,1038.9,0.88,-1.26,61.23,64.66,47.62,198.37,268.19,71.94,47.85,198.99,268.53,1.0
2018-09-09 22:35:00,88.65837,46.39445,888.359,265.56,89.2,1038.9,1.12,-1.21,60.73,65.71,47.62,198.87,268.6,72.58,47.62,198.98,268.58,1.0
2018-09-09 22:35:00,88.65837,46.39445,888.371,265.56,89.2,1038.8,1.18,-1.12,60.3,67.02,47.68,198.66,268.67,72.97,47.39,198.97,268.62,1.0
2018-09-09 22:35:00,88.65837,46.39445,888.386,265.56,89.2,1038.7,1.06,-1.11,59.92,66.49,47.75,198.92,268.65,73.13,47.19,198.97,268.66,1.0
2018-09-09 22:35:00,88.65837,46.39445,888.377,265.56,89.2,1038.7,0.89,-1.21,59.58,66.36,47.62,199.23,268.56,73.08,47.03,199.01,268.72,1.0
2018-09-09 22:35:00,88.65837,46.39444,888.383,265.56,89.2,1038.7,0.69,-1.13,59.31,66.56,47.62,199.14,268.56,72.84,46.91,199.16,268.85,1.0
2018-09-09 22:35:00,88.65837,46.39444,888.372,265.55,89.2,1038.8,0.44,-1.23,59.22,66.49,47.55,199.42,268.66,72.5,46.86,199.26,268.85,1.0
2018-09-09 22:35:00,88.65837,46.39444,888.364,265.56,89.2,1038.9,0.43,-1.25,59.19,66.69,47.68,199.31,268.84,72.09,46.87,199.36,268.83,1.0
2018-09-09 22:35:00,88.65837,46.39444,888.37,265.56,89.2,1038.8,0.56,-1.2,59.26,66.89,47.41,199.03,268.74,71.67,46.94,199.44,268.79,1.0
2018-09-09 22:35:00,88.65837,46.39444,888.392,265.55,89.2,1038.6,0.71,-1.19,59.44,67.41,47.41,199.42,268.35,71.28,47.04,199.49,268.74,1.0
2018-09-09 22:35:00,88.65837,46.39443,888.396,265.55,89.2,1038.6,0.72,-1.43,59.74,66.82,47.48,199.25,268.84,70.94,47.17,199.47,268.69,1.0
2018-09-09 22:35:00,88.65837,46.39443,888.39,265.55,89.2,1038.6,0.84,-1.39,60.06,66.95,47.41,199.5,268.65,70.64,47.31,199.44,268.64,1.0
2018-09-09 22:35:00,88.65837,46.39442,888.407,265.55,89.2,1038.5,0.8,-1.39,60.47,67.67,47.62,199.54,268.73,70.37,47.43,199.37,268.6,1.0
2018-09-09 22:35:00,88.65837,46.39441,888.421,265.55,89.2,1038.4,0.71,-1.33,60.97,68.06,47.41,199.32,268.55,70.12,47.52,199.29,268.59,1.0
2018-09-09 22:35:00,88.65837,46.39441,888.419,265.56,89.2,1038.4,0.57,-1.25,61.53,67.28,47.48,199.22,268.56,69.88,47.59,199.19,268.59,1.0
2018-09-09 22:35:00,88.65837,46.3944,888.424,265.55,89.2,1038.4,0.38,-1.23,62.14,67.87,47.41,199.22,268.85,69.62,47.62,199.1,268.61,1.0
2018-09-09 22:35:00,88.65837,46.39439,888.43,265.55,89.2,1038.3,0.2,-1.34,62.86,66.56,47.55,199.23,268.76,69.34,47.63,199.01,268.64,1.0
2018-09-09 22:35:00,88.65837,46.39438,888.438,265.55,89.2,1038.2,0.21,-1.33,63.63,66.89,47.48,199.13,268.84,69.05,47.62,198.95,268.68,1.0
2018-09-09 22:35:00,88.65837,46.39438,888.426,265.55,89.2,1038.3,0.26,-1.33,64.44,68.78,47.62,199.41,268.36,68.76,47.62,198.9,268.68,1.0
2018-09-09 22:35:00,88.65837,46.39437,888.409,265.55,89.2,1038.5,0.35,-1.35,65.31,67.87,47.41,199.22,268.65,68.5,47.62,198.88,268.66,1.0
2018-09-09 22:35:00,88.65837,46.39436,888.414,265.55,89.2,1038.4,0.52,-1.35,66.25,68.65,47.62,199.69,268.64,68.28,47.63,198.9,268.65,1.0
2018-09-09 22:35:00,88.65837,46.39436,888.414,265.54,89.2,1038.4,0.71,-1.28,67.2,66.75,47.68,199.32,268.54,68.11,47.66,198.94,268.62,1.0
2018-09-09 22:35:00,88.65837,46.39435,888.43,265.55,89.2,1038.3,0.83,-1.36,68.22,67.47,47.48,199.41,268.85,67.99,47.7,198.98,268.56,1.0
2018-09-09 22:35:00,88.65837,46.39434,888.435,265.55,89.2,1038.3,0.84,-1.47,69.3,68.39,47.55,199.03,268.15,67.92,47.72,199.03,268.49,1.0
2018-09-09 22:35:00,88.65837,46.39433,888.438,265.55,89.2,1038.2,0.84,-1.46,70.4,67.28,47.41,199.14,268.17,67.87,47.73,199.05,268.41,1.0
2018-09-09 22:35:00,88.65837,46.39432,888.445,265.55,89.2,1038.2,0.83,-1.34,71.53,67.8,47.34,199.31,268.36,67.83,47.69,199.07,268.34,1.0
2018-09-09 22:35:00,88.65837,46.3943,888.439,265.54,89.3,1038.2,0.76,-1.32,72.66,67.28,47.34,198.86,268.36,67.76,47.6,199.06,268.28,1.0
2018-09-09 22:35:00,88.65837,46.39429,888.428,265.55,89.2,1038.3,0.71,-1.18,73.85,67.74,47.55,199.04,268.64,67.63,47.45,199.04,268.26,1.0
2018-09-09 22:35:00,88.65837,46.39427,888.424,265.55,89.2,1038.4,0.71,-1.05,75.08,67.93,47.82,199.13,268.55,67.43,47.25,199.01,268.27,1.0
2018-09-09 22:35:00,88.65837,46.39426,888.43,265.55,89.2,1038.3,0.66,-1.07,76.31,67.67,47.55,199.22,268.83,67.14,47.01,198.99,268.35,1.0
2018-09-09 22:35:00,88.65837,46.39425,888.439,265.56,89.2,1038.2,0.55,-1.13,77.54,67.74,47.68,199.04,268.64,66.77,46.74,198.99,268.4,1.0
2018-09-09 22:35:00,88.65837,46.39423,888.436,265.56,89.2,1038.3,0.44,-1.09,78.81,68.06,47.48,199.22,268.83,66.32,46.49,198.98,268.39,1.0
2018-09-09 22:35:00,88.65837,46.39422,888.424,265.56,89.3,1038.4,0.58,-1.18,80.06,68.13,47.62,199.13,268.74,65.82,46.26,198.99,268.46,1.0
2018-09-09 22:35:00,88.65837,46.39421,888.43,265.56,89.3,1038.3,0.64,-1.13,81.33,67.34,47.62,199.13,268.64,65.27,46.1,199.02,268.52,1.0
2018-09-09 22:35:00,88.65837,46.39419,888.436,265.56,89.3,1038.3,0.84,-1.07,82.56,67.87,47.55,199.13,268.64,64.72,46.0,199.03,268.55,1.0
2018-09-09 22:35:00,88.65837,46.39418,888.44,265.56,89.3,1038.2,1.04,-1.06,83.79,67.28,47.2,199.23,268.12,64.16,45.97,199.04,268.55,1.0
2018-09-09 22:35:00,88.65837,46.39416,888.446,265.56,89.3,1038.2,1.13,-1.11,84.95,67.15,47.2,199.14,267.36,63.63,46.02,199.06,268.51,1.0
2018-09-09 22:35:00,88.65837,46.39414,888.419,265.56,89.3,1038.4,1.16,-1.12,86.01,67.34,47.13,199.14,268.74,63.12,46.11,199.1,268.45,1.0
2018-09-09 22:35:00,88.65837,46.39412,888.403,265.56,89.3,1038.5,1.16,-1.16,86.98,67.28,47.13,199.22,268.35,62.65,46.24,199.14,268.37,1.0
2018-09-09 22:35:00,88.65837,46.39409,888.404,265.56,89.3,1038.5,1.0,-1.23,87.89,66.69,47.2,198.75,268.64,62.23,46.38,199.16,268.29,1.0
2018-09-09 22:35:00,88.65837,46.39407,888.412,265.56,89.3,1038.5,0.84,-1.27,88.72,68.52,47.2,198.72,268.55,61.85,46.51,199.16,268.23,1.0
2018-09-09 22:35:00,88.65837,46.39405,888.419,265.56,89.3,1038.4,0.71,-1.27,89.42,66.3,47.27,199.1,268.66,61.54,46.6,199.15,268.24,1.0
2018-09-09 22:35:00,88.65837,46.39402,888.419,265.56,89.3,1038.4,0.56,-1.25,90.05,66.56,47.27,199.22,268.65,61.29,46.66,199.13,268.32,1.0
2018-09-09 22:35:00,88.65837,46.394,888.427,265.56,89.3,1038.3,0.46,-1.33,90.61,66.17,47.34,199.22,268.54,61.11,46.7,199.1,268.35,1.0
2018-09-09 22:35:00,88.65837,46.39398,888.426,265.56,89.3,1038.3,0.51,-1.32,91.04,66.1,47.27,199.23,268.55,61.01,46.72,199.08,268.4,1.0
2018-09-09 22:35:00,88.65837,46.39396,888.419,265.56,89.3,1038.4,0.56,-1.33,91.38,66.69,47.13,199.13,268.45,60.98,46.74,199.09,268.45,1.0
2018-09-09 22:35:00,88.65838,46.39393,888.41,265.56,89.3,1038.5,0.59,-1.43,91.66,66.89,47.06,199.13,268.64,61.01,46.8,199.06,268.48,1.0
2018-09-09 22:35:00,88.65838,46.39391,888.411,265.56,89.3,1038.5,0.65,-1.55,91.83,66.3,46.99,199.32,268.54,61.07,46.9,198.96,268.46,1.0
2018-09-09 22:35:00,88.65838,46.39391,888.478,265.56,89.3,1037.9,0.81,-1.32,91.84,65.18,47.2,199.32,268.45,61.13,47.06,198.94,268.47,1.0
2018-09-09 22:35:00,88.65838,46.3939,888.442,265.56,89.3,1038.2,1.05,-1.38,91.75,65.71,47.13,199.24,268.74,61.16,47.28,198.92,268.46,1.0
2018-09-09 22:35:00,88.65838,46.3939,888.436,265.56,89.3,1038.3,1.06,-1.5,91.56,65.18,46.99,199.23,268.55,61.12,47.55,198.9,268.43,1.0
2018-09-09 22:35:00,88.65838,46.3939,888.446,265.56,89.3,1038.2,0.96,-1.66,91.27,66.03,47.06,198.46,268.28,60.99,47.85,198.87,268.38,1.0
2018-09-09 22:35:00,88.65837,46.3939,888.445,265.56,89.3,1038.2,0.89,-1.81,90.88,65.38,47.13,198.08,267.93,60.75,48.15,198.84,268.32,1.0
2018-09-09 22:35:00,88.65837,46.3939,888.451,265.55,89.3,1038.1,0.94,-1.85,90.4,64.92,47.13,199.04,268.35,60.42,48.41,198.82,268.28,1.0
2018-09-09 22:35:00,88.65837,46.3939,888.459,265.55,89.3,1038.1,1.13,-1.66,89.81,65.44,47.2,199.13,268.35,60.01,48.6,198.81,268.26,1.0
2018-09-09 22:35:00,88.65837,46.3939,888.466,265.55,89.3,1038.0,1.26,-1.66,89.13,65.58,47.34,198.95,268.64,59.57,48.7,198.81,268.26,1.0
2018-09-09 22:35:00,88.65837,46.39389,888.476,265.55,89.3,1037.9,1.37,-1.73,88.44,65.25,47.2,199.22,268.64,59.16,48.69,198.82,268.29,1.0
2018-09-09 22:35:00,88.65837,46.39389,888.483,265.55,89.3,1037.9,1.5,-1.8,87.68,65.05,47.41,199.22,268.64,58.84,48.57,198.92,268.38,1.0
2018-09-09 22:35:00,88.65837,46.39389,888.471,265.55,89.3,1038.0,1.65,-1.78,86.83,65.05,47.27,199.22,268.45,58.69,48.36,199.09,268.5,1.0
2018-09-09 22:35:00,88.65837,46.39389,888.443,265.55,89.3,1038.2,1.72,-1.65,85.94,63.81,47.34,199.14,268.65,58.73,48.09,199.16,268.57,1.0
2018-09-09 22:35:00,88.65837,46.39389,888.461,265.54,89.3,1038.1,1.52,-1.67,84.95,64.46,47.48,198.94,268.64,59.01,47.8,199.23,268.63,1.0
2018-09-09 22:35:00,88.65837,46.39389,888.482,265.54,89.3,1037.9,1.31,-1.74,83.88,64.2,47.62,199.41,268.54,59.51,47.52,199.29,268.68,1.0
2018-09-09 22:35:00,88.65837,46.39388,888.488,265.55,89.3,1037.8,1.13,-1.73,82.75,63.55,47.55,198.94,268.64,60.22,47.29,199.34,268.7,1.0
2018-09-09 22:35:00,88.65837,46.39388,888.476,265.54,89.3,1037.9,0.99,-1.63,81.57,64.27,47.55,199.03,268.54,61.09,47.14,199.38,268.69,1.0
2018-09-09 22:35:00,88.65837,46.39387,888.455,265.54,89.3,1038.1,0.93,-1.59,80.33,63.94,47.62,199.31,268.55,62.05,47.1,199.38,268.65,1.0
2018-09-09 22:35:00,88.65837,46.39387,888.48,265.54,89.3,1037.9,0.92,-1.66,79.08,63.48,47.34,199.2,268.45,63.01,47.16,199.36,268.61,1.0
2018-09-09 22:35:00,88.65837,46.39386,888.476,265.54,89.3,1037.9,0.83,-1.65,77.81,62.89,47.2,198.96,268.47,63.91,47.31,199.32,268.58,1.0
2018-09-09 22:35:00,88.65837,46.39385,888.472,265.54,89.3,1038.0,0.87,-1.64,76.56,64.53,47.06,198.72,268.24,64.7,47.54,199.26,268.56,1.0
2018-09-09 22:35:00,88.65837,46.39384,888.488,265.54,89.3,1037.8,0.99,-1.65,75.28,63.48,47.06,198.83,268.55,65.33,47.83,199.2,268.56,1.0
2018-09-09 22:35:00,88.65837,46.39384,888.494,265.53,89.3,1037.8,0.96,-1.65,74.0,64.07,47.55,199.29,268.64,65.8,48.12,199.12,268.59,1.0
2018-09-09 22:35:00,88.65837,46.39383,888.48,265.54,89.3,1037.9,0.97,-1.48,72.74,64.33,47.41,199.39,268.84,66.12,48.41,199.06,268.63,1.0
2018-09-09 22:35:00,88.65837,46.39382,888.498,265.54,89.3,1037.7,0.89,-1.52,71.46,64.66,47.34,199.39,268.66,66.32,48.65,199.02,268.68,1.0
2018-09-09 22:35:00,88.65837,46.39381,888.515,265.54,89.3,1037.6,0.77,-1.46,70.16,63.48,47.62,199.17,268.65,66.47,48.83,199.09,268.71,1.0
2018-09-09 22:35:00,88.65837,46.39381,888.521,265.53,89.3,1037.6,0.69,-1.42,68.92,63.94,47.62,199.37,268.54,66.59,48.94,199.17,268.68,1.0
2018-09-09 22:35:00,88.65837,46.39381,888.519,265.53,89.3,1037.6,0.67,-1.51,67.72,64.07,47.48,199.12,268.55,66.74,48.96,199.18,268.61,1.0
2018-09-09 22:35:00,88.65837,46.39381,888.494,265.53,89.3,1037.8,0.52,-1.54,66.55,64.79,47.55,199.39,268.65,66.95,48.9,199.21,268.59,1.0
2018-09-09 22:35:00,88.65837,46.39381,888.515,265.54,89.3,1037.6,0.63,-1.44,65.43,64.4,47.82,199.21,268.37,67.23,48.76,199.24,268.55,1.0
2018-09-09 22:35:00,88.65837,46.39381,888.516,265.54,89.3,1037.6,0.67,-1.45,64.36,63.94,47.55,199.89,268.66,67.55,48.57,199.26,268.49,1.0
2018-09-09 22:35:00,88.65837,46.39381,888.517,265.54,89.3,1037.6,0.65,-1.46,63.28,64.72,47.62,199.96,267.8,67.9,48.32,199.27,268.42,1.0
2018-09-09 22:35:00,88.65837,46.39381,888.543,265.54,89.3,1037.4,0.62,-1.41,62.37,64.2,47.55,199.39,267.56,68.23,48.04,199.26,268.36,1.0
2018-09-09 22:35:00,88.65837,46.3938,888.543,265.54,89.3,1037.4,0.63,-1.37,61.5,64.59,47.82,199.2,268.74,68.52,47.74,199.23,268.32,1.0
2018-09-09 22:35:00,88.65837,46.3938,888.533,265.54,89.3,1037.5,0.54,-1.24,60.7,65.12,47.75,199.12,268.85,68.73,47.45,199.2,268.31,1.0
2018-09-09 22:35:00,88.65837,46.3938,888.55,265.54,89.3,1037.3,0.45,-1.27,59.99,64.92,47.82,199.02,268.56,68.87,47.17,199.24,268.3,1.0
2018-09-09 22:35:00,88.65837,46.3938,888.561,265.54,89.3,1037.2,0.33,-1.27,59.35,64.66,47.75,199.12,268.75,68.95,46.92,199.23,268.34,1.0
2018-09-09 22:35:00,88.65837,46.3938,888.557,265.54,89.3,1037.3,0.3,-1.26,58.82,64.66,47.62,199.12,268.55,69.0,46.72,199.2,268.41,1.0
2018-09-09 22:35:00,88.65837,46.3938,888.542,265.54,89.3,1037.4,0.35,-1.32,58.37,65.51,47.82,198.92,268.65,69.09,46.59,199.19,268.5,1.0
2018-09-09 22:35:00,88.65837,46.3938,888.548,265.54,89.3,1037.3,0.26,-1.57,58.0,65.31,47.62,199.03,268.56,69.26,46.53,199.19,268.55,1.0
2018-09-09 22:35:00,88.65837,46.3938,888.55,265.54,89.3,1037.3,0.02,-1.66,57.81,66.3,47.62,200.02,268.64,69.59,46.55,199.2,268.58,1.0
2018-09-09 22:35:00,88.65837,46.3938,888.56,265.53,89.3,1037.2,0.07,-1.58,57.67,65.31,47.34,200.26,268.42,70.09,46.64,199.23,268.58,1.0
2018-09-09 22:35:00,88.65837,46.3938,888.572,265.53,89.3,1037.1,0.05,-1.5,57.6,64.66,47.55,199.66,267.94,70.78,46.79,199.27,268.56,1.0
2018-09-09 22:35:00,88.65837,46.3938,888.578,265.54,89.3,1037.1,-0.1,-1.51,57.64,65.84,47.2,198.99,267.8,71.63,46.99,199.3,268.51,1.0
2018-09-09 22:35:00,88.65837,46.3938,888.567,265.54,89.3,1037.2,-0.16,-1.64,57.83,65.64,47.41,199.2,268.56,72.59,47.21,199.33,268.44,1.0
2018-09-09 22:35:00,88.65837,46.3938,888.563,265.54,89.3,1037.2,-0.17,-1.66,58.1,65.77,47.55,199.29,268.38,73.56,47.44,199.35,268.38,1.0
2018-09-09 22:35:00,88.65837,46.3938,888.566,265.53,89.3,1037.2,-0.13,-1.53,58.42,65.64,47.55,199.2,268.56,74.43,47.64,199.28,268.34,1.0
2018-09-09 22:35:00,88.65837,46.3938,888.565,265.53,89.3,1037.2,-0.02,-1.38,58.81,66.56,47.55,199.11,268.84,75.1,47.79,199.18,268.32,1.0
2018-09-09 22:35:00,88.65837,46.3938,888.561,265.53,89.4,1037.2,0.07,-1.33,59.32,67.02,47.55,199.11,268.46,75.48,47.88,199.11,268.3,1.0
2018-09-09 22:35:00,88.65837,46.3938,888.568,265.53,89.4,1037.2,0.08,-1.4,59.95,66.1,47.41,198.92,268.66,75.51,47.91,199.09,268.32,1.0
2018-09-09 22:35:00,88.65837,46.39381,888.57,265.53,89.4,1037.2,0.05,-1.42,60.62,67.34,47.48,199.1,268.37,75.15,47.88,199.08,268.37,1.0
2018-09-09 22:35:00,88.65837,46.39381,888.564,265.54,89.4,1037.2,0.11,-1.51,61.38,66.95,47.62,199.19,268.55,74.43,47.81,199.09,268.43,1.0
2018-09-09 22:35:00,88.65837,46.39382,888.572,265.53,89.4,1037.1,0.22,-1.48,62.19,68.13,47.48,199.1,268.65,73.41,47.71,199.12,268.44,1.0
2018-09-09 22:35:00,88.65837,46.39383,888.584,265.53,89.4,1037.0,0.25,-1.48,63.05,67.74,47.62,199.19,268.12,72.2,47.62,199.15,268.46,1.0
2018-09-09 22:35:00,88.65837,46.39383,888.59,265.53,89.4,1037.0,0.23,-1.53,63.97,67.93,47.34,199.19,267.95,70.91,47.54,199.18,268.51,1.0
2018-09-09 22:35:00,88.65837,46.39384,888.59,265.54,89.4,1037.0,0.29,-1.49,64.91,69.18,47.68,199.2,268.74,69.66,47.5,199.22,268.54,1.0
2018-09-09 22:35:00,88.65837,46.39384,888.564,265.53,89.4,1037.2,0.34,-1.52,65.9,67.74,47.68,199.11,268.65,68.55,47.5,199.25,268.55,1.0
2018-09-09 22:35:00,88.65837,46.39385,888.582,265.53,89.4,1037.1,0.42,-1.46,66.96,67.28,47.62,199.4,267.64,67.67,47.55,199.31,268.58,1.0
2018-09-09 22:35:00,88.65837,46.39386,888.596,265.53,89.4,1036.9,0.57,-1.37,68.03,68.13,47.48,199.18,268.23,67.05,47.63,199.34,268.59,1.0
2018-09-09 22:35:00,88.65837,46.39386,888.585,265.53,89.4,1037.0,0.64,-1.27,69.13,68.06,47.48,199.11,268.26,66.68,47.72,199.32,268.62,1.0
2018-09-09 22:35:00,88.65837,46.39387,888.569,265.54,89.4,1037.2,0.47,-1.2,70.23,67.47,47.55,198.92,268.74,66.53,47.8,199.29,268.66,1.0
2018-09-09 22:35:00,88.65837,46.39388,888.576,265.54,89.4,1037.1,0.57,-1.21,71.38,68.32,47.41,198.92,268.65,66.53,47.83,199.24,268.58,1.0
2018-09-09 22:35:00,88.65837,46.39388,888.581,265.54,89.4,1037.1,0.6,-1.16,72.62,66.69,47.62,199.5,268.73,66.58,47.8,199.19,268.58,1.0
2018-09-09 22:35:00,88.65837,46.39389,888.599,265.54,89.4,1036.9,0.7,-1.21,73.85,67.6,47.41,199.5,268.71,66.62,47.7,199.12,268.65,1.0
2018-09-09 22:35:00,88.65837,46.39389,888.618,265.54,89.4,1036.8,0.9,-1.26,75.08,67.28,47.55,199.02,268.45,66.56,47.51,199.07,268.7,1.0
2018-09-09 22:35:00,88.65837,46.39389,888.617,265.55,89.4,1036.8,1.07,-1.29,76.28,67.54,47.55,199.11,268.63,66.37,47.25,199.04,268.7,1.0
2018-09-09 22:35:00,88.65837,46.3939,888.606,265.55,89.4,1036.9,0.99,-1.58,77.5,68.06,47.62,199.01,267.59,66.02,46.95,199.02,268.67,1.0
2018-09-09 22:35:00,88.65837,46.3939,888.601,265.55,89.4,1036.9,0.97,-1.43,78.59,68.46,47.75,199.01,268.52,65.54,46.62,199.02,268.64,1.0
2018-09-09 22:35:00,88.65837,46.3939,888.599,265.55,89.4,1036.9,0.87,-1.35,79.65,66.95,47.75,199.3,268.45,64.95,46.31,199.0,268.56,1.0
2018-09-09 22:35:00,88.65837,46.3939,888.592,265.55,89.4,1037.0,0.67,-1.34,80.71,67.93,47.75,199.12,268.65,64.31,46.05,199.0,268.48,1.0
2018-09-09 22:35:00,88.65837,46.39391,888.583,265.55,89.4,1037.1,0.55,-1.33,81.74,68.46,47.48,199.31,268.55,63.67,45.88,199.03,268.42,1.0
2018-09-09 22:35:00,88.65837,46.39391,888.594,265.55,89.4,1037.0,0.74,-1.22,82.73,66.03,47.41,199.12,268.66,63.08,45.82,199.06,268.39,1.0
2018-09-09 22:35:00,88.65837,46.39391,888.596,265.55,89.4,1036.9,0.93,-1.22,83.66,67.47,47.27,199.21,268.65,62.57,45.88,199.06,268.37,1.0
2018-09-09 22:35:00,88.65837,46.39392,888.598,265.55,89.4,1036.9,1.38,-1.16,84.46,67.87,47.2,199.12,268.55,62.15,46.06,199.07,268.31,1.0
2018-09-09 22:35:00,88.65837,46.39392,888.6,265.55,89.4,1036.9,1.73,-1.13,85.19,66.1,47.13,199.11,268.84,61.84,46.35,199.07,268.26,1.0
2018-09-09 22:35:00,88.65837,46.39392,888.61,265.55,89.4,1036.8,1.91,-1.18,85.85,67.08,47.13,199.2,268.63,61.61,46.73,199.06,268.23,1.0
2018-09-09 22:35:00,88.65837,46.39392,888.633,265.55,89.4,1036.6,2.01,-1.27,86.45,66.23,47.13,198.98,268.75,61.46,47.15,199.05,268.23,1.0
2018-09-09 22:35:00,88.65837,46.39393,888.663,265.55,89.4,1036.4,2.26,-1.25,86.9,65.97,47.27,198.85,267.83,61.37,47.58,199.03,268.22,1.0
2018-09-09 22:35:00,88.65837,46.39393,888.671,265.55,89.4,1036.3,1.98,-1.3,87.19,66.62,47.2,198.97,267.65,61.31,47.97,199.01,268.14,1.0
2018-09-09 22:35:00,88.65837,46.39393,888.679,265.55,89.4,1036.3,1.69,-1.39,87.39,67.34,47.13,199.12,267.56,61.3,48.3,199.08,268.11,1.0
2018-09-09 22:35:00,88.65837,46.39392,888.677,265.55,89.4,1036.3,1.52,-1.41,87.51,65.58,47.48,199.12,267.56,61.31,48.53,199.13,268.09,1.0
2018-09-09 22:35:00,88.65837,46.39392,888.648,265.55,89.4,1036.5,1.45,-1.37,87.55,66.43,47.41,199.2,267.83,61.37,48.63,199.12,268.01,1.0
2018-09-09 22:35:00,88.65837,46.39392,888.59,265.55,89.4,1037.0,1.41,-1.37,87.5,66.49,47.55,199.02,267.75,61.47,48.6,199.12,267.88,1.0
2018-09-09 22:35:00,88.65837,46.39392,888.629,265.54,89.4,1036.7,1.41,-1.39,87.37,65.77,47.34,199.11,267.21,61.6,48.45,199.15,267.85,1.0
2018-09-09 22:35:00,88.65837,46.39392,888.637,265.55,89.4,1036.6,1.42,-1.42,87.15,65.44,47.41,199.95,267.74,61.75,48.18,199.16,267.83,1.0
2018-09-09 22:35:00,88.65837,46.39392,888.637,265.55,89.4,1036.6,1.59,-1.29,86.85,65.38,47.41,199.52,268.14,61.91,47.83,199.17,267.84,1.0
2018-09-09 22:35:00,88.65837,46.39392,888.647,265.54,89.4,1036.5,1.85,-1.19,86.46,64.86,47.41,199.21,268.13,62.04,47.44,199.19,267.88,1.0
2018-09-09 22:35:00,88.65837,46.39392,888.667,265.55,89.4,1036.4,2.04,-1.35,86.0,64.86,47.55,198.93,267.88,62.12,47.03,199.22,267.97,1.0
