Date/Time,Latitude,Longitude,PPPP [hPa],TTT grad [K],RH [%],Height [m],Pitch [deg],Roll [deg],Yaw [deg],SWD [W/m**2] (raw),SWU [W/m**2] (raw),LWD [W/m**2] (raw),LWU [W/m**2] (raw),SWD [W/m**2] (corrected),SWU [W/m**2] (corrected),LWD [W/m**2] (corrected),LWU [W/m**2] (corrected),Flag
2018-09-09 22:01:00,88.66214,46.52491,1019.543,261.98,81.3,3.2,1.31,-2.06,94.78,39.4,37.73,208.65,266.04,43.6,40.58,207.48,265.13,0.0
2018-09-09 22:01:00,88.66214,46.52491,1019.536,261.98,81.3,3.2,1.61,-2.56,95.08,37.76,37.8,208.14,266.71,43.31,40.47,207.31,265.06,0.0
2018-09-09 22:01:00,88.66214,46.52491,1019.501,261.98,81.3,3.5,1.27,-2.03,95.43,39.79,37.87,208.29,266.63,42.81,40.4,207.1,265.0,0.0
2018-09-09 22:01:00,88.66214,46.5249,1019.493,261.99,81.2,3.6,1.19,-2.1,95.76,41.16,37.94,208.68,265.75,42.13,40.37,206.93,265.0,0.0
2018-09-09 22:01:00,88.66214,46.5249,1019.512,261.99,81.2,3.4,1.07,-1.7,96.04,41.23,38.08,208.27,265.07,41.35,40.38,206.78,265.05,0.0
2018-09-09 22:01:00,88.66214,46.5249,1019.536,261.99,81.2,3.2,1.37,-1.58,96.29,40.51,38.01,208.4,265.04,40.58,40.42,206.64,265.03,0.0
2018-09-09 22:01:00,88.66214,46.52489,1019.544,262.0,81.2,3.2,1.58,-1.73,96.55,38.81,38.15,208.09,265.37,39.91,40.49,206.62,264.99,0.0
2018-09-09 22:01:00,88.66214,46.52489,1019.522,262.0,81.2,3.3,1.43,-1.99,96.85,38.48,38.15,207.26,265.35,39.43,40.6,206.66,265.0,0.0
2018-09-09 22:01:00,88.66214,46.52488,1019.502,261.99,81.2,3.5,1.2,-2.14,97.2,40.05,38.35,207.22,265.71,39.22,40.73,206.59,265.01,0.0
2018-09-09 22:01:00,88.66214,46.52488,1019.541,262.0,81.2,3.2,1.14,-2.27,97.53,38.87,38.22,206.87,265.74,39.29,40.88,206.55,264.99,0.0
2018-09-09 22:01:00,88.66214,46.52487,1019.556,261.99,81.2,3.1,0.8,-1.97,97.87,40.38,38.22,206.65,264.43,39.65,41.06,206.4,264.9,0.0
2018-09-09 22:01:00,88.66214,46.52487,1019.557,261.99,81.2,3.1,0.32,-1.83,98.25,38.55,38.56,207.17,265.1,40.25,41.26,206.18,264.82,0.0
2018-09-09 22:01:00,88.66214,46.52486,1019.549,261.99,81.2,3.1,0.02,-1.85,98.64,39.72,38.56,207.52,266.48,41.01,41.49,206.0,264.74,0.0
2018-09-09 22:01:00,88.66214,46.52486,1019.523,261.99,81.2,3.3,0.15,-1.66,98.98,39.59,38.7,206.21,265.88,41.81,41.73,205.9,264.63,0.0
2018-09-09 22:01:00,88.66214,46.52485,1019.524,261.99,81.1,3.3,-0.13,-2.07,99.29,38.55,38.56,206.69,264.76,42.56,41.99,205.82,264.59,0.0
2018-09-09 22:01:00,88.66214,46.52485,1019.514,262.0,81.1,3.4,-0.25,-1.88,99.53,40.9,38.49,205.57,263.16,43.15,42.26,205.72,264.43,0.0
2018-09-09 22:01:00,88.66214,46.52484,1019.502,262.0,81.1,3.5,-0.42,-2.33,99.85,39.72,38.77,204.7,263.46,43.49,42.51,205.68,264.37,0.0
2018-09-09 22:01:00,88.66214,46.52484,1019.497,262.0,81.1,3.5,-1.09,-2.74,100.18,40.64,38.84,205.79,264.12,43.53,42.74,205.63,264.26,0.0
2018-09-09 22:01:00,88.66214,46.52483,1019.502,261.99,81.1,3.5,-2.17,-2.6,100.47,39.79,39.12,206.06,264.32,43.24,42.93,205.6,264.07,0.0
2018-09-09 22:01:00,88.66214,46.52483,1019.483,261.99,81.1,3.6,-2.03,-3.01,100.75,39.79,39.12,206.51,265.6,42.64,43.06,205.75,263.92,0.0
2018-09-09 22:01:00,88.66214,46.52483,1019.482,261.99,81.1,3.6,-3.5,-3.19,101.17,40.77,39.12,206.39,264.68,41.79,43.13,205.78,263.88,0.0
2018-09-09 22:01:00,88.66214,46.52482,1019.47,261.99,81.1,3.7,-4.54,-3.2,101.5,39.92,39.25,206.42,264.68,40.76,43.14,206.0,264.02,0.0
2018-09-09 22:01:00,88.66214,46.52482,1019.452,261.98,81.1,3.9,-5.37,-3.14,101.77,40.71,39.6,206.71,264.84,39.65,43.09,206.26,264.12,0.0
2018-09-09 22:01:00,88.66214,46.52482,1019.451,261.98,81.1,3.9,-6.27,-2.94,102.0,40.12,39.6,206.68,264.46,38.56,43.0,206.48,264.21,0.0
2018-09-09 22:01:00,88.66214,46.52481,1019.493,261.98,81.1,3.6,-7.32,-2.4,102.21,40.44,39.46,207.27,264.97,37.6,42.89,206.65,264.36,0.0
2018-09-09 22:01:00,88.66214,46.52481,1019.465,261.98,81.1,3.8,-6.58,-2.7,102.34,39.14,39.67,206.32,264.24,36.83,42.78,206.74,264.29,0.0
2018-09-09 22:01:00,88.66214,46.5248,1019.466,261.98,81.1,3.8,-7.25,-2.32,102.53,41.49,39.81,207.03,264.71,36.32,42.69,206.85,264.3,0.0
2018-09-09 22:01:00,88.66214,46.5248,1019.439,261.98,81.1,4.0,-7.46,-2.33,102.7,39.46,40.01,206.76,264.65,36.1,42.65,206.88,264.26,0.0
2018-09-09 22:01:00,88.66214,46.52479,1019.4,261.98,81.1,4.3,-7.46,-2.35,102.79,40.51,39.88,206.39,264.8,36.17,42.66,206.86,264.18,0.0
2018-09-09 22:01:00,88.66214,46.52479,1019.419,261.98,81.1,4.1,-8.04,-1.87,102.83,40.38,39.94,206.71,265.24,36.49,42.74,206.82,264.1,0.0
2018-09-09 22:01:00,88.66214,46.52478,1019.407,261.98,81.1,4.2,-8.47,-2.47,103.04,39.86,39.88,206.27,264.16,37.0,42.87,206.7,263.96,0.0
2018-09-09 22:01:00,88.66214,46.52478,1019.389,261.97,81.1,4.3,-8.98,-1.83,102.98,38.35,39.88,206.83,264.69,37.65,43.07,206.7,263.86,0.0
2018-09-09 22:01:00,88.66214,46.52477,1019.382,261.97,81.1,4.4,-9.31,-1.97,103.02,39.07,40.15,206.52,264.53,38.36,43.3,206.6,263.63,0.0
2018-09-09 22:01:00,88.66214,46.52476,1019.385,261.97,81.1,4.4,-9.7,-2.03,103.05,39.72,40.15,206.74,264.35,39.08,43.55,206.51,263.41,0.0
2018-09-09 22:01:00,88.66214,46.52476,1019.387,261.97,81.0,4.3,-10.18,-1.7,102.99,37.7,40.43,206.73,265.17,39.75,43.8,206.47,263.22,0.0
2018-09-09 22:01:00,88.66214,46.52475,1019.378,261.97,81.1,4.4,-10.32,-2.17,103.01,40.05,40.43,206.6,264.88,40.34,44.05,206.41,262.99,0.0
2018-09-09 22:01:00,88.66214,46.52475,1019.353,261.96,81.1,4.6,-10.67,-2.09,102.81,39.53,40.57,206.84,265.06,40.86,44.27,206.41,262.92,0.0
2018-09-09 22:01:00,88.66214,46.52474,1019.336,261.96,81.1,4.7,-11.21,-2.01,102.58,39.79,40.43,206.23,264.47,41.3,44.47,206.37,262.79,0.0
2018-09-09 22:01:00,88.66214,46.52473,1019.334,261.96,81.1,4.7,-11.58,-2.0,102.34,40.58,40.7,206.2,264.54,41.7,44.64,206.36,262.72,0.0
2018-09-09 22:01:00,88.66214,46.52473,1019.339,261.97,81.1,4.7,-11.87,-2.03,102.05,39.92,40.64,206.39,264.57,42.07,44.79,206.35,262.67,0.0
2018-09-09 22:01:00,88.66214,46.52472,1019.331,261.97,81.1,4.8,-12.34,-1.97,101.73,39.27,40.91,205.98,264.35,42.42,44.93,206.31,262.6,0.0
2018-09-09 22:01:00,88.66214,46.52472,1019.306,261.97,81.1,5.0,-12.59,-2.08,101.4,39.99,40.91,206.37,265.53,42.75,45.07,206.31,262.59,0.0
2018-09-09 22:01:00,88.66214,46.52472,1019.286,261.97,81.1,5.1,-12.62,-2.02,101.05,39.59,41.12,206.07,264.5,43.03,45.21,206.39,262.62,0.0
2018-09-09 22:01:00,88.66214,46.52471,1019.275,261.97,81.1,5.2,-12.29,-2.04,100.69,40.18,41.26,206.17,264.26,43.21,45.36,206.45,262.65,0.0
2018-09-09 22:01:00,88.66214,46.52471,1019.271,261.98,81.1,5.2,-11.97,-2.09,100.33,39.2,41.26,206.12,264.43,43.23,45.53,206.45,262.64,0.0
2018-09-09 22:01:00,88.66214,46.52471,1019.27,261.98,81.1,5.2,-11.88,-2.12,99.95,40.12,41.53,206.04,264.19,43.03,45.71,206.44,262.56,0.0
2018-09-09 22:01:00,88.66214,46.5247,1019.272,261.98,81.1,5.2,-11.55,-2.24,99.59,40.38,41.4,206.95,264.83,42.56,45.9,206.43,262.42,0.0
2018-09-09 22:01:00,88.66214,46.5247,1019.244,261.99,81.1,5.4,-11.51,-2.15,99.2,39.33,41.46,207.74,265.12,41.8,46.09,206.31,262.14,0.0
2018-09-09 22:01:00,88.66214,46.5247,1019.242,262.0,81.1,5.4,-11.42,-2.14,98.78,40.58,41.67,207.08,264.8,40.74,46.27,206.24,261.94,0.0
2018-09-09 22:01:00,88.66214,46.52469,1019.247,262.0,81.1,5.4,-11.22,-2.15,98.34,40.97,41.74,206.74,264.42,39.46,46.44,206.21,261.7,0.0
2018-09-09 22:01:00,88.66214,46.52469,1019.232,262.0,81.1,5.5,-11.06,-2.18,97.9,40.77,41.95,206.83,264.3,38.04,46.59,206.23,261.45,0.0
2018-09-09 22:01:00,88.66214,46.52469,1019.206,262.01,81.2,5.7,-11.24,-2.27,97.51,41.3,42.02,206.59,263.71,36.62,46.72,206.28,261.27,0.0
2018-09-09 22:01:00,88.66214,46.52468,1019.199,262.01,81.2,5.8,-10.97,-2.36,97.03,40.31,42.22,205.44,263.36,35.35,46.81,206.26,261.02,0.0
2018-09-09 22:01:00,88.66214,46.52468,1019.195,262.01,81.2,5.8,-10.84,-2.37,96.5,40.31,42.22,205.31,263.94,34.38,46.88,206.16,260.81,0.0
2018-09-09 22:01:00,88.66214,46.52468,1019.191,262.01,81.2,5.8,-10.8,-2.41,95.98,39.46,42.64,205.77,263.32,33.84,46.92,206.11,260.65,0.0
2018-09-09 22:01:00,88.66214,46.52468,1019.184,262.02,81.2,5.9,-10.71,-2.46,95.45,40.77,42.43,206.52,263.13,33.81,46.93,206.1,260.54,0.0
2018-09-09 22:01:00,88.66214,46.52468,1019.169,262.02,81.2,6.0,-10.48,-2.46,94.85,39.59,42.57,206.45,263.12,34.32,46.91,206.09,260.46,0.0
2018-09-09 22:01:00,88.66214,46.52467,1019.153,262.03,81.2,6.1,-10.46,-2.51,94.27,38.28,42.85,206.26,262.94,35.32,46.88,206.18,260.5,0.0
2018-09-09 22:01:00,88.66214,46.52467,1019.151,262.03,81.2,6.1,-10.39,-2.62,93.69,37.83,42.64,206.84,263.67,36.73,46.83,206.26,260.54,0.0
2018-09-09 22:01:00,88.66214,46.52467,1019.138,262.03,81.2,6.2,-10.33,-2.63,93.05,38.68,43.06,206.73,263.42,38.39,46.77,206.32,260.48,0.0
2018-09-09 22:01:00,88.66214,46.52467,1019.128,262.04,81.2,6.3,-10.26,-2.62,92.4,40.31,43.06,206.61,263.03,40.14,46.71,206.35,260.45,0.0
2018-09-09 22:01:00,88.66214,46.52467,1019.136,262.04,81.2,6.2,-10.19,-2.67,91.74,38.55,42.98,207.13,263.51,41.8,46.66,206.36,260.46,0.0
2018-09-09 22:01:00,88.66214,46.52466,1019.123,262.04,81.2,6.3,-10.13,-2.67,91.04,38.87,43.19,207.78,263.85,43.2,46.61,206.37,260.38,0.0
2018-09-09 22:01:00,88.66214,46.52466,1019.152,262.05,81.2,6.1,-9.87,-2.75,90.3,39.72,43.47,206.72,263.52,44.24,46.59,206.44,260.33,0.0
2018-09-09 22:01:00,88.66214,46.52466,1019.151,262.05,81.2,6.1,-9.87,-2.84,89.59,38.48,43.4,206.3,262.7,44.85,46.59,206.47,260.2,0.0
2018-09-09 22:01:00,88.66214,46.52466,1019.138,262.05,81.2,6.2,-9.81,-2.92,88.86,40.84,43.4,206.62,262.88,45.03,46.62,206.53,260.11,0.0
2018-09-09 22:01:00,88.66214,46.52466,1019.131,262.05,81.2,6.3,-9.66,-3.01,88.08,39.4,43.4,206.69,262.88,44.83,46.68,206.62,260.05,0.0
2018-09-09 22:01:00,88.66214,46.52466,1019.129,262.05,81.2,6.3,-9.58,-3.13,87.29,40.64,43.61,206.64,262.48,44.35,46.76,206.69,259.99,0.0
2018-09-09 22:01:00,88.66214,46.52466,1019.134,262.06,81.3,6.2,-9.39,-3.22,86.51,40.25,43.75,206.83,262.71,43.7,46.87,206.75,259.92,0.0
2018-09-09 22:01:00,88.66214,46.52466,1019.129,262.05,81.3,6.3,-9.07,-3.47,85.79,40.58,43.88,206.51,262.86,43.0,46.98,206.75,259.82,0.0
2018-09-09 22:01:00,88.66214,46.52467,1019.12,262.05,81.3,6.3,-8.85,-3.57,84.98,38.94,43.75,206.98,262.64,42.37,47.1,206.8,259.78,0.0
2018-09-09 22:01:00,88.66214,46.52467,1019.104,262.05,81.3,6.5,-8.59,-3.63,84.15,41.88,43.75,207.02,262.79,41.87,47.2,206.89,259.8,0.0
2018-09-09 22:01:00,88.66214,46.52467,1019.08,262.05,81.3,6.6,-8.2,-3.77,83.34,40.44,43.88,207.1,263.04,41.57,47.29,206.96,259.84,0.0
2018-09-09 22:01:00,88.66214,46.52467,1019.069,262.06,81.3,6.7,-8.17,-3.73,82.45,40.18,44.09,207.54,263.11,41.46,47.36,206.95,259.9,0.0
2018-09-09 22:01:00,88.66214,46.52468,1019.062,262.06,81.3,6.8,-7.89,-3.94,81.6,39.72,44.16,206.17,261.68,41.54,47.4,206.88,259.88,0.0
2018-09-09 22:01:00,88.66214,46.52468,1019.042,262.05,81.3,6.9,-7.85,-3.96,80.73,39.72,44.37,206.38,262.03,41.75,47.42,206.88,259.9,0.0
2018-09-09 22:01:00,88.66214,46.52468,1019.024,262.05,81.3,7.1,-7.8,-4.03,79.86,40.38,44.23,207.37,262.63,42.05,47.42,206.86,259.89,0.0
2018-09-09 22:01:00,88.66214,46.52468,1019.023,262.06,81.3,7.1,-7.65,-4.17,78.95,39.66,44.51,207.57,263.18,42.39,47.41,206.83,259.85,0.0
2018-09-09 22:01:00,88.66214,46.52469,1019.019,262.06,81.3,7.1,-7.62,-4.08,78.02,42.21,44.58,206.64,262.94,42.72,47.41,206.83,259.82,0.0
2018-09-09 22:01:00,88.66214,46.52469,1019.024,262.05,81.3,7.1,-7.36,-4.36,77.13,40.44,44.51,206.14,262.21,43.02,47.41,206.75,259.75,0.0
2018-09-09 22:01:00,88.66214,46.52469,1019.011,262.05,81.3,7.2,-7.21,-4.36,76.23,41.1,44.58,206.55,262.3,43.27,47.44,206.8,259.79,0.0
2018-09-09 22:01:00,88.66214,46.5247,1018.993,262.05,81.4,7.3,-6.96,-4.47,75.32,39.99,44.71,206.43,262.27,43.47,47.49,206.77,259.74,0.0
2018-09-09 22:01:00,88.66214,46.5247,1018.975,262.05,81.4,7.4,-6.65,-4.61,74.4,40.64,44.58,206.63,262.11,43.63,47.55,206.64,259.59,0.0
2018-09-09 22:01:00,88.66214,46.5247,1018.95,262.04,81.4,7.6,-6.44,-4.54,73.48,40.44,44.85,206.83,262.27,43.75,47.61,206.53,259.41,0.0
2018-09-09 22:01:00,88.66214,46.5247,1018.971,262.04,81.4,7.5,-6.37,-4.94,72.62,41.88,44.85,206.51,262.26,43.86,47.67,206.47,259.23,0.0
2018-09-09 22:01:00,88.66214,46.52471,1018.951,262.03,81.4,7.6,-6.38,-4.78,71.72,40.58,45.06,206.77,262.48,43.97,47.7,206.54,259.24,0.0
2018-09-09 22:01:00,88.66214,46.52471,1018.95,262.03,81.4,7.6,-6.42,-4.9,70.84,39.72,44.85,205.88,261.48,44.07,47.69,206.51,259.14,0.0
2018-09-09 22:01:00,88.66214,46.52471,1018.957,262.03,81.4,7.6,-6.48,-5.06,69.99,41.69,45.13,205.82,261.01,44.2,47.64,206.44,259.03,0.0
2018-09-09 22:01:00,88.66214,46.52472,1018.939,262.02,81.4,7.7,-6.46,-5.06,69.12,42.15,45.27,206.29,261.3,44.36,47.54,206.39,258.94,0.0
2018-09-09 22:01:00,88.66214,46.52472,1018.934,262.02,81.4,7.7,-6.17,-5.14,68.22,40.12,45.06,206.06,261.08,44.56,47.4,206.32,258.82,0.0
2018-09-09 22:01:00,88.66214,46.52472,1018.914,262.01,81.5,7.9,-6.25,-5.1,67.37,42.28,45.47,207.34,262.5,44.83,47.22,206.33,258.75,0.0
2018-09-09 22:01:00,88.66214,46.52473,1018.925,262.01,81.5,7.8,-5.88,-5.15,66.49,40.97,45.34,206.72,261.62,45.17,47.03,206.33,258.66,0.0
2018-09-09 22:01:00,88.66214,46.52473,1018.931,262.01,81.5,7.8,-5.62,-5.24,65.63,42.47,45.4,206.27,261.22,45.6,46.84,206.41,258.64,0.0
2018-09-09 22:01:00,88.66214,46.52474,1018.914,262.0,81.5,7.9,-5.46,-5.35,64.78,40.97,45.4,206.13,261.5,46.11,46.69,206.5,258.65,0.0
2018-09-09 22:01:00,88.66214,46.52474,1018.911,262.0,81.5,7.9,-4.9,-5.51,63.93,41.88,45.47,206.34,261.2,46.67,46.58,206.51,258.6,0.0
2018-09-09 22:01:00,88.66214,46.52475,1018.907,262.0,81.6,7.9,-4.94,-5.21,63.07,41.36,45.47,206.79,261.3,47.27,46.54,206.57,258.58,0.0
2018-09-09 22:01:00,88.66214,46.52475,1018.879,261.99,81.6,8.1,-4.57,-5.34,62.25,42.28,45.54,206.92,260.82,47.84,46.56,206.5,258.41,0.0
2018-09-09 22:01:00,88.66214,46.52475,1018.855,261.99,81.6,8.3,-4.4,-5.3,61.47,41.1,45.47,206.8,260.85,48.33,46.65,206.49,258.35,0.0
2018-09-09 22:01:00,88.66214,46.52476,1018.849,261.99,81.6,8.4,-4.3,-5.22,60.7,42.93,45.4,206.63,260.57,48.68,46.8,206.59,258.35,0.0
2018-09-09 22:01:00,88.66214,46.52476,1018.86,262.0,81.6,8.3,-3.98,-5.35,59.97,41.56,45.54,206.1,260.44,48.84,46.97,206.72,258.34,0.0
2018-09-09 22:01:00,88.66214,46.52477,1018.847,262.0,81.6,8.4,-3.83,-5.21,59.24,42.47,45.47,206.45,260.33,48.8,47.14,206.76,258.3,0.0
2018-09-09 22:01:00,88.66214,46.52477,1018.836,262.0,81.7,8.5,-3.48,-5.26,58.51,43.19,45.47,206.37,260.11,48.54,47.29,206.77,258.33,0.0
2018-09-09 22:01:00,88.66214,46.52477,1018.832,261.99,81.7,8.5,-3.27,-5.27,57.78,42.93,45.68,206.39,260.55,48.1,47.39,206.81,258.35,0.0
2018-09-09 22:01:00,88.66214,46.52477,1018.827,261.99,81.7,8.5,-3.22,-5.28,57.07,44.44,45.82,207.39,261.02,47.55,47.41,206.83,258.34,0.0
2018-09-09 22:01:00,88.66214,46.52477,1018.81,262.0,81.7,8.7,-3.24,-5.29,56.34,43.65,45.82,207.9,261.63,46.96,47.34,206.88,258.35,0.0
2018-09-09 22:01:00,88.66214,46.52477,1018.78,262.0,81.8,8.9,-3.08,-5.21,55.63,43.65,45.75,206.78,260.41,46.41,47.18,206.98,258.4,0.0
2018-09-09 22:01:00,88.66214,46.52477,1018.805,262.0,81.8,8.7,-3.31,-5.26,54.94,42.93,45.96,207.25,261.73,46.01,46.91,206.95,258.35,0.0
2018-09-09 22:01:00,88.66214,46.52477,1018.79,262.0,81.8,8.8,-2.89,-5.14,54.28,42.08,45.89,207.31,261.14,45.81,46.56,206.98,258.36,0.0
2018-09-09 22:01:00,88.66214,46.52477,1018.769,262.0,81.8,9.0,-2.62,-5.22,53.71,42.34,46.03,206.96,260.47,45.84,46.14,207.0,258.32,0.0
2018-09-09 22:01:00,88.66214,46.52477,1018.767,262.01,81.9,9.0,-2.47,-5.31,53.16,43.91,45.89,206.88,260.77,46.09,45.65,206.93,258.22,0.0
2018-09-09 22:01:00,88.66214,46.52477,1018.776,262.01,81.9,8.9,-1.99,-4.99,52.56,45.22,45.89,207.37,260.33,46.54,45.12,206.8,258.13,0.0
2018-09-09 22:01:00,88.66214,46.52477,1018.79,262.01,81.9,8.8,-2.12,-5.21,52.09,43.98,45.96,206.2,259.51,47.09,44.57,206.73,258.02,0.0
2018-09-09 22:01:00,88.66214,46.52477,1018.758,262.02,82.0,9.0,-2.07,-4.86,51.59,43.39,46.1,206.75,259.9,47.67,44.01,206.79,257.84,0.0
2018-09-09 22:01:00,88.66214,46.52477,1018.742,262.02,82.0,9.2,-1.83,-4.89,51.15,43.32,45.75,206.87,259.92,48.17,43.45,206.86,257.78,0.0
2018-09-09 22:01:00,88.66214,46.52477,1018.734,262.03,82.0,9.2,-1.62,-4.98,50.72,43.26,45.75,206.95,260.2,48.51,42.92,206.88,257.77,0.0
2018-09-09 22:01:00,88.66214,46.52477,1018.7,262.04,82.0,9.5,-1.44,-4.79,50.28,43.19,45.68,206.94,260.54,48.64,42.43,206.84,257.73,0.0
2018-09-09 22:01:00,88.66214,46.52477,1018.701,262.04,82.1,9.5,-0.74,-4.76,49.86,43.91,45.68,206.45,260.09,48.52,41.97,206.79,257.71,0.0
2018-09-09 22:01:00,88.66214,46.52477,1018.691,262.05,82.1,9.5,-1.32,-4.74,49.62,44.83,45.54,208.05,259.98,48.17,41.58,206.83,257.8,0.0
2018-09-09 22:01:00,88.66214,46.52477,1018.689,262.05,82.1,9.6,-0.97,-4.62,49.3,44.83,45.47,208.43,260.72,47.62,41.25,206.77,257.8,0.0
2018-09-09 22:01:00,88.66214,46.52477,1018.684,262.05,82.1,9.6,-0.89,-4.46,49.07,46.34,45.34,207.49,260.67,46.94,40.99,206.71,257.84,0.0
2018-09-09 22:01:00,88.66214,46.52477,1018.668,262.06,82.2,9.7,-1.09,-4.38,48.94,43.13,45.2,206.56,260.25,46.2,40.81,206.67,257.92,0.0
2018-09-09 22:01:00,88.66214,46.52477,1018.655,262.06,82.2,9.8,-0.34,-4.5,48.72,45.75,44.99,206.63,260.2,45.46,40.71,206.57,257.92,0.0
2018-09-09 22:01:00,88.66214,46.52477,1018.654,262.06,82.2,9.8,-0.94,-4.29,48.66,44.44,44.99,206.78,260.17,44.79,40.69,206.5,258.0,0.0
2018-09-09 22:01:00,88.66214,46.52477,1018.651,262.07,82.2,9.8,-0.93,-4.23,48.61,43.72,44.85,206.41,259.41,44.21,40.72,206.26,258.0,1.0
2018-09-09 22:01:00,88.66214,46.52478,1018.64,262.08,82.2,9.9,-0.83,-4.2,48.57,45.09,44.71,206.49,259.62,43.75,40.81,206.07,257.88,1.0
2018-09-09 22:01:00,88.66214,46.52478,1018.617,262.08,82.3,10.1,-0.8,-4.2,48.57,44.5,44.51,206.72,260.04,43.41,40.94,205.98,257.72,1.0
2018-09-09 22:01:00,88.66214,46.52478,1018.578,262.08,82.3,10.4,-0.81,-4.27,48.63,42.93,44.51,206.09,259.8,43.17,41.08,205.95,257.6,1.0
2018-09-09 22:01:00,88.66214,46.52478,1018.626,262.09,82.3,10.0,-0.67,-3.99,48.69,44.57,44.58,206.19,260.74,43.01,41.23,205.86,257.45,1.0
2018-09-09 22:01:00,88.66214,46.52478,1018.609,262.09,82.3,10.2,-1.18,-3.97,48.85,46.07,44.44,206.12,259.68,42.94,41.37,205.89,257.31,1.0
2018-09-09 22:01:00,88.66214,46.52478,1018.605,262.09,82.4,10.2,-1.09,-4.01,49.01,45.94,44.23,206.79,259.4,42.94,41.49,206.11,257.31,1.0
2018-09-09 22:01:00,88.66214,46.52478,1018.6,262.1,82.4,10.2,-1.0,-3.94,49.21,43.65,44.23,207.18,259.5,43.02,41.59,206.34,257.26,1.0
2018-09-09 22:01:00,88.66213,46.52478,1018.568,262.11,82.4,10.5,-1.2,-3.75,49.46,42.74,44.02,206.76,258.96,43.19,41.68,206.55,257.13,1.0
2018-09-09 22:01:00,88.66213,46.52478,1018.589,262.11,82.4,10.3,-0.76,-3.71,49.7,44.63,44.09,205.39,258.31,43.48,41.74,206.85,257.08,1.0
2018-09-09 22:01:00,88.66213,46.52478,1018.568,262.11,82.4,10.5,-1.19,-3.58,50.04,43.91,44.09,206.42,258.49,43.89,41.79,207.07,256.95,1.0
2018-09-09 22:01:00,88.66213,46.52478,1018.559,262.11,82.5,10.5,-1.05,-3.61,50.39,43.46,44.23,207.6,258.95,44.41,41.84,207.32,256.79,1.0
2018-09-09 22:01:00,88.66213,46.52478,1018.546,262.11,82.5,10.6,-0.87,-3.62,50.77,45.55,44.02,207.88,258.64,45.02,41.89,207.44,256.67,1.0
2018-09-09 22:01:00,88.66213,46.52478,1018.536,262.12,82.5,10.7,-0.85,-3.57,51.2,44.31,44.02,208.1,257.85,45.69,41.94,207.49,256.58,1.0
2018-09-09 22:01:00,88.66213,46.52478,1018.594,262.12,82.5,10.3,-0.83,-3.5,51.61,44.37,43.68,208.19,258.07,46.36,41.98,207.57,256.47,1.0
2018-09-09 22:01:00,88.66213,46.52478,1018.528,262.12,82.5,10.8,-0.89,-3.55,52.05,43.46,43.61,207.41,257.72,46.98,42.0,207.71,256.38,1.0
2018-09-09 22:01:00,88.66213,46.52478,1018.511,262.12,82.6,10.9,-0.57,-3.44,52.51,45.03,43.68,207.78,256.77,47.49,42.01,207.82,256.28,1.0
2018-09-09 22:01:00,88.66213,46.52478,1018.5,262.12,82.6,11.0,-0.43,-3.38,53.02,44.5,43.82,207.78,256.86,47.86,41.99,207.75,256.1,1.0
2018-09-09 22:01:00,88.66213,46.52478,1018.489,262.13,82.6,11.1,-0.52,-3.37,53.58,44.24,43.82,207.59,257.39,48.06,41.94,207.71,255.98,1.0
2018-09-09 22:01:00,88.66213,46.52478,1018.489,262.13,82.6,11.1,-0.63,-3.36,54.15,44.44,43.47,207.93,257.43,48.09,41.87,207.79,255.94,1.0
2018-09-09 22:01:00,88.66213,46.52479,1018.507,262.13,82.7,10.9,-0.24,-3.3,54.66,44.04,43.75,207.76,257.39,48.0,41.78,207.81,255.86,1.0
2018-09-09 22:01:00,88.66213,46.52479,1018.519,262.13,82.7,10.8,-0.63,-3.44,55.36,44.83,43.61,208.25,257.38,47.81,41.69,207.94,255.93,1.0
2018-09-09 22:01:00,88.66213,46.52479,1018.516,262.13,82.7,10.8,-0.68,-3.16,55.98,45.29,43.68,207.35,257.02,47.57,41.63,208.03,256.04,1.0
2018-09-09 22:01:00,88.66213,46.52479,1018.503,262.13,82.7,11.0,-0.61,-3.13,56.62,46.53,43.26,207.12,257.03,47.33,41.62,208.15,256.14,1.0
2018-09-09 22:01:00,88.66213,46.52479,1018.484,262.14,82.7,11.1,-0.65,-3.37,57.32,45.62,43.54,208.26,257.22,47.11,41.68,208.27,256.2,1.0
2018-09-09 22:01:00,88.66213,46.52479,1018.467,262.14,82.8,11.2,-0.84,-3.0,58.07,44.31,43.26,207.5,256.99,46.93,41.84,208.31,256.24,1.0
2018-09-09 22:01:00,88.66213,46.52479,1018.464,262.14,82.8,11.2,-0.94,-3.2,58.84,44.7,43.4,208.33,257.41,46.76,42.1,208.35,256.34,1.0
2018-09-09 22:01:00,88.66213,46.52479,1018.444,262.14,82.8,11.4,-0.88,-3.06,59.61,45.22,43.33,208.14,257.67,46.57,42.47,208.3,256.34,1.0
2018-09-09 22:01:00,88.66213,46.5248,1018.413,262.14,82.8,11.6,-0.94,-3.06,60.4,46.14,43.19,208.42,257.36,46.31,42.94,208.33,256.34,1.0
2018-09-09 22:01:00,88.66213,46.5248,1018.386,262.14,82.8,11.8,-1.1,-3.14,61.22,43.46,43.12,208.33,257.47,45.93,43.49,208.34,256.33,1.0
2018-09-09 22:01:00,88.66213,46.5248,1018.374,262.14,82.9,11.9,-1.15,-2.97,62.0,46.01,42.92,208.03,257.36,45.41,44.09,208.26,256.3,1.0
2018-09-09 22:01:00,88.66213,46.52481,1018.391,262.15,82.9,11.8,-1.22,-3.19,62.82,45.88,43.33,208.17,258.17,44.73,44.7,208.28,256.28,1.0
2018-09-09 22:01:00,88.66213,46.52481,1018.388,262.15,82.9,11.8,-1.41,-2.73,63.62,43.85,43.19,208.07,257.6,43.92,45.3,208.2,256.16,1.0
2018-09-09 22:01:00,88.66213,46.52482,1018.375,262.15,82.9,11.9,-1.14,-2.89,64.43,45.29,43.33,208.36,257.34,43.03,45.86,208.24,256.14,1.0
2018-09-09 22:01:00,88.66213,46.52482,1018.368,262.15,83.0,12.0,-0.93,-2.87,65.26,47.25,43.4,208.37,257.48,42.14,46.34,208.28,256.17,1.0
2018-09-09 22:01:00,88.66213,46.52483,1018.373,262.16,83.0,11.9,-0.98,-2.41,66.12,45.16,43.47,208.41,257.38,41.36,46.75,208.26,256.18,1.0
2018-09-09 22:01:00,88.66213,46.52483,1018.342,262.16,83.0,12.2,-0.46,-2.79,67.0,44.63,43.61,208.78,257.33,40.78,47.06,208.25,256.17,1.0
2018-09-09 22:01:00,88.66213,46.52484,1018.329,262.17,83.0,12.2,-0.43,-2.2,67.83,46.07,43.61,207.75,256.45,40.48,47.28,208.24,256.13,1.0
2018-09-09 22:01:00,88.66213,46.52484,1018.329,262.17,83.0,12.2,-0.35,-2.1,68.66,43.46,43.88,208.28,257.47,40.51,47.43,208.24,256.16,1.0
2018-09-09 22:01:00,88.66213,46.52484,1018.337,262.17,83.1,12.2,-0.16,-2.09,69.5,44.9,43.82,208.43,257.82,40.87,47.51,208.19,256.19,1.0
2018-09-09 22:01:00,88.66213,46.52485,1018.338,262.17,83.1,12.2,0.06,-2.04,70.36,45.81,44.02,207.48,257.07,41.52,47.54,208.1,256.2,1.0
2018-09-09 22:01:00,88.66213,46.52485,1018.301,262.18,83.1,12.5,0.11,-2.07,71.19,43.32,44.09,207.35,256.62,42.39,47.53,208.01,256.18,1.0
2018-09-09 22:01:00,88.66213,46.52486,1018.307,262.18,83.1,12.4,0.32,-2.06,72.05,42.74,44.09,207.56,257.02,43.34,47.51,207.81,256.15,1.0
2018-09-09 22:01:00,88.66213,46.52486,1018.302,262.18,83.1,12.5,0.44,-1.9,72.88,44.76,44.23,207.77,257.33,44.27,47.47,207.72,256.14,1.0
2018-09-09 22:01:00,88.66213,46.52486,1018.294,262.18,83.2,12.5,0.31,-1.83,73.77,44.63,44.23,207.94,257.24,45.04,47.44,207.56,255.97,1.0
2018-09-09 22:01:00,88.66213,46.52487,1018.28,262.19,83.2,12.6,0.22,-1.74,74.66,43.26,44.44,207.96,257.22,45.55,47.4,207.45,255.8,1.0
2018-09-09 22:01:00,88.66213,46.52487,1018.248,262.19,83.2,12.9,0.39,-1.55,75.53,45.22,44.51,208.12,257.37,45.72,47.38,207.48,255.76,1.0
2018-09-09 22:01:00,88.66213,46.52488,1018.23,262.19,83.2,13.0,0.3,-1.47,76.44,44.44,44.51,207.44,257.08,45.53,47.35,207.5,255.71,1.0
2018-09-09 22:01:00,88.66213,46.52488,1018.238,262.2,83.2,12.9,0.41,-1.41,77.25,45.03,44.58,208.18,257.07,45.0,47.34,207.57,255.65,1.0
2018-09-09 22:01:00,88.66213,46.52488,1018.236,262.2,83.2,12.9,0.37,-1.5,78.09,43.98,44.64,207.7,256.49,44.19,47.34,207.63,255.58,1.0
2018-09-09 22:01:00,88.66213,46.52489,1018.223,262.2,83.2,13.0,0.32,-1.42,78.93,46.47,44.64,207.75,256.38,43.17,47.35,207.74,255.52,1.0
2018-09-09 22:01:00,88.66213,46.52489,1018.206,262.2,83.3,13.2,0.33,-1.14,79.75,45.35,44.85,208.52,257.42,42.07,47.37,207.87,255.48,1.0
2018-09-09 22:01:00,88.66213,46.5249,1018.226,262.21,83.3,13.0,0.22,-1.43,80.56,43.85,44.92,207.27,256.88,40.97,47.41,207.92,255.45,1.0
2018-09-09 22:01:00,88.66213,46.5249,1018.19,262.21,83.3,13.3,-0.13,-1.04,81.33,43.85,44.99,207.65,257.11,39.98,47.46,208.05,255.52,1.0
2018-09-09 22:01:00,88.66213,46.5249,1018.179,262.21,83.3,13.4,0.18,-1.18,82.06,44.24,44.99,207.77,256.67,39.18,47.51,208.06,255.54,1.0
2018-09-09 22:01:00,88.66213,46.52491,1018.178,262.21,83.3,13.4,0.31,-1.3,82.79,43.46,44.92,207.96,256.77,38.59,47.56,208.08,255.57,1.0
2018-09-09 22:01:00,88.66213,46.52491,1018.175,262.22,83.4,13.4,0.25,-1.27,83.51,43.46,45.06,208.04,256.2,38.25,47.6,208.07,255.56,1.0
2018-09-09 22:01:00,88.66213,46.52492,1018.17,262.22,83.4,13.4,0.45,-1.21,84.16,44.9,45.13,207.89,256.55,38.14,47.62,207.97,255.43,1.0
2018-09-09 22:01:00,88.66213,46.52492,1018.134,262.21,83.4,13.7,0.36,-1.16,84.81,43.59,45.2,208.27,257.35,38.22,47.61,207.98,255.42,1.0
2018-09-09 22:01:00,88.66213,46.52492,1018.139,262.22,83.4,13.7,0.56,-1.18,85.39,44.37,45.27,207.89,256.74,38.45,47.56,207.92,255.36,1.0
2018-09-09 22:01:00,88.66213,46.52493,1018.142,262.22,83.4,13.6,0.55,-1.18,85.98,44.04,45.34,208.08,256.18,38.77,47.48,207.93,255.31,1.0
2018-09-09 22:01:00,88.66213,46.52493,1018.138,262.22,83.4,13.7,0.4,-1.26,86.54,42.6,45.47,207.94,255.99,39.12,47.37,207.87,255.23,1.0
2018-09-09 22:01:00,88.66213,46.52493,1018.134,262.22,83.4,13.7,0.31,-1.43,87.06,42.15,45.47,207.82,255.54,39.48,47.23,207.76,255.14,1.0
2018-09-09 22:01:00,88.66213,46.52494,1018.134,262.22,83.5,13.7,0.49,-1.37,87.53,42.67,45.68,208.29,255.96,39.79,47.08,207.83,255.13,1.0
2018-09-09 22:01:00,88.66213,46.52494,1018.102,262.21,83.5,13.9,0.17,-1.38,88.0,43.19,45.47,207.5,255.77,40.05,46.92,207.83,255.19,1.0
2018-09-09 22:01:00,88.66213,46.52494,1018.091,262.22,83.5,14.0,0.45,-1.37,88.44,43.26,45.68,208.24,256.0,40.24,46.77,207.93,255.21,1.0
2018-09-09 22:01:00,88.66213,46.52495,1018.093,262.22,83.5,14.0,0.69,-1.33,88.87,42.74,45.4,207.72,255.29,40.38,46.65,207.99,255.23,1.0
2018-09-09 22:01:00,88.66213,46.52495,1018.101,262.22,83.5,14.0,0.77,-1.27,89.28,43.72,45.68,206.92,255.51,40.47,46.56,208.04,255.29,1.0
2018-09-09 22:01:00,88.66213,46.52496,1018.108,262.22,83.6,13.9,1.02,-1.26,89.64,42.67,45.61,208.22,256.23,40.52,46.51,208.12,255.35,1.0
2018-09-09 22:01:00,88.66213,46.52496,1018.061,262.22,83.6,14.2,1.31,-1.18,90.0,42.47,45.68,208.18,257.76,40.56,46.5,208.07,255.3,1.0
2018-09-09 22:01:00,88.66213,46.52497,1018.037,262.21,83.6,14.4,1.2,-1.14,90.34,42.6,45.68,208.48,256.69,40.6,46.53,207.95,255.27,1.0
2018-09-09 22:01:00,88.66213,46.52498,1018.045,262.21,83.6,14.4,1.33,-1.12,90.64,41.56,45.82,208.48,256.51,40.63,46.6,207.84,255.3,1.0
2018-09-09 22:01:00,88.66213,46.52498,1018.057,262.22,83.6,14.3,1.37,-1.09,90.92,43.19,45.68,208.38,256.21,40.66,46.69,207.81,255.36,1.0
2018-09-09 22:01:00,88.66213,46.52499,1018.029,262.22,83.7,14.5,1.04,-1.02,91.18,42.87,45.54,208.44,256.42,40.68,46.81,207.81,255.41,1.0
2018-09-09 22:01:00,88.66213,46.52499,1018.035,262.21,83.7,14.4,1.18,-0.98,91.38,43.19,45.68,207.66,255.38,40.68,46.95,207.75,255.45,1.0
2018-09-09 22:01:00,88.66213,46.525,1018.027,262.22,83.7,14.5,1.19,-0.79,91.57,41.75,45.82,206.93,255.43,40.63,47.09,207.75,255.34,1.0
2018-09-09 22:01:00,88.66213,46.525,1018.02,262.21,83.7,14.6,1.11,-0.83,91.75,42.34,45.82,207.46,255.96,40.52,47.23,207.7,255.33,1.0
2018-09-09 22:01:00,88.66213,46.52501,1018.011,262.21,83.7,14.6,1.33,-0.96,91.89,42.74,45.89,207.73,255.56,40.33,47.37,207.69,255.36,1.0
2018-09-09 22:01:00,88.66213,46.52502,1017.999,262.22,83.8,14.7,1.63,-1.03,91.99,41.49,45.96,207.5,255.52,40.06,47.5,207.7,255.4,1.0
2018-09-09 22:01:00,88.66213,46.52502,1017.991,262.21,83.8,14.8,1.26,-0.96,92.14,42.54,46.1,207.88,256.12,39.7,47.62,207.66,255.44,1.0
2018-09-09 22:01:00,88.66213,46.52503,1017.997,262.22,83.8,14.7,1.64,-0.93,92.15,42.21,45.96,207.96,256.14,39.28,47.72,207.74,255.5,1.0
2018-09-09 22:01:00,88.66213,46.52504,1018.008,262.21,83.8,14.6,1.45,-0.91,92.22,42.34,45.89,207.75,256.2,38.82,47.81,207.84,255.5,1.0
2018-09-09 22:01:00,88.66213,46.52504,1018.003,262.21,83.8,14.7,1.37,-0.92,92.25,42.08,45.75,208.0,256.08,38.36,47.88,207.89,255.47,1.0
2018-09-09 22:01:00,88.66213,46.52505,1017.973,262.21,83.9,14.9,1.6,-0.93,92.2,41.03,46.3,208.09,256.35,37.94,47.93,207.91,255.45,1.0
2018-09-09 22:01:00,88.66213,46.52506,1017.93,262.21,83.9,15.2,1.96,-0.94,92.09,43.39,46.1,207.92,256.43,37.61,47.97,207.89,255.43,1.0
2018-09-09 22:01:00,88.66213,46.52506,1017.953,262.21,83.9,15.1,1.67,-0.89,92.01,42.87,46.3,208.49,256.33,37.39,47.99,207.85,255.29,1.0
2018-09-09 22:01:00,88.66213,46.52507,1017.946,262.21,83.9,15.1,2.0,-1.02,91.83,40.97,46.23,207.74,255.56,37.31,48.0,207.8,255.2,1.0
2018-09-09 22:01:00,88.66213,46.52508,1017.934,262.21,84.0,15.2,1.95,-0.86,91.69,40.64,46.37,207.78,256.07,37.37,48.0,207.8,255.13,1.0
2018-09-09 22:01:00,88.66213,46.52508,1017.921,262.21,84.0,15.3,1.86,-0.69,91.52,40.25,46.37,207.95,256.34,37.55,48.01,207.79,255.09,1.0
2018-09-09 22:01:00,88.66213,46.52509,1017.893,262.21,84.0,15.5,2.16,-0.84,91.24,42.15,46.3,207.17,255.86,37.81,48.02,207.78,255.05,1.0
2018-09-09 22:01:00,88.66213,46.5251,1017.892,262.22,84.0,15.5,1.94,-0.58,91.06,40.9,46.51,207.16,254.92,38.12,48.04,207.83,255.04,1.0
2018-09-09 22:01:00,88.66213,46.5251,1017.909,262.23,84.0,15.4,2.11,-0.57,90.81,41.23,46.37,207.44,255.97,38.41,48.07,207.78,255.07,1.0
2018-09-09 22:01:00,88.66213,46.52511,1017.888,262.22,84.1,15.5,2.22,-0.47,90.53,42.08,46.51,207.77,255.95,38.65,48.11,207.84,255.14,1.0
2018-09-09 22:01:00,88.66213,46.52511,1017.863,262.22,84.1,15.7,2.24,-0.49,90.25,41.36,46.51,207.83,255.96,38.8,48.14,207.85,255.17,1.0
2018-09-09 22:01:00,88.66213,46.52512,1017.856,262.23,84.1,15.8,2.21,-0.63,89.97,40.31,46.58,207.75,255.79,38.85,48.17,207.83,255.16,1.0
2018-09-09 22:01:00,88.66213,46.52512,1017.844,262.23,84.1,15.9,2.2,-0.68,89.68,39.53,46.58,208.01,255.82,38.8,48.18,207.87,255.13,1.0
2018-09-09 22:01:00,88.66213,46.52513,1017.858,262.24,84.1,15.8,2.23,-0.67,89.29,41.69,46.51,207.39,255.92,38.68,48.17,207.86,255.12,1.0
2018-09-09 22:01:00,88.66213,46.52513,1017.839,262.24,84.1,15.9,2.23,-0.72,88.85,40.12,46.72,208.21,256.14,38.54,48.14,207.88,255.07,1.0
2018-09-09 22:01:00,88.66213,46.52514,1017.818,262.24,84.2,16.1,2.24,-0.71,88.42,41.1,46.79,207.93,255.74,38.43,48.07,207.78,254.96,1.0
2018-09-09 22:01:00,88.66213,46.52514,1017.806,262.25,84.2,16.2,2.34,-0.67,87.99,41.49,46.86,207.88,255.36,38.4,47.98,207.68,254.81,1.0
2018-09-09 22:01:00,88.66213,46.52515,1017.798,262.26,84.2,16.2,2.58,-0.67,87.54,41.43,46.92,208.37,255.25,38.48,47.87,207.7,254.69,1.0
2018-09-09 22:01:00,88.66213,46.52515,1017.812,262.27,84.2,16.1,2.73,-0.69,87.05,40.38,46.79,207.61,255.11,38.7,47.75,207.65,254.58,1.0
2018-09-09 22:01:00,88.66213,46.52516,1017.796,262.27,84.2,16.2,2.94,-0.83,86.56,40.58,46.72,208.37,255.72,39.03,47.65,207.72,254.48,1.0
2018-09-09 22:01:00,88.66213,46.52516,1017.785,262.28,84.2,16.3,3.09,-0.75,86.09,38.87,46.99,207.3,255.3,39.46,47.55,207.69,254.37,1.0
2018-09-09 22:01:00,88.66213,46.52516,1017.774,262.28,84.2,16.4,3.19,-0.74,85.58,41.75,46.86,207.25,254.87,39.93,47.49,207.71,254.31,1.0
2018-09-09 22:01:00,88.66213,46.52517,1017.758,262.28,84.2,16.5,3.26,-0.85,85.05,39.92,46.92,208.29,255.3,40.37,47.45,207.79,254.3,1.0
2018-09-09 22:01:00,88.66213,46.52517,1017.751,262.28,84.2,16.6,3.27,-0.7,84.55,40.71,46.92,207.84,255.53,40.75,47.45,207.8,254.31,1.0
2018-09-09 22:01:00,88.66213,46.52518,1017.758,262.29,84.3,16.5,2.97,-0.82,84.07,39.33,46.86,208.32,255.17,40.99,47.47,207.93,254.44,1.0
2018-09-09 22:01:00,88.66213,46.52518,1017.749,262.29,84.3,16.6,2.74,-0.78,83.54,40.38,46.92,207.35,254.71,41.09,47.51,207.93,254.52,1.0
2018-09-09 22:01:00,88.66213,46.52518,1017.729,262.29,84.3,16.7,2.66,-0.77,83.0,39.72,46.86,207.78,254.78,41.02,47.55,208.01,254.62,1.0
2018-09-09 22:01:00,88.66213,46.52519,1017.711,262.29,84.3,16.9,2.76,-0.75,82.46,41.75,46.99,208.05,255.05,40.81,47.57,208.08,254.72,1.0
2018-09-09 22:01:00,88.66213,46.52519,1017.7,262.3,84.3,16.9,2.97,-0.53,81.9,40.18,46.92,208.19,255.0,40.5,47.58,208.04,254.76,1.0
2018-09-09 22:01:00,88.66213,46.5252,1017.707,262.3,84.3,16.9,3.13,-0.72,81.35,40.97,46.99,208.72,256.1,40.13,47.56,208.08,254.78,1.0
2018-09-09 22:01:00,88.66213,46.5252,1017.695,262.3,84.3,17.0,3.2,-0.73,80.74,42.93,46.92,208.19,255.61,39.76,47.5,208.05,254.79,1.0
2018-09-09 22:01:00,88.66213,46.5252,1017.689,262.3,84.3,17.0,3.26,-0.71,80.12,40.58,47.13,208.3,255.39,39.41,47.42,208.15,254.83,1.0
2018-09-09 22:01:00,88.66213,46.5252,1017.684,262.31,84.3,17.1,3.18,-0.78,79.51,40.18,47.13,208.42,255.56,39.13,47.32,208.22,254.86,1.0
2018-09-09 22:01:00,88.66213,46.52521,1017.666,262.31,84.3,17.2,2.95,-0.88,78.92,38.42,47.13,208.22,255.18,38.92,47.21,208.24,254.88,1.0
2018-09-09 22:01:00,88.66213,46.52521,1017.658,262.31,84.4,17.3,2.8,-0.6,78.27,39.92,46.99,208.52,255.32,38.78,47.1,208.31,254.91,1.0
2018-09-09 22:01:00,88.66213,46.52521,1017.661,262.32,84.4,17.2,2.31,-0.69,77.6,40.25,46.99,208.15,255.37,38.69,47.0,208.22,254.79,1.0
2018-09-09 22:01:00,88.66213,46.52521,1017.635,262.32,84.4,17.4,2.27,-0.57,76.93,40.38,47.13,208.46,255.69,38.65,46.93,208.22,254.75,1.0
2018-09-09 22:01:00,88.66213,46.52522,1017.617,262.32,84.4,17.6,2.19,-0.52,76.27,40.12,46.92,208.54,255.31,38.62,46.89,208.17,254.72,1.0
2018-09-09 22:01:00,88.66213,46.52522,1017.626,262.32,84.4,17.5,2.01,-0.63,75.63,41.56,47.06,208.34,255.31,38.6,46.88,208.08,254.7,1.0
2018-09-09 22:01:00,88.66213,46.52522,1017.619,262.32,84.4,17.6,2.14,-0.75,74.94,39.92,46.92,208.32,255.49,38.61,46.89,208.02,254.71,1.0
2018-09-09 22:01:00,88.66213,46.52522,1017.594,262.31,84.4,17.7,2.16,-0.59,74.25,39.79,47.13,207.5,254.91,38.67,46.92,207.86,254.74,1.0
2018-09-09 22:01:00,88.66212,46.52522,1017.585,262.32,84.4,17.8,2.46,-0.61,73.53,41.16,46.99,208.08,255.52,38.79,46.95,207.85,254.95,1.0
2018-09-09 22:01:00,88.66212,46.52523,1017.566,262.32,84.5,17.9,2.8,-0.54,72.82,41.16,46.99,208.06,255.51,39.02,47.0,207.71,255.14,1.0
2018-09-09 22:01:00,88.66212,46.52523,1017.552,262.32,84.5,18.1,2.94,-0.45,72.12,39.4,46.99,208.08,255.74,39.39,47.04,207.51,255.23,1.0
2018-09-09 22:01:00,88.66212,46.52523,1017.578,262.32,84.5,17.9,2.82,-0.45,71.44,39.33,46.92,208.39,255.68,39.89,47.07,207.39,255.3,1.0
2018-09-09 22:01:00,88.66212,46.52524,1017.565,262.32,84.5,18.0,3.1,-0.26,70.69,39.4,47.13,207.86,256.11,40.51,47.1,207.33,255.49,1.0
2018-09-09 22:01:00,88.66212,46.52524,1017.55,262.32,84.5,18.1,3.18,-0.41,69.97,39.07,47.2,208.94,257.99,41.23,47.12,207.28,255.68,1.0
2018-09-09 22:01:00,88.66212,46.52524,1017.541,262.32,84.6,18.1,3.11,-0.42,69.3,39.53,46.92,208.13,257.54,41.97,47.15,207.17,255.89,1.0
2018-09-09 22:01:00,88.66212,46.52525,1017.533,262.32,84.6,18.2,3.15,-0.33,68.62,40.97,46.86,206.95,256.49,42.68,47.19,207.06,256.14,1.0
2018-09-09 22:01:00,88.66212,46.52525,1017.525,262.32,84.6,18.3,3.36,-0.2,67.93,39.92,46.99,206.64,255.8,43.26,47.23,206.96,256.4,1.0
2018-09-09 22:01:00,88.66212,46.52525,1017.541,262.32,84.6,18.1,3.41,0.05,67.28,39.79,47.06,207.4,256.52,43.66,47.3,206.91,256.59,1.0
2018-09-09 22:01:00,88.66212,46.52526,1017.529,262.32,84.6,18.2,3.37,0.02,66.6,41.16,47.13,206.68,255.85,43.82,47.38,206.95,256.78,1.0
2018-09-09 22:01:00,88.66212,46.52526,1017.508,262.32,84.7,18.4,3.24,0.11,65.92,41.95,46.99,205.99,257.08,43.72,47.47,206.76,256.65,1.0
2018-09-09 22:01:00,88.66212,46.52526,1017.498,262.32,84.7,18.5,3.36,0.29,65.25,40.25,47.34,205.71,257.42,43.37,47.58,206.65,256.54,1.0
2018-09-09 22:01:00,88.66212,46.52527,1017.495,262.32,84.7,18.5,3.56,0.39,64.55,40.9,46.79,205.84,257.45,42.8,47.69,206.65,256.59,1.0
2018-09-09 22:01:00,88.66212,46.52527,1017.476,262.32,84.8,18.6,3.47,0.28,63.88,39.01,46.99,206.81,257.65,42.09,47.8,206.66,256.68,1.0
2018-09-09 22:01:00,88.66212,46.52528,1017.466,262.32,84.8,18.7,3.3,0.5,63.3,40.12,47.13,207.77,257.53,41.31,47.89,206.65,256.68,1.0
2018-09-09 22:01:00,88.66212,46.52528,1017.464,262.32,84.8,18.7,3.36,0.58,62.67,41.49,47.13,206.71,256.56,40.56,47.97,206.75,256.77,1.0
2018-09-09 22:01:00,88.66212,46.52528,1017.446,262.32,84.8,18.8,3.29,0.54,62.06,40.97,47.13,207.16,256.54,39.92,48.02,206.94,256.84,1.0
2018-09-09 22:01:00,88.66212,46.52528,1017.423,262.32,84.8,19.0,3.14,0.45,61.45,41.49,47.13,207.94,257.18,39.47,48.04,207.15,256.87,1.0
2018-09-09 22:01:00,88.66212,46.52529,1017.459,262.32,84.9,18.8,3.19,0.35,60.83,40.71,47.13,207.94,257.83,39.24,48.03,207.29,256.9,1.0
2018-09-09 22:01:00,88.66212,46.52529,1017.444,262.32,84.9,18.9,3.02,0.33,60.25,39.86,47.34,208.13,257.69,39.26,47.99,207.35,256.98,1.0
2018-09-09 22:01:00,88.66212,46.52529,1017.42,262.33,84.9,19.0,3.27,0.4,59.65,42.21,47.2,207.96,257.44,39.53,47.91,207.36,256.97,1.0
2018-09-09 22:01:00,88.66212,46.5253,1017.402,262.33,85.0,19.2,3.09,0.53,59.07,39.86,47.34,208.08,257.52,40.01,47.8,207.42,257.09,1.0
2018-09-09 22:01:00,88.66212,46.5253,1017.389,262.32,85.0,19.3,2.9,0.54,58.49,39.92,47.41,207.07,257.27,40.68,47.67,207.44,257.23,1.0
2018-09-09 22:01:00,88.66212,46.5253,1017.37,262.33,85.0,19.4,3.01,0.47,57.89,39.72,47.2,206.54,257.1,41.49,47.51,207.37,257.26,1.0
2018-09-09 22:01:00,88.66212,46.5253,1017.347,262.33,85.0,19.6,2.69,0.78,57.36,41.36,47.34,206.25,257.0,42.39,47.34,207.23,257.24,1.0
2018-09-09 22:01:00,88.66212,46.5253,1017.348,262.34,85.0,19.6,2.95,0.4,56.74,39.27,47.13,206.56,256.18,43.33,47.17,207.04,257.2,1.0
2018-09-09 22:01:00,88.66212,46.52531,1017.339,262.33,85.1,19.6,2.98,0.48,56.17,41.16,47.34,206.14,257.06,44.29,47.01,206.81,257.15,1.0
2018-09-09 22:01:00,88.66212,46.52531,1017.346,262.33,85.1,19.6,2.9,0.56,55.65,40.71,47.2,206.27,257.61,45.21,46.87,206.56,257.08,1.0
2018-09-09 22:01:00,88.66212,46.52531,1017.37,262.33,85.1,19.4,2.86,0.54,55.12,40.58,47.27,206.43,257.35,46.07,46.76,206.37,257.04,1.0
2018-09-09 22:01:00,88.66212,46.52531,1017.377,262.34,85.2,19.4,2.89,0.56,54.57,40.84,47.41,206.58,257.18,46.85,46.7,206.3,257.03,1.0
2018-09-09 22:01:00,88.66212,46.52531,1017.338,262.34,85.2,19.7,2.81,0.41,54.07,40.97,47.27,206.36,257.34,47.5,46.69,206.28,256.99,1.0
2018-09-09 22:01:00,88.66212,46.52531,1017.328,262.34,85.2,19.7,2.7,0.46,53.57,41.56,47.34,206.27,257.45,47.99,46.73,206.3,257.09,1.0
2018-09-09 22:01:00,88.66212,46.52531,1017.32,262.34,85.2,19.8,2.68,0.46,53.07,42.02,47.13,206.27,257.74,48.31,46.81,206.35,257.17,1.0
2018-09-09 22:01:00,88.66212,46.52531,1017.313,262.34,85.2,19.8,2.65,0.44,52.57,41.23,47.2,206.56,257.61,48.42,46.93,206.48,257.23,1.0
2018-09-09 22:01:00,88.66212,46.52532,1017.308,262.34,85.3,19.9,2.57,0.41,52.09,41.88,47.2,206.6,257.58,48.31,47.07,206.67,257.29,1.0
2018-09-09 22:01:00,88.66212,46.52532,1017.281,262.35,85.3,20.1,2.64,0.28,51.62,42.67,46.92,206.51,256.8,47.98,47.21,206.86,257.35,1.0
2018-09-09 22:01:00,88.66212,46.52532,1017.281,262.35,85.3,20.1,2.62,0.49,51.2,40.58,46.99,206.64,257.39,47.46,47.34,207.03,257.38,1.0
2018-09-09 22:01:00,88.66212,46.52532,1017.261,262.35,85.3,20.2,2.57,0.46,50.8,42.87,47.13,206.59,257.13,46.77,47.43,207.21,257.26,1.0
2018-09-09 22:01:00,88.66212,46.52532,1017.241,262.35,85.4,20.4,2.5,0.35,50.41,42.02,47.27,207.08,256.94,45.98,47.47,207.39,257.06,1.0
2018-09-09 22:01:00,88.66212,46.52532,1017.238,262.35,85.4,20.4,2.42,0.34,50.01,43.26,47.34,207.61,257.1,45.15,47.44,207.53,256.91,1.0
2018-09-09 22:01:00,88.66212,46.52532,1017.21,262.36,85.4,20.6,2.38,0.53,49.64,42.47,47.34,207.55,257.24,44.35,47.34,207.58,256.88,1.0
2018-09-09 22:01:00,88.66212,46.52532,1017.212,262.36,85.4,20.6,2.4,0.31,49.29,43.46,47.27,207.72,257.05,43.67,47.16,207.61,256.88,1.0
2018-09-09 22:01:00,88.66212,46.52531,1017.2,262.37,85.4,20.7,2.25,0.44,48.99,43.13,47.2,208.09,256.03,43.17,46.91,207.49,256.85,1.0
2018-09-09 22:01:00,88.66212,46.52531,1017.194,262.37,85.5,20.7,2.09,0.44,48.66,41.88,47.34,208.39,255.61,42.91,46.58,207.36,256.88,1.0
2018-09-09 22:01:00,88.66212,46.52531,1017.198,262.37,85.5,20.7,1.99,0.33,48.35,42.93,47.06,208.42,256.17,42.9,46.2,207.2,256.94,1.0
2018-09-09 22:01:00,88.66212,46.52531,1017.2,262.37,85.5,20.7,1.94,0.32,48.07,41.88,47.2,207.57,257.83,43.17,45.76,206.99,256.96,1.0
2018-09-09 22:01:00,88.66212,46.52531,1017.2,262.38,85.5,20.7,1.89,0.23,47.83,43.59,47.13,207.64,257.87,43.68,45.29,206.79,256.98,1.0
2018-09-09 22:01:00,88.66212,46.52531,1017.156,262.38,85.6,21.0,1.99,0.17,47.63,41.3,47.34,206.28,257.75,44.38,44.78,206.62,257.02,1.0
2018-09-09 22:01:00,88.66212,46.52531,1017.153,262.39,85.6,21.0,2.07,0.25,47.44,43.72,47.13,205.97,258.11,45.21,44.25,206.45,257.16,1.0
2018-09-09 22:01:00,88.66212,46.52531,1017.158,262.39,85.6,21.0,2.0,0.3,47.29,41.75,46.92,206.1,258.13,46.07,43.7,206.25,257.33,1.0
2018-09-09 22:01:00,88.66212,46.5253,1017.116,262.39,85.6,21.3,1.86,0.28,47.16,42.34,46.99,205.88,257.58,46.89,43.14,206.05,257.42,1.0
2018-09-09 22:01:00,88.66212,46.5253,1017.069,262.39,85.7,21.7,2.03,0.32,47.04,42.15,46.92,205.75,257.69,47.57,42.59,205.95,257.32,1.0
2018-09-09 22:01:00,88.66212,46.5253,1017.085,262.4,85.7,21.5,1.61,0.36,46.99,42.6,46.72,205.74,257.51,48.03,42.05,205.97,257.1,1.0
2018-09-09 22:01:00,88.66212,46.5253,1017.089,262.4,85.7,21.5,1.66,0.23,46.91,44.44,46.65,205.99,257.29,48.22,41.54,205.99,256.97,1.0
2018-09-09 22:01:00,88.66212,46.52529,1017.097,262.4,85.7,21.5,1.65,0.25,46.89,44.5,46.51,205.83,257.42,48.1,41.08,205.98,256.77,1.0
2018-09-09 22:01:00,88.66212,46.52529,1017.104,262.41,85.7,21.4,1.66,0.3,46.91,43.26,46.37,205.66,257.31,47.66,40.68,205.98,256.58,1.0
2018-09-09 22:01:00,88.66212,46.52529,1017.09,262.4,85.8,21.5,1.86,0.2,46.94,43.52,46.16,206.4,257.07,46.93,40.35,205.99,256.5,1.0
2018-09-09 22:01:00,88.66212,46.52528,1017.039,262.41,85.8,21.9,1.91,0.12,47.04,43.98,45.96,207.74,255.93,45.96,40.11,206.01,256.44,1.0
2018-09-09 22:01:00,88.66212,46.52528,1017.049,262.42,85.8,21.8,1.9,0.22,47.17,42.6,45.96,206.31,256.92,44.84,39.97,206.02,256.41,1.0
2018-09-09 22:01:00,88.66212,46.52528,1017.057,262.42,85.8,21.8,1.83,0.23,47.32,42.67,45.75,205.97,256.83,43.67,39.92,206.07,256.43,1.0
2018-09-09 22:01:00,88.66212,46.52528,1017.053,262.42,85.8,21.8,1.75,0.17,47.5,43.91,45.75,206.06,256.89,42.56,39.95,206.13,256.47,1.0
2018-09-09 22:01:00,88.66212,46.52527,1017.044,262.42,85.8,21.8,1.67,0.09,47.73,46.07,45.34,206.03,257.08,41.62,40.06,206.15,256.5,1.0
2018-09-09 22:01:00,88.66212,46.52527,1017.044,262.43,85.9,21.9,1.42,0.11,48.0,43.46,45.4,206.09,256.85,40.95,40.21,206.15,256.57,1.0
2018-09-09 22:01:00,88.66212,46.52527,1017.011,262.44,85.9,22.1,1.68,-0.1,48.26,44.57,44.92,205.69,256.99,40.61,40.4,206.02,256.76,1.0
2018-09-09 22:01:00,88.66212,46.52526,1016.994,262.44,85.9,22.2,1.94,-0.02,48.52,43.78,44.92,206.61,257.14,40.66,40.58,206.03,256.71,1.0
2018-09-09 22:01:00,88.66212,46.52527,1016.971,262.44,86.0,22.4,1.98,0.07,48.85,41.69,44.92,206.36,256.87,41.08,40.76,206.1,256.63,1.0
2018-09-09 22:01:00,88.66212,46.52528,1016.927,262.44,86.0,22.7,1.92,0.01,49.25,43.39,44.71,206.2,256.86,41.83,40.91,206.16,256.57,1.0
2018-09-09 22:01:00,88.66212,46.52528,1016.906,262.45,86.0,22.9,2.17,-0.14,49.59,42.34,44.85,206.03,256.92,42.83,41.02,206.19,256.56,1.0
2018-09-09 22:01:00,88.66212,46.52529,1016.932,262.45,86.0,22.7,1.58,-0.08,50.11,43.59,44.71,205.93,257.15,43.96,41.11,206.17,256.6,1.0
2018-09-09 22:01:00,88.66212,46.5253,1016.945,262.46,86.0,22.6,2.08,-0.15,50.56,43.19,44.64,206.32,255.88,45.11,41.18,206.21,256.59,1.0
2018-09-09 22:01:00,88.66212,46.52531,1016.945,262.46,86.0,22.6,2.18,-0.05,51.06,42.74,44.64,206.53,255.75,46.14,41.24,206.19,256.57,1.0
2018-09-09 22:01:00,88.66212,46.52532,1016.937,262.46,86.0,22.6,2.14,0.09,51.59,42.93,44.44,206.33,256.15,46.95,41.33,206.15,256.56,1.0
2018-09-09 22:01:00,88.66212,46.52532,1016.924,262.46,86.0,22.8,2.45,0.05,52.08,44.11,44.3,205.97,257.08,47.44,41.46,206.13,256.57,1.0
2018-09-09 22:01:00,88.66212,46.52533,1016.899,262.47,86.1,22.9,2.55,-0.08,52.62,43.32,44.02,205.51,257.87,47.59,41.65,206.1,256.56,1.0
2018-09-09 22:01:00,88.66212,46.52533,1016.896,262.46,86.1,23.0,2.35,0.11,53.25,43.85,44.37,205.96,257.23,47.39,41.91,206.02,256.58,1.0
2018-09-09 22:01:00,88.66212,46.52533,1016.903,262.47,86.1,22.9,2.46,-0.13,53.84,44.63,44.02,206.43,257.14,46.9,42.24,205.94,256.75,1.0
2018-09-09 22:01:00,88.66212,46.52534,1016.898,262.48,86.1,22.9,2.5,-0.21,54.41,43.98,44.09,206.44,257.43,46.2,42.64,205.85,256.96,1.0
2018-09-09 22:01:00,88.66212,46.52534,1016.877,262.48,86.2,23.1,2.38,-0.14,54.99,44.7,43.88,206.15,257.48,45.4,43.1,205.78,257.12,1.0
2018-09-09 22:01:00,88.66212,46.52534,1016.88,262.49,86.2,23.1,2.44,-0.58,55.57,42.74,43.95,206.6,257.29,44.63,43.6,205.76,257.19,1.0
2018-09-09 22:01:00,88.66212,46.52534,1016.883,262.48,86.2,23.1,1.82,-0.15,56.22,43.78,43.88,206.13,257.48,44.0,44.12,205.79,257.16,1.0
2018-09-09 22:01:00,88.66212,46.52534,1016.882,262.49,86.2,23.1,1.88,-0.29,56.79,44.31,44.09,205.98,257.31,43.58,44.64,205.82,257.21,1.0
2018-09-09 22:01:00,88.66212,46.52535,1016.861,262.49,86.2,23.2,1.99,-0.32,57.39,44.76,43.95,206.08,257.41,43.46,45.14,205.83,257.24,1.0
2018-09-09 22:01:00,88.66212,46.52535,1016.837,262.49,86.2,23.4,2.07,-0.25,57.99,43.85,44.09,206.16,257.66,43.63,45.59,205.8,257.22,1.0
2018-09-09 22:01:00,88.66212,46.52535,1016.857,262.5,86.3,23.2,2.25,-0.34,58.56,44.37,44.02,206.07,257.39,44.1,45.99,205.78,257.19,1.0
2018-09-09 22:02:00,88.66212,46.52535,1016.843,262.5,86.3,23.4,2.69,-0.62,59.21,44.24,44.02,205.99,257.07,44.79,46.33,205.78,257.15,1.0
2018-09-09 22:02:00,88.66212,46.52536,1016.842,262.5,86.3,23.4,2.51,-0.58,59.84,43.06,44.23,206.16,257.77,45.65,46.59,205.73,257.06,1.0
2018-09-09 22:02:00,88.66212,46.52536,1016.836,262.5,86.3,23.4,2.8,-0.71,60.45,43.52,44.3,206.09,258.0,46.59,46.79,205.66,256.96,1.0
2018-09-09 22:02:00,88.66212,46.52536,1016.82,262.5,86.3,23.5,2.87,-0.7,61.06,44.04,44.44,205.78,257.49,47.52,46.92,205.59,256.86,1.0
2018-09-09 22:02:00,88.66212,46.52537,1016.797,262.51,86.3,23.7,2.39,-0.5,61.71,42.87,44.3,206.02,257.18,48.38,47.0,205.52,256.77,1.0
2018-09-09 22:02:00,88.66212,46.52537,1016.784,262.51,86.4,23.8,2.82,-0.86,62.26,44.24,44.44,206.0,257.26,49.1,47.03,205.46,256.71,1.0
2018-09-09 22:02:00,88.66212,46.52538,1016.802,262.51,86.4,23.7,2.29,-0.59,62.95,44.04,44.58,205.09,257.04,49.65,47.02,205.42,256.71,1.0
2018-09-09 22:02:00,88.66212,46.52538,1016.793,262.51,86.4,23.7,2.35,-0.55,63.53,45.75,44.64,205.44,257.05,50.02,46.98,205.44,256.6,1.0
2018-09-09 22:02:00,88.66212,46.52539,1016.778,262.51,86.4,23.8,2.4,-0.59,64.08,44.18,44.71,205.49,257.37,50.21,46.92,205.51,256.55,1.0
2018-09-09 22:02:00,88.66212,46.52539,1016.766,262.51,86.4,23.9,2.16,-0.64,64.63,46.34,44.71,205.83,257.37,50.25,46.85,205.61,256.58,1.0
2018-09-09 22:02:00,88.66212,46.52539,1016.726,262.51,86.4,24.2,1.76,-0.71,65.15,45.22,44.78,205.77,256.97,50.14,46.77,205.73,256.61,1.0
2018-09-09 22:02:00,88.66212,46.5254,1016.718,262.51,86.5,24.3,1.83,-0.77,65.66,44.5,44.71,205.6,257.18,49.93,46.69,205.86,256.65,1.0
2018-09-09 22:02:00,88.66212,46.5254,1016.712,262.51,86.5,24.3,1.73,-0.63,66.16,44.83,44.92,206.38,256.58,49.64,46.63,206.03,256.7,1.0
2018-09-09 22:02:00,88.66212,46.52541,1016.713,262.51,86.5,24.3,1.84,-0.6,66.61,44.5,45.06,206.1,256.15,49.28,46.57,206.2,256.71,1.0
2018-09-09 22:02:00,88.66212,46.52541,1016.709,262.52,86.5,24.4,1.91,-0.68,67.04,45.09,44.99,205.98,257.03,48.87,46.54,206.33,256.69,1.0
2018-09-09 22:02:00,88.66212,46.52542,1016.686,262.52,86.5,24.5,1.65,-0.74,67.48,45.29,44.85,205.87,256.9,48.42,46.52,206.42,256.65,1.0
2018-09-09 22:02:00,88.66212,46.52542,1016.679,262.52,86.6,24.6,1.58,-0.86,67.86,46.14,44.99,206.34,256.78,47.96,46.52,206.48,256.58,1.0
2018-09-09 22:02:00,88.66212,46.52543,1016.671,262.52,86.6,24.6,1.64,-0.95,68.19,47.19,45.13,206.21,256.61,47.49,46.55,206.56,256.58,1.0
2018-09-09 22:02:00,88.66212,46.52544,1016.661,262.52,86.6,24.7,1.58,-0.85,68.48,45.55,45.06,206.43,256.62,47.04,46.59,206.53,256.59,1.0
2018-09-09 22:02:00,88.66212,46.52544,1016.646,262.52,86.6,24.8,1.66,-0.82,68.75,45.22,45.06,206.31,256.46,46.63,46.63,206.42,256.56,1.0
2018-09-09 22:02:00,88.66212,46.52545,1016.635,262.53,86.6,24.9,1.73,-0.91,69.0,45.68,45.13,206.74,256.57,46.27,46.69,206.3,256.52,1.0
2018-09-09 22:02:00,88.66212,46.52546,1016.668,262.53,86.7,24.7,1.02,-0.89,69.28,45.29,45.34,206.61,256.5,46.0,46.74,206.26,256.51,1.0
2018-09-09 22:02:00,88.66212,46.52546,1016.658,262.53,86.7,24.7,1.47,-1.15,69.47,46.4,45.27,207.3,257.39,45.82,46.79,206.35,256.42,1.0
2018-09-09 22:02:00,88.66212,46.52547,1016.666,262.53,86.7,24.7,1.32,-1.08,69.67,45.22,45.2,207.14,256.65,45.73,46.83,206.45,256.39,1.0
2018-09-09 22:02:00,88.66212,46.52547,1016.652,262.53,86.7,24.8,1.29,-1.05,69.82,46.6,45.27,206.19,256.69,45.75,46.87,206.49,256.46,1.0
2018-09-09 22:02:00,88.66212,46.52547,1016.614,262.53,86.7,25.1,1.37,-1.09,69.95,45.94,45.4,206.14,256.75,45.85,46.89,206.52,256.59,1.0
2018-09-09 22:02:00,88.66212,46.52547,1016.622,262.54,86.8,25.0,1.05,-1.06,70.11,44.83,45.47,206.47,256.92,46.01,46.9,206.56,256.71,1.0
2018-09-09 22:02:00,88.66212,46.52548,1016.609,262.54,86.8,25.1,0.79,-1.25,70.21,44.96,45.34,207.77,255.26,46.21,46.91,206.58,256.84,1.0
2018-09-09 22:02:00,88.66212,46.52548,1016.597,262.54,86.8,25.2,1.13,-1.27,70.26,45.42,45.47,207.52,255.97,46.41,46.9,206.51,256.88,1.0
2018-09-09 22:02:00,88.66212,46.52548,1016.604,262.54,86.8,25.1,0.97,-1.37,70.34,46.47,45.54,206.72,256.73,46.59,46.88,206.46,256.92,1.0
2018-09-09 22:02:00,88.66212,46.52548,1016.597,262.54,86.8,25.2,0.72,-1.45,70.41,46.27,45.54,206.29,256.96,46.71,46.86,206.46,256.96,1.0
2018-09-09 22:02:00,88.66212,46.52548,1016.547,262.54,86.8,25.6,0.74,-1.38,70.43,46.47,45.61,206.22,256.82,46.75,46.82,206.46,256.94,1.0
2018-09-09 22:02:00,88.66212,46.52549,1016.542,262.55,86.9,25.6,0.62,-1.04,70.45,45.42,45.61,206.31,256.95,46.7,46.77,206.34,256.88,1.0
2018-09-09 22:02:00,88.66212,46.52549,1016.55,262.55,86.9,25.5,0.96,-1.32,70.4,44.83,45.54,206.13,256.86,46.56,46.71,206.09,256.95,1.0
2018-09-09 22:02:00,88.66212,46.52549,1016.548,262.56,86.9,25.6,1.12,-1.31,70.36,46.27,45.68,206.24,256.95,46.34,46.63,205.98,256.83,1.0
2018-09-09 22:02:00,88.66212,46.52549,1016.539,262.56,86.9,25.6,1.01,-1.3,70.32,45.48,45.75,206.3,257.14,46.05,46.54,205.9,256.7,1.0
2018-09-09 22:02:00,88.66212,46.5255,1016.531,262.55,87.0,25.7,0.92,-1.35,70.25,46.92,45.68,206.15,257.0,45.7,46.44,205.82,256.64,1.0
2018-09-09 22:02:00,88.66212,46.5255,1016.526,262.55,87.0,25.7,1.38,-1.35,70.12,46.07,45.75,205.88,256.92,45.33,46.34,205.78,256.61,1.0
2018-09-09 22:02:00,88.66212,46.5255,1016.521,262.56,87.0,25.8,1.11,-1.21,69.99,45.81,45.68,205.89,257.61,44.95,46.25,205.97,256.55,1.0
2018-09-09 22:02:00,88.66212,46.5255,1016.516,262.56,87.0,25.8,1.2,-1.29,69.88,45.35,45.89,207.18,255.97,44.59,46.17,206.06,256.44,1.0
2018-09-09 22:02:00,88.66212,46.5255,1016.515,262.56,87.0,25.8,1.29,-1.14,69.76,46.66,45.96,206.4,256.36,44.28,46.11,206.07,256.34,1.0
2018-09-09 22:02:00,88.66212,46.52551,1016.516,262.56,87.0,25.8,1.32,-1.06,69.64,44.63,45.54,206.04,257.5,44.02,46.08,206.07,256.22,1.0
2018-09-09 22:02:00,88.66212,46.52551,1016.508,262.56,87.1,25.9,1.38,-1.37,69.49,46.01,45.75,206.44,257.73,43.83,46.07,206.13,256.09,1.0
2018-09-09 22:02:00,88.66212,46.52551,1016.482,262.56,87.1,26.1,1.57,-1.25,69.31,45.94,45.89,208.55,257.26,43.72,46.1,206.25,256.1,1.0
2018-09-09 22:02:00,88.66212,46.52552,1016.489,262.57,87.1,26.0,1.26,-1.24,69.16,46.14,45.68,207.3,256.63,43.68,46.15,206.41,255.92,1.0
2018-09-09 22:02:00,88.66212,46.52552,1016.484,262.57,87.1,26.0,1.41,-1.3,68.98,44.96,45.68,205.99,256.31,43.72,46.22,206.49,255.9,1.0
2018-09-09 22:02:00,88.66212,46.52553,1016.474,262.57,87.2,26.1,1.4,-1.25,68.85,45.68,45.75,206.03,255.68,43.83,46.3,206.58,255.83,1.0
2018-09-09 22:02:00,88.66212,46.52553,1016.474,262.57,87.2,26.1,1.08,-1.09,68.76,45.42,45.82,206.58,255.39,44.0,46.39,206.7,255.64,1.0
2018-09-09 22:02:00,88.66212,46.52553,1016.477,262.58,87.2,26.1,1.33,-1.16,68.56,45.88,46.1,206.86,256.62,44.24,46.47,206.81,255.44,1.0
2018-09-09 22:02:00,88.66212,46.52554,1016.445,262.58,87.2,26.3,1.39,-0.99,68.38,45.75,45.96,207.1,254.94,44.54,46.55,206.74,255.23,1.0
2018-09-09 22:02:00,88.66212,46.52554,1016.434,262.58,87.2,26.4,1.5,-1.05,68.2,44.9,45.75,207.51,255.18,44.88,46.62,206.77,255.1,1.0
2018-09-09 22:02:00,88.66212,46.52554,1016.416,262.58,87.2,26.5,1.67,-1.09,68.01,44.57,45.68,206.76,255.22,45.28,46.67,206.88,254.97,1.0
2018-09-09 22:02:00,88.66212,46.52555,1016.396,262.57,87.2,26.7,1.77,-1.14,67.81,45.35,45.89,206.08,255.08,45.72,46.72,206.97,254.84,1.0
2018-09-09 22:02:00,88.66212,46.52555,1016.422,262.58,87.3,26.5,1.67,-1.34,67.59,45.94,45.68,206.72,254.83,46.19,46.76,207.0,254.69,1.0
2018-09-09 22:02:00,88.66212,46.52555,1016.429,262.59,87.3,26.4,2.05,-1.25,67.3,44.24,46.1,206.86,254.79,46.7,46.81,207.02,254.55,1.0
2018-09-09 22:02:00,88.66212,46.52555,1016.424,262.59,87.3,26.5,1.82,-1.33,67.07,46.86,46.16,207.02,254.91,47.22,46.86,206.98,254.57,1.0
2018-09-09 22:02:00,88.66212,46.52555,1016.402,262.59,87.3,26.6,1.71,-1.25,66.84,45.03,46.1,206.98,254.96,47.73,46.91,206.93,254.53,1.0
2018-09-09 22:02:00,88.66212,46.52556,1016.382,262.59,87.3,26.8,1.6,-1.21,66.61,46.07,45.96,206.6,254.33,48.23,46.98,206.95,254.53,1.0
2018-09-09 22:02:00,88.66212,46.52556,1016.382,262.59,87.4,26.8,1.37,-1.35,66.4,44.83,46.03,206.64,253.67,48.69,47.05,207.05,254.6,1.0
2018-09-09 22:02:00,88.66212,46.52556,1016.383,262.6,87.4,26.8,1.35,-1.41,66.2,45.42,45.89,207.0,254.92,49.09,47.12,207.11,254.66,1.0
2018-09-09 22:02:00,88.66212,46.52556,1016.353,262.6,87.4,27.0,1.6,-1.33,65.93,44.83,46.1,206.8,254.61,49.42,47.18,207.18,254.77,1.0
2018-09-09 22:02:00,88.66212,46.52556,1016.334,262.6,87.4,27.2,1.53,-1.35,65.7,46.92,46.1,207.0,254.46,49.68,47.24,207.28,254.87,1.0
2018-09-09 22:02:00,88.66212,46.52556,1016.322,262.6,87.4,27.3,1.7,-1.4,65.46,46.73,46.23,207.67,254.48,49.86,47.28,207.32,254.95,1.0
2018-09-09 22:02:00,88.66212,46.52557,1016.315,262.61,87.4,27.3,1.95,-1.4,65.2,46.01,45.96,208.17,255.08,49.98,47.31,207.36,255.06,1.0
2018-09-09 22:02:00,88.66212,46.52557,1016.337,262.61,87.5,27.1,1.35,-1.35,65.01,46.14,46.23,207.56,254.6,50.05,47.33,207.51,255.21,1.0
2018-09-09 22:02:00,88.66212,46.52557,1016.321,262.61,87.5,27.3,1.84,-1.54,64.74,45.62,46.37,207.68,254.84,50.1,47.33,207.62,255.21,1.0
2018-09-09 22:02:00,88.66212,46.52558,1016.304,262.61,87.5,27.4,1.75,-1.56,64.5,44.9,46.16,207.71,254.66,50.14,47.33,207.72,255.22,1.0
2018-09-09 22:02:00,88.66212,46.52558,1016.296,262.61,87.5,27.4,1.84,-1.62,64.24,47.51,46.37,206.63,254.76,50.2,47.31,207.77,255.23,1.0
2018-09-09 22:02:00,88.66212,46.52559,1016.292,262.62,87.6,27.5,1.93,-1.68,63.98,46.66,46.3,206.35,255.1,50.27,47.3,207.74,255.17,1.0
2018-09-09 22:02:00,88.66212,46.52559,1016.279,262.62,87.6,27.6,1.67,-1.68,63.77,46.86,46.37,207.49,254.9,50.36,47.27,207.65,255.05,1.0
2018-09-09 22:02:00,88.66212,46.5256,1016.257,262.62,87.6,27.7,1.22,-1.74,63.52,46.99,46.37,207.54,254.99,50.43,47.24,207.59,254.98,1.0
2018-09-09 22:02:00,88.66212,46.5256,1016.249,262.63,87.6,27.8,1.14,-1.79,63.28,46.92,46.3,207.53,255.36,50.47,47.2,207.5,254.92,1.0
2018-09-09 22:02:00,88.66212,46.5256,1016.252,262.63,87.6,27.8,0.97,-1.71,63.05,47.32,46.37,207.65,255.26,50.44,47.15,207.41,254.9,1.0
2018-09-09 22:02:00,88.66212,46.52561,1016.253,262.63,87.6,27.8,1.21,-1.65,62.78,46.73,46.51,207.7,254.82,50.3,47.08,207.41,254.91,1.0
2018-09-09 22:02:00,88.66212,46.52561,1016.244,262.63,87.6,27.8,1.67,-1.66,62.49,46.79,46.44,207.5,254.61,50.04,46.99,207.43,254.93,1.0
2018-09-09 22:02:00,88.66212,46.52562,1016.225,262.63,87.7,28.0,1.2,-1.6,62.28,46.86,46.3,207.77,255.19,49.64,46.9,207.34,254.96,1.0
2018-09-09 22:02:00,88.66212,46.52562,1016.197,262.64,87.7,28.2,1.62,-1.62,61.95,46.4,46.44,207.87,255.22,49.12,46.8,207.31,255.06,1.0
2018-09-09 22:02:00,88.66212,46.52562,1016.206,262.64,87.7,28.1,1.63,-1.61,61.64,47.84,46.51,207.85,255.28,48.53,46.7,207.18,255.22,1.0
2018-09-09 22:02:00,88.66212,46.52562,1016.199,262.64,87.7,28.2,1.7,-1.58,61.37,46.99,46.51,207.7,255.04,47.91,46.62,207.11,255.38,1.0
2018-09-09 22:02:00,88.66212,46.52563,1016.172,262.64,87.7,28.4,1.83,-1.6,61.12,48.23,46.58,207.34,254.94,47.35,46.57,207.1,255.5,1.0
2018-09-09 22:02:00,88.66212,46.52563,1016.174,262.65,87.7,28.4,1.8,-1.69,60.88,47.45,46.51,207.06,254.73,46.91,46.56,207.08,255.58,1.0
2018-09-09 22:02:00,88.66212,46.52563,1016.156,262.65,87.8,28.5,1.52,-1.66,60.66,48.43,46.58,207.31,255.16,46.68,46.59,207.03,255.59,1.0
2018-09-09 22:02:00,88.66212,46.52564,1016.14,262.65,87.8,28.6,1.75,-1.6,60.39,47.45,46.58,206.05,256.42,46.7,46.67,206.97,255.57,1.0
2018-09-09 22:02:00,88.66212,46.52564,1016.128,262.65,87.8,28.7,1.59,-1.59,60.18,46.47,46.37,206.18,256.0,46.99,46.77,206.88,255.52,1.0
2018-09-09 22:02:00,88.66212,46.52564,1016.123,262.65,87.8,28.7,1.59,-1.61,59.94,46.4,46.16,206.94,255.54,47.56,46.88,206.78,255.46,1.0
2018-09-09 22:02:00,88.66212,46.52564,1016.122,262.65,87.8,28.7,1.97,-1.59,59.67,47.19,46.44,206.86,255.1,48.36,46.98,206.67,255.42,1.0
2018-09-09 22:02:00,88.66212,46.52565,1016.116,262.66,87.8,28.8,1.43,-1.61,59.5,47.91,46.51,207.01,254.97,49.32,47.03,206.57,255.37,1.0
2018-09-09 22:02:00,88.66212,46.52565,1016.132,262.67,87.8,28.7,1.9,-1.55,59.22,46.86,46.58,207.01,255.31,50.35,47.02,206.44,255.3,1.0
2018-09-09 22:02:00,88.66212,46.52565,1016.105,262.66,87.9,28.9,2.07,-1.5,58.96,47.25,46.58,206.8,255.18,51.36,46.91,206.45,255.17,1.0
2018-09-09 22:02:00,88.66212,46.52566,1016.077,262.66,87.9,29.1,2.13,-1.51,58.72,46.27,46.58,207.16,255.64,52.26,46.69,206.38,255.09,1.0
2018-09-09 22:02:00,88.66212,46.52566,1016.081,262.67,87.9,29.1,2.22,-1.55,58.47,47.64,46.58,207.13,255.5,52.96,46.35,206.25,255.08,1.0
2018-09-09 22:02:00,88.66212,46.52566,1016.095,262.67,87.9,28.9,2.37,-1.51,58.22,48.69,46.51,206.93,255.3,53.4,45.9,206.22,255.11,1.0
2018-09-09 22:02:00,88.66212,46.52567,1016.107,262.68,87.9,28.9,2.05,-1.43,58.03,46.07,46.72,206.76,254.98,53.58,45.35,206.2,255.15,1.0
2018-09-09 22:02:00,88.66212,46.52567,1016.083,262.68,87.9,29.0,2.24,-1.45,57.82,48.5,46.72,206.91,255.22,53.49,44.73,206.19,255.1,1.0
2018-09-09 22:02:00,88.66212,46.52568,1016.064,262.68,88.0,29.2,2.15,-1.44,57.66,48.63,46.51,206.07,255.32,53.16,44.06,206.23,255.04,1.0
2018-09-09 22:02:00,88.66212,46.52568,1016.057,262.69,88.0,29.2,2.07,-1.36,57.49,49.48,46.51,205.91,255.38,52.64,43.39,206.29,254.97,1.0
2018-09-09 22:02:00,88.66212,46.52568,1016.047,262.68,88.0,29.3,2.26,-1.29,57.3,49.87,46.65,206.52,255.09,52.01,42.74,206.35,254.88,1.0
2018-09-09 22:02:00,88.66212,46.52568,1016.05,262.69,88.0,29.3,1.94,-1.48,57.15,48.82,46.16,206.47,255.19,51.31,42.14,206.4,254.82,1.0
2018-09-09 22:02:00,88.66212,46.52569,1016.041,262.69,88.0,29.4,2.12,-1.42,56.97,47.91,46.16,206.63,254.37,50.61,41.62,206.46,254.89,1.0
2018-09-09 22:02:00,88.66212,46.52569,1016.036,262.7,88.0,29.4,1.94,-1.37,56.86,47.32,46.1,207.1,254.72,49.93,41.19,206.49,254.85,1.0
2018-09-09 22:02:00,88.66212,46.5257,1016.035,262.7,88.0,29.4,1.8,-1.4,56.76,48.1,45.75,207.17,254.81,49.3,40.85,206.59,254.76,1.0
2018-09-09 22:02:00,88.66212,46.5257,1016.034,262.7,88.0,29.4,1.82,-1.47,56.64,48.56,45.89,206.98,254.68,48.71,40.62,206.69,254.7,1.0
2018-09-09 22:02:00,88.66212,46.5257,1016.028,262.7,88.1,29.4,1.67,-1.45,56.54,49.22,45.68,207.09,255.16,48.15,40.47,206.72,254.65,1.0
2018-09-09 22:02:00,88.66212,46.52571,1016.012,262.71,88.1,29.6,1.61,-1.53,56.48,47.91,45.54,206.95,256.5,47.59,40.41,206.75,254.67,1.0
2018-09-09 22:02:00,88.66212,46.52571,1016.007,262.71,88.1,29.6,1.68,-1.41,56.42,49.02,45.34,206.74,255.24,47.01,40.4,206.78,254.77,1.0
2018-09-09 22:02:00,88.66212,46.52572,1015.994,262.71,88.1,29.7,1.61,-1.44,56.36,50.0,45.27,206.77,254.59,46.37,40.45,206.77,254.81,1.0
2018-09-09 22:02:00,88.66212,46.52572,1015.966,262.71,88.1,29.9,1.59,-1.57,56.32,49.8,45.13,206.83,254.71,45.67,40.52,206.76,254.86,1.0
2018-09-09 22:02:00,88.66212,46.52573,1015.931,262.71,88.1,30.2,1.82,-1.58,56.27,48.1,44.92,206.78,254.81,44.91,40.61,206.76,255.01,1.0
