Date/Time,Latitude,Longitude,PPPP [hPa],TTT grad [K],RH [%],Height [m],Pitch [deg],Roll [deg],Yaw [deg],SWD [W/m**2] (raw),SWU [W/m**2] (raw),LWD [W/m**2] (raw),LWU [W/m**2] (raw),SWD [W/m**2] (corrected),SWU [W/m**2] (corrected),LWD [W/m**2] (corrected),LWU [W/m**2] (corrected),Flag
2018-09-10 07:36:00,88.65608,46.18076,918.75,267.58,80.8,812.7,0.99,-0.1,92.96,82.2,81.62,200.12,275.04,83.67,82.42,199.87,275.36,1.0
2018-09-10 07:36:00,88.65608,46.18076,918.76,267.58,80.8,812.6,0.88,-0.11,92.92,81.74,81.76,200.12,275.34,83.44,82.41,199.94,275.36,1.0
2018-09-10 07:36:00,88.65608,46.18076,918.789,267.58,80.8,812.4,0.89,-0.07,92.86,81.22,81.55,200.23,275.25,83.14,82.38,200.01,275.35,1.0
2018-09-10 07:36:00,88.65608,46.18075,918.806,267.58,80.8,812.2,0.96,-0.04,92.8,81.35,81.69,200.23,275.25,82.79,82.32,200.07,275.36,1.0
2018-09-10 07:36:00,88.65608,46.18075,918.772,267.58,80.8,812.5,0.93,-0.05,92.81,82.07,81.62,200.22,275.35,82.42,82.25,200.15,275.37,1.0
2018-09-10 07:36:00,88.65608,46.18075,918.767,267.58,80.8,812.6,0.98,-0.01,92.79,81.54,81.76,200.31,275.34,82.06,82.17,200.22,275.39,1.0
2018-09-10 07:36:00,88.65608,46.18074,918.775,267.58,80.8,812.5,0.97,0.02,92.8,83.18,81.69,200.22,275.33,81.74,82.09,200.27,275.41,1.0
2018-09-10 07:36:00,88.65608,46.18074,918.782,267.58,80.8,812.4,1.01,0.03,92.83,81.22,81.89,200.12,275.44,81.46,82.01,200.31,275.43,1.0
2018-09-10 07:36:00,88.65608,46.18074,918.786,267.58,80.8,812.4,1.06,0.03,92.87,82.07,81.76,200.12,275.63,81.24,81.94,200.31,275.44,1.0
2018-09-10 07:36:00,88.65608,46.18074,918.786,267.58,80.8,812.4,1.09,0.03,92.92,82.0,81.76,200.12,275.34,81.08,81.86,200.28,275.45,1.0
2018-09-10 07:36:00,88.65608,46.18073,918.764,267.58,80.8,812.6,1.08,0.03,92.98,81.28,81.69,199.94,275.34,80.98,81.8,200.23,275.45,1.0
2018-09-10 07:36:00,88.65608,46.18073,918.793,267.59,80.8,812.3,1.06,-0.16,93.03,82.4,81.69,200.12,275.24,80.92,81.73,200.16,275.44,1.0
2018-09-10 07:36:00,88.65608,46.18073,918.805,267.58,80.8,812.2,0.89,-0.15,93.11,81.81,81.82,200.04,275.24,80.89,81.66,200.08,275.43,1.0
2018-09-10 07:36:00,88.65608,46.18072,918.794,267.58,80.8,812.3,0.81,-0.16,93.2,80.82,81.62,200.23,275.33,80.9,81.59,200.0,275.41,1.0
2018-09-10 07:36:00,88.65608,46.18072,918.773,267.59,80.8,812.5,0.78,-0.21,93.3,81.35,81.69,200.22,275.43,80.92,81.51,199.94,275.38,1.0
2018-09-10 07:36:00,88.65608,46.18072,918.773,267.59,80.8,812.5,0.63,-0.14,93.42,81.74,81.76,200.23,275.43,80.97,81.44,199.89,275.34,1.0
2018-09-10 07:36:00,88.65608,46.18072,918.797,267.58,80.8,812.3,0.82,-0.15,93.52,81.74,81.69,200.13,275.23,81.03,81.37,199.87,275.3,1.0
2018-09-10 07:36:00,88.65608,46.18071,918.804,267.58,80.8,812.2,0.83,-0.21,93.69,81.74,81.82,200.04,275.24,81.11,81.31,199.87,275.25,1.0
2018-09-10 07:36:00,88.65608,46.18071,918.809,267.58,80.8,812.2,0.88,-0.23,93.84,82.26,81.76,200.14,275.34,81.2,81.26,199.89,275.2,1.0
2018-09-10 07:36:00,88.65608,46.18071,918.813,267.58,80.8,812.2,0.92,-0.24,93.96,81.41,81.76,199.94,275.24,81.28,81.23,199.92,275.15,1.0
2018-09-10 07:36:00,88.65608,46.1807,918.812,267.59,80.9,812.2,0.85,-0.26,94.11,82.13,81.62,199.94,275.05,81.36,81.21,199.95,275.11,1.0
2018-09-10 07:36:00,88.65608,46.1807,918.813,267.59,80.8,812.2,0.74,-0.27,94.27,81.22,81.62,200.13,275.33,81.43,81.21,199.97,275.07,1.0
2018-09-10 07:36:00,88.65608,46.1807,918.793,267.59,80.9,812.3,0.78,-0.17,94.42,81.15,81.48,200.13,274.95,81.48,81.22,199.99,275.05,1.0
2018-09-10 07:36:00,88.65608,46.18069,918.786,267.59,80.9,812.4,0.68,-0.28,94.64,81.09,81.55,199.94,275.24,81.5,81.24,199.99,275.04,1.0
2018-09-10 07:36:00,88.65608,46.18069,918.794,267.59,80.9,812.3,0.69,-0.33,94.87,82.13,81.69,200.12,275.34,81.51,81.25,199.98,275.06,1.0
2018-09-10 07:36:00,88.65608,46.18068,918.808,267.6,80.9,812.2,0.86,-0.33,95.07,81.94,81.62,200.13,275.34,81.51,81.25,199.97,275.09,1.0
2018-09-10 07:36:00,88.65608,46.18068,918.809,267.6,80.9,812.2,0.98,-0.57,95.25,81.02,81.62,200.14,275.54,81.51,81.22,199.97,275.14,1.0
2018-09-10 07:36:00,88.65608,46.18068,918.842,267.6,80.9,811.9,0.8,-0.59,95.45,81.81,81.69,200.05,275.05,81.53,81.18,199.98,275.2,1.0
2018-09-10 07:36:00,88.65608,46.18067,918.826,267.6,80.9,812.1,0.77,-0.63,95.61,81.41,81.62,199.86,275.53,81.59,81.1,199.99,275.27,1.0
2018-09-10 07:36:00,88.65608,46.18067,918.813,267.6,80.9,812.2,0.64,-0.66,95.78,81.81,81.55,199.83,275.25,81.7,81.0,200.01,275.32,1.0
2018-09-10 07:36:00,88.65608,46.18067,918.82,267.61,80.9,812.1,0.49,-0.68,95.94,81.94,81.62,200.05,275.16,81.85,80.88,200.04,275.36,1.0
2018-09-10 07:36:00,88.65608,46.18066,918.825,267.61,80.9,812.1,0.46,-0.69,96.09,81.94,81.48,200.14,275.16,82.05,80.74,200.07,275.38,1.0
2018-09-10 07:36:00,88.65608,46.18066,918.776,267.61,80.9,812.5,0.23,-0.68,96.24,81.22,81.55,200.05,275.55,82.26,80.59,200.1,275.37,1.0
2018-09-10 07:36:00,88.65608,46.18066,918.795,267.62,80.9,812.3,0.17,-0.75,96.4,81.35,81.48,200.23,275.16,82.48,80.43,200.11,275.33,1.0
2018-09-10 07:36:00,88.65608,46.18066,918.81,267.62,80.9,812.2,0.18,-0.76,96.57,81.28,81.48,200.14,275.25,82.65,80.28,200.13,275.23,1.0
2018-09-10 07:36:00,88.65608,46.18065,918.815,267.61,80.9,812.2,0.19,-0.74,96.75,82.13,81.48,199.95,275.25,82.76,80.13,200.13,275.12,1.0
2018-09-10 07:36:00,88.65608,46.18065,918.821,267.62,80.9,812.1,0.23,-0.7,96.9,81.41,81.34,200.05,275.35,82.78,79.98,200.11,275.05,1.0
2018-09-10 07:36:00,88.65608,46.18065,918.815,267.62,80.9,812.2,0.46,-0.68,97.04,81.41,81.48,200.14,275.26,82.69,79.82,200.08,274.98,1.0
2018-09-10 07:36:00,88.65608,46.18064,918.813,267.63,80.9,812.2,0.4,-0.63,97.23,82.13,81.2,200.05,275.35,82.5,79.67,200.04,274.93,1.0
2018-09-10 07:36:00,88.65608,46.18064,918.827,267.63,80.9,812.1,0.54,-0.62,97.36,81.87,81.27,200.05,274.81,82.21,79.51,200.01,274.92,1.0
2018-09-10 07:36:00,88.65608,46.18064,918.842,267.63,80.9,811.9,0.68,-0.59,97.48,81.81,81.13,200.14,274.9,81.86,79.36,199.99,274.93,1.0
2018-09-10 07:36:00,88.65608,46.18064,918.847,267.63,80.9,811.9,0.7,-0.58,97.62,82.79,81.27,200.23,275.25,81.47,79.21,199.99,274.97,1.0
2018-09-10 07:36:00,88.65608,46.18064,918.847,267.63,80.9,811.9,0.62,-0.67,97.77,82.0,81.13,200.14,275.26,81.08,79.07,200.01,275.05,1.0
2018-09-10 07:36:00,88.65608,46.18063,918.83,267.63,80.9,812.0,0.55,-0.65,97.89,81.35,81.13,199.95,275.34,80.73,78.95,200.09,275.22,1.0
2018-09-10 07:36:00,88.65608,46.18063,918.82,267.63,80.9,812.1,0.5,-0.63,98.0,81.41,81.06,199.95,275.35,80.43,78.86,200.13,275.3,1.0
2018-09-10 07:36:00,88.65608,46.18063,918.826,267.63,80.9,812.1,0.47,-0.62,98.1,81.54,80.93,200.23,275.25,80.2,78.81,200.16,275.38,1.0
2018-09-10 07:36:00,88.65608,46.18063,918.838,267.64,80.9,812.0,0.47,-0.65,98.19,81.22,81.0,200.14,275.25,80.03,78.8,200.19,275.42,1.0
2018-09-10 07:36:00,88.65608,46.18063,918.84,267.64,80.9,811.9,0.51,-0.73,98.3,82.33,80.58,200.26,275.27,79.92,78.84,200.18,275.41,1.0
2018-09-10 07:36:00,88.65608,46.18062,918.843,267.64,80.9,811.9,0.57,-0.67,98.39,81.35,80.72,200.55,276.13,79.84,78.91,200.12,275.35,1.0
2018-09-10 07:36:00,88.65608,46.18062,918.826,267.64,80.9,812.1,0.48,-0.7,98.46,81.09,80.72,200.25,275.47,79.77,79.01,200.1,275.28,1.0
2018-09-10 07:36:00,88.65608,46.18062,918.843,267.65,80.9,811.9,0.4,-0.72,98.52,81.22,80.86,199.95,275.35,79.71,79.12,200.06,275.2,1.0
2018-09-10 07:36:00,88.65608,46.18062,918.864,267.65,80.9,811.8,0.4,-0.67,98.57,81.74,80.65,200.05,275.15,79.64,79.23,200.02,275.13,1.0
2018-09-10 07:36:00,88.65608,46.18062,918.859,267.65,80.9,811.8,0.41,-0.62,98.6,81.74,80.65,199.99,275.05,79.57,79.31,199.99,275.08,1.0
2018-09-10 07:36:00,88.65608,46.18061,918.861,267.65,80.9,811.8,0.23,-0.68,98.64,81.87,80.44,199.41,275.32,79.53,79.35,199.95,275.04,1.0
2018-09-10 07:36:00,88.65608,46.18061,918.832,267.65,80.9,812.0,0.34,-0.72,98.62,80.76,80.51,199.99,275.16,79.54,79.36,199.89,274.95,1.0
2018-09-10 07:36:00,88.65608,46.18061,918.85,267.65,80.9,811.9,0.15,-0.74,98.64,81.02,80.65,200.05,275.35,79.65,79.32,199.89,274.98,1.0
2018-09-10 07:36:00,88.65608,46.18061,918.849,267.65,80.9,811.9,0.07,-0.73,98.65,81.74,80.58,200.14,274.97,79.86,79.25,199.92,275.06,1.0
2018-09-10 07:36:00,88.65608,46.18061,918.838,267.65,80.9,812.0,0.13,-0.73,98.63,80.37,80.58,199.95,275.35,80.21,79.16,199.96,275.15,1.0
2018-09-10 07:36:00,88.65608,46.18061,918.882,267.65,80.9,811.6,0.19,-0.75,98.61,80.96,80.44,200.14,275.25,80.68,79.07,200.01,275.24,1.0
2018-09-10 07:36:00,88.65608,46.18061,918.866,267.65,80.9,811.7,0.14,-0.74,98.61,81.41,80.44,199.95,275.35,81.24,79.0,200.1,275.32,1.0
2018-09-10 07:36:00,88.65608,46.18061,918.843,267.66,80.9,811.9,0.34,-0.78,98.59,80.63,80.44,200.23,275.35,81.87,78.96,200.28,275.49,1.0
2018-09-10 07:36:00,88.65608,46.18061,918.847,267.66,80.9,811.9,0.31,-0.83,98.59,81.87,80.37,200.24,275.35,82.5,78.97,200.34,275.53,1.0
2018-09-10 07:36:00,88.65608,46.18061,918.856,267.65,80.9,811.8,0.29,-0.87,98.57,80.76,80.24,200.33,275.36,83.05,79.03,200.31,275.49,1.0
2018-09-10 07:36:00,88.65608,46.1806,918.839,267.66,80.9,812.0,0.37,-0.89,98.51,81.02,80.17,199.86,274.97,83.48,79.13,200.26,275.4,1.0
2018-09-10 07:36:00,88.65608,46.1806,918.83,267.66,80.9,812.0,0.29,-0.86,98.45,81.54,80.24,199.89,274.8,83.73,79.27,200.2,275.28,1.0
2018-09-10 07:36:00,88.65608,46.1806,918.805,267.66,80.9,812.2,0.18,-0.8,98.34,81.15,80.03,201.57,276.35,83.76,79.43,200.12,275.15,1.0
2018-09-10 07:36:00,88.65608,46.1806,918.809,267.66,80.9,812.2,0.14,-0.83,98.23,81.61,80.3,200.63,275.71,83.57,79.59,200.05,275.03,1.0
2018-09-10 07:36:00,88.65608,46.1806,918.822,267.66,80.9,812.1,0.05,-0.81,98.11,81.61,80.1,200.24,275.36,83.18,79.73,199.99,274.93,1.0
2018-09-10 07:36:00,88.65608,46.1806,918.83,267.67,80.8,812.0,0.01,-0.75,97.98,82.13,80.24,200.14,275.26,82.64,79.84,199.97,274.84,1.0
2018-09-10 07:36:00,88.65607,46.1806,918.835,267.67,80.8,812.0,0.23,-0.77,97.79,82.33,80.24,200.14,275.27,82.0,79.91,199.99,274.76,1.0
2018-09-10 07:36:00,88.65607,46.1806,918.846,267.66,80.8,811.9,0.22,-0.69,97.66,81.15,80.3,200.13,275.46,81.34,79.93,199.98,274.8,1.0
2018-09-10 07:36:00,88.65607,46.18059,918.846,267.66,80.8,811.9,0.43,-0.68,97.51,81.68,80.1,200.13,275.37,80.74,79.93,199.83,274.75,1.0
2018-09-10 07:36:00,88.65607,46.18059,918.853,267.66,80.8,811.8,0.55,-0.66,97.35,81.54,80.3,199.95,275.26,80.25,79.9,199.86,274.8,1.0
2018-09-10 07:36:00,88.65607,46.18059,918.853,267.67,80.8,811.8,0.58,-0.63,97.19,81.94,80.17,200.47,274.84,79.93,79.86,199.95,274.91,1.0
2018-09-10 07:36:00,88.65607,46.18059,918.823,267.66,80.8,812.1,0.59,-0.61,97.04,80.43,80.24,200.5,274.33,79.81,79.83,199.95,275.04,1.0
2018-09-10 07:36:00,88.65607,46.18059,918.849,267.66,80.8,811.9,0.63,-0.61,96.87,81.15,80.03,199.97,274.78,79.89,79.82,199.95,275.15,1.0
2018-09-10 07:36:00,88.65607,46.18059,918.845,267.66,80.8,811.9,0.58,-0.45,96.69,81.61,80.17,199.97,275.08,80.17,79.85,199.94,275.23,1.0
2018-09-10 07:36:00,88.65607,46.18058,918.847,267.66,80.8,811.9,0.63,-0.47,96.52,81.35,80.03,201.1,275.02,80.61,79.93,200.0,275.29,1.0
2018-09-10 07:36:00,88.65607,46.18058,918.846,267.66,80.8,811.9,0.66,-0.52,96.35,81.35,80.03,200.8,275.13,81.18,80.05,200.06,275.37,1.0
2018-09-10 07:36:00,88.65607,46.18058,918.838,267.66,80.8,812.0,0.67,-0.5,96.15,81.94,80.1,199.76,274.98,81.84,80.21,200.05,275.45,1.0
2018-09-10 07:36:00,88.65607,46.18058,918.876,267.67,80.8,811.7,0.77,-0.4,95.94,80.56,80.24,200.06,275.08,82.54,80.42,200.01,275.46,1.0
2018-09-10 07:36:00,88.65607,46.18058,918.834,267.67,80.8,812.0,0.84,-0.49,95.74,80.43,80.24,199.95,275.21,83.24,80.64,200.02,275.39,1.0
2018-09-10 07:36:00,88.65607,46.18057,918.839,267.67,80.8,812.0,0.79,-0.48,95.56,82.26,80.1,200.91,275.1,83.9,80.89,200.06,275.31,1.0
2018-09-10 07:36:00,88.65607,46.18057,918.858,267.67,80.8,811.8,0.77,-0.49,95.36,81.41,80.1,200.31,276.06,84.5,81.13,200.01,275.27,1.0
2018-09-10 07:36:00,88.65607,46.18057,918.864,267.67,80.8,811.8,0.72,-0.51,95.14,81.68,79.96,199.95,275.74,85.0,81.37,199.97,275.25,1.0
2018-09-10 07:36:00,88.65607,46.18057,918.854,267.67,80.8,811.8,0.58,-0.47,94.94,81.35,80.44,199.96,275.18,85.4,81.6,200.02,275.25,1.0
2018-09-10 07:36:00,88.65607,46.18056,918.848,267.68,80.8,811.9,0.62,-0.43,94.7,82.4,80.3,200.15,275.37,85.68,81.8,200.05,275.29,1.0
2018-09-10 07:36:00,88.65607,46.18056,918.861,267.68,80.8,811.8,0.41,-0.46,94.47,82.13,80.44,199.87,275.08,85.84,81.97,200.08,275.37,1.0
2018-09-10 07:36:00,88.65607,46.18056,918.863,267.68,80.8,811.8,0.33,-0.5,94.23,81.41,80.24,199.96,275.56,85.88,82.11,200.02,275.45,1.0
2018-09-10 07:36:00,88.65607,46.18055,918.863,267.67,80.8,811.8,0.31,-0.53,93.97,82.07,80.37,199.68,275.37,85.82,82.23,199.97,275.5,1.0
2018-09-10 07:36:00,88.65607,46.18055,918.871,267.67,80.8,811.7,0.27,-0.54,93.73,82.59,80.51,199.68,275.27,85.67,82.31,199.96,275.54,1.0
2018-09-10 07:36:00,88.65607,46.18055,918.847,267.67,80.8,811.9,0.28,-0.57,93.5,82.0,80.51,199.96,275.18,85.46,82.37,199.98,275.65,1.0
2018-09-10 07:36:00,88.65607,46.18055,918.876,267.67,80.8,811.7,0.28,-0.57,93.24,82.72,80.65,199.87,275.37,85.23,82.41,200.02,275.75,1.0
2018-09-10 07:36:00,88.65607,46.18054,918.884,267.66,80.8,811.6,0.27,-0.54,92.99,82.46,80.51,200.05,275.08,85.0,82.43,200.07,275.81,1.0
2018-09-10 07:36:00,88.65607,46.18054,918.877,267.66,80.8,811.7,0.32,-0.53,92.75,82.59,80.72,199.95,275.17,84.82,82.45,200.14,275.84,1.0
2018-09-10 07:36:00,88.65607,46.18054,918.872,267.66,80.8,811.7,0.39,-0.56,92.5,83.12,80.65,200.15,275.27,84.71,82.47,200.22,275.84,1.0
2018-09-10 07:36:00,88.65607,46.18054,918.879,267.66,80.8,811.6,0.43,-0.57,92.27,82.0,80.86,199.96,275.27,84.68,82.49,200.3,275.78,1.0
2018-09-10 07:36:00,88.65607,46.18053,918.896,267.66,80.8,811.5,0.56,-0.54,92.04,82.59,80.86,200.05,275.37,84.73,82.52,200.38,275.69,1.0
2018-09-10 07:36:00,88.65607,46.18053,918.896,267.67,80.8,811.5,0.53,-0.53,91.82,82.85,80.72,199.96,275.08,84.84,82.57,200.45,275.57,1.0
2018-09-10 07:36:00,88.65607,46.18053,918.89,267.67,80.8,811.5,0.49,-0.51,91.61,82.59,81.0,200.16,275.44,85.01,82.64,200.49,275.46,1.0
2018-09-10 07:36:00,88.65607,46.18053,918.886,267.66,80.8,811.6,0.48,-0.48,91.41,82.72,80.86,200.07,275.46,85.18,82.72,200.5,275.36,1.0
2018-09-10 07:36:00,88.65607,46.18052,918.902,267.66,80.8,811.4,0.51,-0.46,91.22,82.85,80.86,199.87,275.08,85.33,82.81,200.49,275.29,1.0
2018-09-10 07:36:00,88.65607,46.18052,918.893,267.67,80.8,811.5,0.36,-0.59,91.04,82.98,81.06,199.77,275.08,85.42,82.92,200.45,275.24,1.0
2018-09-10 07:36:00,88.65607,46.18052,918.899,267.67,80.7,811.5,0.36,-0.59,90.88,82.72,81.0,199.87,275.27,85.43,83.03,200.4,275.24,1.0
2018-09-10 07:36:00,88.65607,46.18052,918.901,267.67,80.7,811.5,0.27,-0.61,90.72,82.98,81.06,199.96,275.56,85.34,83.14,200.35,275.27,1.0
2018-09-10 07:36:00,88.65607,46.18052,918.896,267.67,80.7,811.5,0.2,-0.63,90.57,82.85,81.27,199.96,275.46,85.17,83.23,200.3,275.31,1.0
2018-09-10 07:36:00,88.65607,46.18052,918.895,267.67,80.7,811.5,0.18,-0.63,90.42,83.77,81.13,200.24,275.56,84.92,83.32,200.28,275.36,1.0
2018-09-10 07:36:00,88.65607,46.18051,918.936,267.68,80.7,811.2,0.17,-0.6,90.29,84.16,81.34,200.26,275.37,84.63,83.38,200.27,275.43,1.0
2018-09-10 07:36:00,88.65607,46.18051,918.916,267.67,80.7,811.3,0.21,-0.62,90.18,83.25,81.27,200.06,275.37,84.32,83.42,200.3,275.49,1.0
2018-09-10 07:36:00,88.65607,46.18051,918.916,267.67,80.7,811.3,0.26,-0.62,90.08,82.98,81.48,200.15,275.18,84.02,83.43,200.33,275.53,1.0
2018-09-10 07:36:00,88.65607,46.18051,918.924,267.67,80.7,811.3,0.26,-0.62,90.02,82.79,81.55,200.15,275.56,83.76,83.41,200.38,275.54,1.0
2018-09-10 07:36:00,88.65607,46.18051,918.927,267.68,80.7,811.2,0.26,-0.61,89.97,83.7,81.48,200.24,274.99,83.56,83.37,200.42,275.51,1.0
2018-09-10 07:36:00,88.65607,46.1805,918.912,267.67,80.7,811.4,0.31,-0.56,89.93,82.59,81.48,199.96,275.38,83.42,83.29,200.46,275.45,1.0
2018-09-10 07:36:00,88.65607,46.1805,918.91,267.67,80.7,811.4,0.14,-0.65,89.92,83.44,81.55,200.24,275.19,83.35,83.18,200.46,275.37,1.0
2018-09-10 07:36:00,88.65607,46.1805,918.914,267.68,80.7,811.3,0.06,-0.66,89.91,82.72,81.62,199.96,275.27,83.33,83.05,200.45,275.28,1.0
2018-09-10 07:36:00,88.65607,46.1805,918.929,267.68,80.7,811.2,0.08,-0.67,89.89,83.9,81.55,200.15,275.27,83.35,82.89,200.4,275.2,1.0
2018-09-10 07:36:00,88.65607,46.1805,918.935,267.68,80.7,811.2,0.08,-0.61,89.89,83.31,81.69,199.96,275.56,83.4,82.71,200.34,275.13,1.0
2018-09-10 07:36:00,88.65607,46.1805,918.918,267.68,80.7,811.3,0.04,-0.54,89.91,83.51,81.76,200.15,275.27,83.46,82.53,200.26,275.09,1.0
2018-09-10 07:36:00,88.65607,46.1805,918.917,267.68,80.6,811.3,0.17,-0.69,89.95,83.51,81.82,200.25,275.18,83.52,82.35,200.19,275.07,1.0
2018-09-10 07:36:00,88.65607,46.1805,918.92,267.68,80.6,811.3,0.11,-0.54,90.03,82.59,81.89,200.24,275.27,83.59,82.2,200.12,275.08,1.0
2018-09-10 07:36:00,88.65607,46.1805,918.922,267.67,80.6,811.3,0.23,-0.52,90.1,83.51,81.69,200.15,275.37,83.65,82.07,200.08,275.12,1.0
2018-09-10 07:36:00,88.65607,46.18049,918.916,267.67,80.6,811.3,0.24,-0.51,90.18,83.31,81.76,200.15,275.27,83.73,81.98,200.05,275.19,1.0
2018-09-10 07:36:00,88.65607,46.18049,918.9,267.68,80.6,811.5,0.22,-0.49,90.28,83.57,81.55,200.34,275.27,83.8,81.94,200.06,275.28,1.0
2018-09-10 07:36:00,88.65607,46.18049,918.874,267.67,80.6,811.7,0.39,-0.53,90.4,83.18,81.82,200.16,275.27,83.88,81.94,200.08,275.33,1.0
2018-09-10 07:36:00,88.65607,46.18049,918.908,267.68,80.6,811.4,0.46,-0.56,90.53,83.05,81.76,200.16,275.27,83.97,81.99,200.11,275.37,1.0
2018-09-10 07:36:00,88.65607,46.18049,918.904,267.68,80.6,811.4,0.48,-0.57,90.68,83.12,81.76,200.25,275.18,84.04,82.06,200.15,275.39,1.0
2018-09-10 07:36:00,88.65607,46.18049,918.896,267.68,80.6,811.5,0.54,-0.56,90.83,83.97,81.48,199.88,275.62,84.09,82.15,200.18,275.39,1.0
2018-09-10 07:36:00,88.65607,46.18049,918.898,267.67,80.6,811.5,0.6,-0.54,90.99,83.25,81.69,199.97,275.57,84.1,82.24,200.19,275.38,1.0
2018-09-10 07:36:00,88.65607,46.18049,918.901,267.68,80.6,811.4,0.58,-0.54,91.18,82.85,81.82,200.16,275.27,84.07,82.31,200.19,275.36,1.0
2018-09-10 07:36:00,88.65607,46.18049,918.911,267.68,80.6,811.4,0.6,-0.49,91.38,84.36,81.96,200.25,275.18,83.98,82.34,200.16,275.34,1.0
2018-09-10 07:36:00,88.65607,46.18048,918.905,267.67,80.6,811.4,0.46,-0.58,91.59,83.12,81.89,200.16,275.37,83.84,82.32,200.12,275.32,1.0
2018-09-10 07:36:00,88.65607,46.18048,918.901,267.68,80.6,811.5,0.39,-0.57,91.82,83.57,81.76,200.25,275.08,83.63,82.25,200.06,275.31,1.0
2018-09-10 07:36:00,88.65607,46.18048,918.902,267.68,80.6,811.4,0.41,-0.57,92.04,83.31,81.89,200.07,275.37,83.37,82.13,200.01,275.28,1.0
2018-09-10 07:36:00,88.65607,46.18048,918.912,267.68,80.6,811.4,0.43,-0.6,92.28,83.31,81.96,199.98,275.27,83.06,81.97,199.97,275.26,1.0
2018-09-10 07:36:00,88.65607,46.18048,918.918,267.68,80.6,811.3,0.32,-0.59,92.56,84.1,81.69,200.16,275.37,82.72,81.79,199.93,275.28,1.0
2018-09-10 07:36:00,88.65607,46.18048,918.893,267.68,80.5,811.5,0.44,-0.58,92.83,83.18,81.89,199.96,275.46,82.36,81.6,199.92,275.29,1.0
2018-09-10 07:36:00,88.65607,46.18048,918.904,267.68,80.5,811.4,0.45,-0.52,93.12,83.9,81.82,200.16,275.18,82.01,81.41,199.93,275.3,1.0
2018-09-10 07:36:00,88.65607,46.18048,918.92,267.68,80.5,811.3,0.51,-0.5,93.43,82.59,81.89,200.07,275.38,81.68,81.24,199.96,275.3,1.0
2018-09-10 07:36:00,88.65607,46.18048,918.925,267.68,80.5,811.3,0.61,-0.52,93.75,83.51,81.82,200.25,275.0,81.37,81.1,200.0,275.29,1.0
2018-09-10 07:36:00,88.65607,46.18048,918.938,267.68,80.5,811.1,0.64,-0.56,94.08,82.66,81.82,200.16,275.38,81.12,80.97,200.05,275.28,1.0
2018-09-10 07:36:00,88.65607,46.18048,918.914,267.68,80.5,811.3,0.59,-0.66,94.41,83.84,81.69,200.16,275.48,80.94,80.86,200.1,275.25,1.0
2018-09-10 07:36:00,88.65607,46.18048,918.914,267.69,80.5,811.3,0.6,-0.64,94.75,82.98,81.62,200.35,275.38,80.84,80.74,200.14,275.23,1.0
2018-09-10 07:36:00,88.65607,46.18048,918.924,267.69,80.5,811.3,0.59,-0.62,95.1,83.12,81.69,199.98,275.28,80.82,80.61,200.17,275.21,1.0
2018-09-10 07:36:00,88.65607,46.18048,918.93,267.69,80.5,811.2,0.55,-0.6,95.48,83.31,81.69,199.98,275.27,80.89,80.45,200.18,275.19,1.0
2018-09-10 07:36:00,88.65607,46.18047,918.93,267.68,80.5,811.2,0.48,-0.59,95.86,83.31,81.62,200.16,275.37,81.03,80.25,200.18,275.19,1.0
2018-09-10 07:36:00,88.65607,46.18047,918.964,267.68,80.5,810.9,0.45,-0.65,96.24,81.61,81.62,200.16,275.09,81.24,80.0,200.16,275.19,1.0
2018-09-10 07:36:00,88.65607,46.18047,918.949,267.69,80.5,811.1,0.33,-0.75,96.61,82.92,81.69,199.97,275.29,81.46,79.7,200.13,275.21,1.0
2018-09-10 07:36:00,88.65607,46.18047,918.957,267.69,80.5,811.0,0.22,-0.84,96.98,82.72,81.55,200.16,275.29,81.68,79.38,200.09,275.23,1.0
2018-09-10 07:36:00,88.65607,46.18047,918.962,267.69,80.5,811.0,0.15,-0.89,97.35,82.79,81.48,199.97,275.29,81.84,79.04,200.06,275.25,1.0
2018-09-10 07:36:00,88.65607,46.18047,918.948,267.69,80.4,811.1,0.13,-0.9,97.7,84.1,81.41,200.25,275.38,81.91,78.71,200.03,275.27,1.0
2018-09-10 07:36:00,88.65607,46.18047,918.942,267.69,80.4,811.1,0.16,-0.88,98.05,82.33,81.41,200.07,275.29,81.84,78.41,200.02,275.29,1.0
2018-09-10 07:36:00,88.65607,46.18047,918.934,267.69,80.4,811.2,0.12,-0.94,98.42,81.94,81.34,200.07,275.29,81.62,78.15,200.02,275.29,1.0
2018-09-10 07:36:00,88.65607,46.18047,918.928,267.69,80.4,811.2,0.13,-0.97,98.73,82.92,81.06,200.16,275.39,81.23,77.95,200.04,275.29,1.0
2018-09-10 07:36:00,88.65607,46.18047,918.936,267.69,80.4,811.2,0.13,-0.99,99.01,82.46,80.93,199.98,275.11,80.71,77.81,200.07,275.29,1.0
2018-09-10 07:36:00,88.65607,46.18047,918.948,267.69,80.4,811.1,0.1,-1.02,99.3,83.05,80.79,200.16,275.01,80.08,77.73,200.12,275.28,1.0
2018-09-10 07:36:00,88.65607,46.18047,918.934,267.69,80.4,811.2,0.09,-1.06,99.61,82.92,81.0,200.16,275.29,79.4,77.7,200.17,275.29,1.0
2018-09-10 07:36:00,88.65607,46.18047,918.947,267.69,80.4,811.1,0.11,-1.08,99.9,82.59,80.65,200.16,275.29,78.72,77.7,200.22,275.29,1.0
2018-09-10 07:36:00,88.65607,46.18047,918.943,267.7,80.4,811.1,0.1,-1.0,100.17,82.4,80.79,200.07,275.19,78.1,77.72,200.26,275.21,1.0
2018-09-10 07:36:00,88.65607,46.18047,918.936,267.7,80.4,811.2,0.14,-1.06,100.41,82.72,80.58,200.16,275.38,77.61,77.74,200.3,275.2,1.0
2018-09-10 07:36:00,88.65607,46.18048,918.942,267.7,80.4,811.1,0.16,-1.09,100.63,81.87,80.65,200.16,275.29,77.26,77.75,200.31,275.23,1.0
2018-09-10 07:36:00,88.65607,46.18048,918.965,267.7,80.4,810.9,0.19,-1.03,100.82,81.81,80.65,200.07,275.38,77.09,77.74,200.3,275.26,1.0
2018-09-10 07:36:00,88.65607,46.18048,918.953,267.7,80.4,811.0,0.36,-1.05,100.98,81.68,80.44,200.25,275.32,77.08,77.71,200.27,275.29,1.0
2018-09-10 07:36:00,88.65607,46.18048,918.961,267.7,80.3,811.0,0.39,-0.98,101.15,81.41,80.3,199.89,274.33,77.22,77.67,200.23,275.3,1.0
2018-09-10 07:36:00,88.65607,46.18048,918.959,267.69,80.3,811.0,0.47,-0.97,101.27,81.54,80.37,199.98,274.67,77.47,77.62,200.16,275.3,1.0
2018-09-10 07:36:00,88.65607,46.18048,918.964,267.69,80.3,810.9,0.52,-0.99,101.35,81.15,80.24,200.17,275.29,77.79,77.57,200.1,275.28,1.0
2018-09-10 07:36:00,88.65607,46.18048,918.978,267.7,80.3,810.8,0.52,-1.0,101.4,81.54,80.03,200.26,275.38,78.14,77.54,200.03,275.25,1.0
2018-09-10 07:36:00,88.65607,46.18048,918.973,267.7,80.3,810.9,0.49,-1.0,101.42,80.76,80.24,200.17,275.29,78.5,77.53,199.97,275.22,1.0
2018-09-10 07:36:00,88.65607,46.18048,918.95,267.7,80.3,811.1,0.51,-0.99,101.38,81.35,79.96,200.16,275.29,78.83,77.55,199.93,275.18,1.0
2018-09-10 07:36:00,88.65607,46.18048,918.958,267.7,80.3,811.0,0.43,-1.0,101.34,82.4,80.03,200.16,275.19,79.14,77.59,199.9,275.24,1.0
2018-09-10 07:36:00,88.65607,46.18048,918.965,267.7,80.3,810.9,0.46,-0.99,101.29,81.15,79.82,200.17,275.38,79.43,77.65,199.9,275.25,1.0
2018-09-10 07:36:00,88.65607,46.18048,918.965,267.7,80.3,810.9,0.47,-1.0,101.2,81.09,79.82,200.17,275.38,79.7,77.72,199.91,275.24,1.0
2018-09-10 07:36:00,88.65607,46.18048,918.966,267.7,80.3,810.9,0.41,-1.01,101.09,80.76,79.82,200.25,275.58,79.98,77.8,199.93,275.24,1.0
2018-09-10 07:36:00,88.65607,46.18048,918.969,267.7,80.2,810.9,0.53,-0.86,100.91,80.82,79.82,200.25,275.29,80.27,77.88,199.95,275.26,1.0
2018-09-10 07:36:00,88.65607,46.18048,918.965,267.7,80.2,810.9,0.43,-0.99,100.74,80.82,79.82,200.08,275.29,80.56,77.95,199.98,275.28,1.0
2018-09-10 07:36:00,88.65607,46.18048,918.977,267.7,80.2,810.8,0.36,-0.95,100.55,81.48,79.61,200.08,275.38,80.86,78.01,199.99,275.3,1.0
2018-09-10 07:36:00,88.65607,46.18048,918.985,267.7,80.2,810.8,0.36,-0.95,100.31,81.02,79.68,200.17,275.48,81.14,78.08,200.0,275.32,1.0
2018-09-10 07:36:00,88.65607,46.18048,918.973,267.7,80.2,810.9,0.34,-1.01,100.04,80.96,79.47,199.99,275.09,81.4,78.16,200.0,275.34,1.0
2018-09-10 07:36:00,88.65607,46.18048,918.95,267.71,80.2,811.1,0.17,-0.97,99.78,80.89,79.61,200.27,275.09,81.62,78.27,199.99,275.34,1.0
2018-09-10 07:36:00,88.65607,46.18048,918.976,267.71,80.2,810.8,0.36,-1.0,99.46,81.41,79.54,199.89,275.38,81.79,78.41,199.98,275.33,1.0
2018-09-10 07:36:00,88.65607,46.18049,918.978,267.7,80.2,810.8,0.18,-1.0,99.16,80.76,79.41,199.99,275.09,81.93,78.59,199.97,275.31,1.0
2018-09-10 07:36:00,88.65607,46.18049,918.965,267.7,80.2,810.9,0.23,-1.05,98.83,81.09,79.41,199.99,275.28,82.06,78.82,199.97,275.3,1.0
2018-09-10 07:36:00,88.65607,46.18049,918.958,267.71,80.2,811.0,0.38,-1.1,98.5,81.48,79.61,199.99,275.29,82.19,79.11,199.99,275.28,1.0
2018-09-10 07:36:00,88.65607,46.18049,918.994,267.71,80.2,810.7,0.29,-1.06,98.16,81.61,79.54,200.08,275.3,82.38,79.44,200.02,275.28,1.0
2018-09-10 07:36:00,88.65607,46.18049,918.988,267.71,80.1,810.7,0.35,-1.03,97.8,80.89,79.47,200.08,275.38,82.64,79.8,200.06,275.29,1.0
2018-09-10 07:36:00,88.65608,46.18049,919.002,267.72,80.1,810.6,0.63,-0.92,97.34,82.33,79.47,200.17,275.57,83.01,80.19,200.11,275.31,1.0
2018-09-10 07:36:00,88.65608,46.18049,918.976,267.72,80.1,810.8,0.66,-0.83,96.91,81.02,79.2,199.99,274.99,83.49,80.58,200.15,275.34,1.0
2018-09-10 07:36:00,88.65608,46.18049,918.947,267.71,80.1,811.1,0.7,-0.83,96.49,81.28,79.47,199.9,275.18,84.08,80.97,200.19,275.37,1.0
2018-09-10 07:36:00,88.65608,46.18049,918.976,267.71,80.1,810.8,0.9,-0.91,96.03,80.82,79.54,199.91,275.37,84.75,81.33,200.21,275.39,1.0
2018-09-10 07:36:00,88.65608,46.1805,918.982,267.7,80.1,810.8,0.84,-0.9,95.57,80.1,79.68,200.08,275.09,85.45,81.66,200.2,275.39,1.0
2018-09-10 07:36:00,88.65608,46.1805,918.977,267.71,80.1,810.8,0.76,-0.87,95.12,82.33,79.82,200.18,275.38,86.14,81.95,200.17,275.36,1.0
2018-09-10 07:36:00,88.65608,46.1805,918.973,267.71,80.1,810.9,0.67,-0.95,94.67,81.41,79.89,200.09,275.38,86.75,82.19,200.11,275.31,1.0
2018-09-10 07:36:00,88.65608,46.1805,918.969,267.71,80.1,810.9,0.49,-0.9,94.22,82.53,79.89,200.37,275.28,87.25,82.38,200.04,275.23,1.0
2018-09-10 07:36:00,88.65608,46.1805,918.964,267.71,80.1,810.9,0.38,-0.81,93.76,82.98,79.89,199.9,275.57,87.59,82.53,199.95,275.13,1.0
2018-09-10 07:36:00,88.65608,46.18051,918.954,267.7,80.1,811.0,0.51,-0.88,93.29,81.74,79.89,200.18,275.28,87.76,82.63,199.87,275.03,1.0
2018-09-10 07:36:00,88.65608,46.18051,918.952,267.71,80.0,811.0,0.31,-0.82,92.87,83.05,80.1,200.27,275.38,87.76,82.7,199.8,274.93,1.0
2018-09-10 07:36:00,88.65608,46.18051,918.982,267.71,80.0,810.8,0.5,-0.84,92.41,82.13,80.24,200.28,275.28,87.63,82.73,199.77,274.85,1.0
2018-09-10 07:36:00,88.65608,46.18051,918.995,267.71,80.0,810.7,0.54,-0.88,91.97,82.79,80.1,200.1,275.38,87.39,82.74,199.77,274.8,1.0
2018-09-10 07:36:00,88.65608,46.18052,918.992,267.71,80.0,810.7,0.53,-0.9,91.54,83.18,80.17,200.19,275.38,87.09,82.74,199.8,274.79,1.0
2018-09-10 07:36:00,88.65608,46.18052,918.996,267.71,80.0,810.7,0.55,-0.91,91.1,81.68,80.37,200.28,275.19,86.79,82.73,199.83,274.83,1.0
2018-09-10 07:36:00,88.65608,46.18052,918.99,267.71,80.0,810.7,0.4,-0.93,90.7,83.57,80.3,199.99,275.47,86.52,82.73,199.83,274.93,1.0
2018-09-10 07:36:00,88.65608,46.18052,918.99,267.71,80.0,810.7,0.17,-0.89,90.3,82.79,80.44,200.19,274.98,86.32,82.74,199.92,275.07,1.0
2018-09-10 07:36:00,88.65608,46.18052,918.987,267.71,80.0,810.7,0.08,-0.88,89.89,83.25,80.58,200.1,275.46,86.19,82.79,199.98,275.12,1.0
2018-09-10 07:36:00,88.65608,46.18053,918.996,267.71,80.0,810.7,-0.05,-0.87,89.49,83.51,80.65,200.29,275.37,86.15,82.86,200.02,275.16,1.0
2018-09-10 07:36:00,88.65608,46.18053,919.023,267.7,80.0,810.5,-0.16,-0.84,89.1,83.38,80.72,199.8,275.41,86.19,82.98,200.01,275.21,1.0
2018-09-10 07:36:00,88.65608,46.18053,919.0,267.7,80.0,810.6,0.1,-0.82,88.69,83.7,80.51,198.93,275.78,86.29,83.14,199.93,275.23,1.0
2018-09-10 07:36:00,88.65608,46.18053,919.013,267.71,80.0,810.5,-0.01,-0.75,88.38,83.12,80.72,199.69,275.73,86.43,83.32,199.89,275.22,1.0
2018-09-10 07:36:00,88.65608,46.18054,919.013,267.7,80.0,810.5,0.12,-0.78,88.05,82.72,80.65,199.36,274.34,86.58,83.53,199.82,275.18,1.0
2018-09-10 07:36:00,88.65608,46.18054,919.03,267.7,80.0,810.4,0.27,-0.78,87.76,83.18,80.72,199.78,274.12,86.73,83.74,199.74,275.12,1.0
2018-09-10 07:36:00,88.65608,46.18054,919.057,267.7,80.0,810.2,0.31,-0.74,87.48,83.57,80.93,199.47,275.28,86.85,83.94,199.66,275.07,1.0
2018-09-10 07:36:00,88.65608,46.18054,919.056,267.7,79.9,810.2,0.29,-0.74,87.23,84.69,81.06,199.14,274.99,86.93,84.11,199.64,275.01,1.0
2018-09-10 07:36:00,88.65608,46.18055,919.071,267.7,79.9,810.1,0.39,-0.85,86.99,83.64,81.13,199.88,275.38,86.97,84.23,199.71,274.96,1.0
2018-09-10 07:36:00,88.65608,46.18055,919.032,267.7,79.9,810.4,0.19,-0.76,86.81,84.29,81.2,199.88,275.28,86.96,84.29,199.72,274.92,1.0
2018-09-10 07:36:00,88.65608,46.18055,919.007,267.7,79.9,810.6,0.17,-0.78,86.63,84.1,81.34,200.12,275.09,86.89,84.29,199.8,275.02,1.0
2018-09-10 07:36:00,88.65608,46.18055,919.01,267.7,79.9,810.6,0.09,-0.82,86.47,83.51,81.34,200.38,275.09,86.77,84.23,199.91,275.15,1.0
2018-09-10 07:36:00,88.65608,46.18055,919.022,267.7,79.9,810.5,-0.09,-0.79,86.34,84.36,81.55,200.1,275.09,86.61,84.13,200.07,275.27,1.0
2018-09-10 07:36:00,88.65608,46.18055,919.024,267.7,79.9,810.4,0.07,-0.67,86.21,83.84,81.41,200.1,275.28,86.4,84.0,200.28,275.4,1.0
2018-09-10 07:36:00,88.65608,46.18055,919.046,267.69,79.9,810.3,0.09,-0.84,86.1,83.9,81.55,200.01,275.38,86.15,83.86,200.41,275.52,1.0
2018-09-10 07:36:00,88.65608,46.18055,919.024,267.69,79.9,810.4,0.04,-0.75,86.04,83.97,81.55,200.01,275.57,85.88,83.72,200.53,275.61,1.0
2018-09-10 07:36:00,88.65608,46.18055,919.02,267.69,79.9,810.5,0.09,-0.72,85.99,84.95,81.89,200.48,275.09,85.6,83.61,200.61,275.68,1.0
2018-09-10 07:36:00,88.65608,46.18055,919.041,267.69,79.9,810.3,0.1,-0.75,85.93,84.36,81.62,200.2,275.28,85.31,83.54,200.64,275.7,1.0
2018-09-10 07:36:00,88.65608,46.18055,919.022,267.7,79.8,810.5,-0.18,-0.68,85.91,85.01,81.55,200.19,275.1,85.03,83.49,200.63,275.7,1.0
2018-09-10 07:36:00,88.65608,46.18055,919.056,267.69,79.8,810.2,-0.07,-0.63,85.92,83.97,81.89,200.19,275.49,84.77,83.48,200.59,275.66,1.0
2018-09-10 07:36:00,88.65608,46.18054,919.024,267.69,79.8,810.4,-0.31,-0.59,86.03,84.75,81.76,200.1,275.29,84.53,83.48,200.52,275.61,1.0
2018-09-10 07:36:00,88.65608,46.18054,919.01,267.69,79.8,810.6,-0.32,-0.6,86.13,84.23,81.82,200.19,275.08,84.32,83.48,200.43,275.56,1.0
2018-09-10 07:36:00,88.65608,46.18054,919.022,267.69,79.8,810.5,-0.23,-0.65,86.26,83.9,81.82,200.1,275.27,84.13,83.47,200.35,275.51,1.0
2018-09-10 07:36:00,88.65608,46.18054,919.029,267.69,79.8,810.4,-0.24,-0.71,86.44,84.16,81.89,200.01,275.19,83.97,83.44,200.27,275.47,1.0
2018-09-10 07:36:00,88.65608,46.18054,919.045,267.69,79.8,810.3,-0.21,-0.74,86.65,84.29,81.96,199.92,275.38,83.82,83.37,200.22,275.44,1.0
2018-09-10 07:36:00,88.65608,46.18054,919.05,267.69,79.8,810.2,-0.14,-1.09,86.84,84.1,82.1,200.1,275.28,83.7,83.26,200.19,275.44,1.0
2018-09-10 07:36:00,88.65608,46.18054,919.066,267.69,79.8,810.1,-0.49,-0.95,87.11,84.1,82.1,200.2,275.48,83.6,83.13,200.19,275.44,1.0
2018-09-10 07:36:00,88.65608,46.18054,919.082,267.69,79.8,810.0,-0.5,-0.79,87.36,85.08,82.03,200.47,275.2,83.51,82.98,200.22,275.44,1.0
2018-09-10 07:36:00,88.65608,46.18054,919.084,267.69,79.8,809.9,-0.18,-0.74,87.6,84.1,82.24,200.28,275.58,83.46,82.82,200.25,275.45,1.0
2018-09-10 07:36:00,88.65608,46.18053,919.062,267.69,79.8,810.1,-0.31,-0.58,87.89,84.36,82.17,200.19,275.38,83.43,82.68,200.28,275.44,1.0
2018-09-10 07:36:00,88.65608,46.18053,919.08,267.68,79.7,810.0,-0.03,-0.78,88.24,83.7,82.17,199.9,275.1,83.43,82.55,200.32,275.44,1.0
2018-09-10 07:36:00,88.65608,46.18053,919.091,267.68,79.7,809.9,0.06,-0.82,88.61,84.62,81.89,200.09,274.91,83.46,82.46,200.36,275.43,1.0
2018-09-10 07:36:00,88.65608,46.18053,919.089,267.68,79.7,809.9,0.27,-0.77,88.96,84.49,82.03,200.19,275.29,83.5,82.41,200.37,275.42,1.0
2018-09-10 07:36:00,88.65608,46.18053,919.086,267.69,79.7,809.9,0.57,-0.74,89.31,83.51,82.17,200.05,275.39,83.55,82.39,200.37,275.42,1.0
2018-09-10 07:36:00,88.65608,46.18053,919.099,267.69,79.7,809.8,0.75,-0.74,89.69,84.23,81.96,200.13,275.29,83.58,82.4,200.36,275.43,1.0
2018-09-10 07:36:00,88.65608,46.18053,919.126,267.68,79.7,809.6,0.71,-0.72,90.08,83.44,82.17,200.2,275.58,83.57,82.42,200.33,275.45,1.0
2018-09-10 07:36:00,88.65608,46.18053,919.106,267.68,79.7,809.8,0.75,-0.74,90.47,84.95,82.17,200.29,275.39,83.51,82.45,200.3,275.48,1.0
2018-09-10 07:36:00,88.65608,46.18053,919.116,267.69,79.7,809.7,0.64,-0.85,90.9,83.84,82.17,200.01,275.29,83.36,82.46,200.28,275.51,1.0
2018-09-10 07:36:00,88.65608,46.18053,919.136,267.69,79.7,809.5,0.53,-0.86,91.35,83.77,82.17,200.38,275.58,83.13,82.45,200.25,275.53,1.0
2018-09-10 07:36:00,88.65608,46.18053,919.13,267.68,79.7,809.6,0.52,-0.79,91.8,84.62,82.17,200.29,275.19,82.81,82.41,200.24,275.54,1.0
2018-09-10 07:36:00,88.65608,46.18053,919.109,267.68,79.7,809.7,0.55,-0.96,92.26,83.31,82.17,200.2,275.28,82.41,82.33,200.25,275.52,1.0
2018-09-10 07:36:00,88.65608,46.18053,919.107,267.68,79.7,809.8,0.36,-0.84,92.76,84.49,82.24,200.39,275.29,81.97,82.21,200.25,275.5,1.0
2018-09-10 07:36:00,88.65608,46.18053,919.105,267.68,79.7,809.8,0.39,-0.87,93.2,83.64,82.17,200.2,275.39,81.5,82.04,200.26,275.44,1.0
2018-09-10 07:36:00,88.65608,46.18053,919.117,267.68,79.7,809.7,0.35,-0.89,93.66,84.56,82.17,200.2,275.2,81.04,81.84,200.26,275.36,1.0
2018-09-10 07:36:00,88.65608,46.18053,919.132,267.69,79.6,809.6,0.29,-0.86,94.13,84.03,82.24,200.29,275.49,80.64,81.59,200.27,275.27,1.0
2018-09-10 07:36:00,88.65608,46.18053,919.097,267.68,79.6,809.8,0.43,-0.81,94.58,83.9,82.1,200.19,275.6,80.31,81.3,200.27,275.18,1.0
2018-09-10 07:36:00,88.65608,46.18053,919.154,267.68,79.6,809.4,0.36,-0.81,95.04,83.25,82.17,200.19,275.28,80.09,80.98,200.26,275.12,1.0
2018-09-10 07:36:00,88.65608,46.18053,919.146,267.68,79.6,809.4,0.31,-0.8,95.49,83.31,81.96,200.2,275.54,79.98,80.64,200.25,275.09,1.0
2018-09-10 07:36:00,88.65608,46.18054,919.136,267.68,79.6,809.5,0.35,-0.79,95.93,82.85,82.1,200.2,275.2,79.98,80.27,200.22,275.08,1.0
2018-09-10 07:36:00,88.65608,46.18054,919.137,267.69,79.6,809.5,0.35,-0.78,96.38,83.31,82.1,200.29,275.58,80.07,79.89,200.2,275.11,1.0
2018-09-10 07:36:00,88.65608,46.18054,919.124,267.69,79.6,809.6,0.31,-0.78,96.87,82.53,81.76,200.21,275.28,80.22,79.52,200.18,275.16,1.0
2018-09-10 07:36:00,88.65608,46.18054,919.131,267.69,79.6,809.6,0.6,-0.85,97.33,83.77,82.03,200.21,275.58,80.41,79.16,200.16,275.22,1.0
2018-09-10 07:36:00,88.65608,46.18054,919.087,267.69,79.6,809.9,0.41,-0.83,97.83,82.13,81.82,200.29,275.39,80.59,78.82,200.15,275.22,1.0
2018-09-10 07:36:00,88.65608,46.18054,919.092,267.69,79.6,809.9,0.49,-0.83,98.27,83.64,81.89,200.01,275.49,80.74,78.51,200.14,275.24,1.0
2018-09-10 07:36:00,88.65608,46.18054,919.119,267.69,79.6,809.7,0.62,-0.87,98.7,83.97,81.55,200.2,275.2,80.82,78.24,200.14,275.26,1.0
2018-09-10 07:36:00,88.65608,46.18054,919.134,267.69,79.6,809.5,0.65,-0.92,99.12,83.31,81.62,200.21,275.1,80.81,78.02,200.16,275.25,1.0
2018-09-10 07:36:00,88.65608,46.18054,919.135,267.69,79.6,809.5,0.68,-0.89,99.53,82.33,81.13,200.2,275.25,80.71,77.83,200.18,275.22,1.0
2018-09-10 07:36:00,88.65608,46.18054,919.14,267.69,79.5,809.5,0.72,-0.91,99.87,82.33,81.27,200.2,274.72,80.52,77.69,200.21,275.18,1.0
2018-09-10 07:36:00,88.65608,46.18054,919.149,267.69,79.5,809.4,0.51,-0.88,100.19,83.38,81.27,200.3,274.92,80.26,77.57,200.24,275.14,1.0
2018-09-10 07:36:00,88.65608,46.18054,919.158,267.69,79.5,809.3,0.51,-0.91,100.46,82.53,81.06,200.3,275.0,79.94,77.48,200.28,275.12,1.0
2018-09-10 07:36:00,88.65608,46.18054,919.161,267.69,79.5,809.3,0.57,-0.94,100.73,82.07,81.06,200.2,275.39,79.61,77.39,200.31,275.12,1.0
2018-09-10 07:36:00,88.65608,46.18054,919.142,267.69,79.5,809.5,0.36,-0.91,101.01,82.2,80.93,200.01,275.29,79.3,77.32,200.34,275.16,1.0
2018-09-10 07:36:00,88.65608,46.18055,919.131,267.69,79.5,809.6,0.56,-0.92,101.21,82.92,81.06,200.2,275.2,79.06,77.25,200.35,275.22,1.0
2018-09-10 07:36:00,88.65608,46.18055,919.165,267.69,79.5,809.3,0.44,-0.94,101.42,82.26,80.72,200.3,275.39,78.9,77.18,200.36,275.35,1.0
2018-09-10 07:36:00,88.65608,46.18055,919.191,267.69,79.5,809.1,0.37,-0.96,101.57,82.53,80.72,200.2,275.49,78.86,77.13,200.35,275.46,1.0
2018-09-10 07:36:00,88.65608,46.18055,919.177,267.7,79.5,809.2,0.42,-0.99,101.67,82.4,80.51,200.2,275.29,78.96,77.08,200.33,275.55,1.0
2018-09-10 07:36:00,88.65608,46.18055,919.12,267.69,79.5,809.7,0.48,-1.01,101.74,82.2,80.58,200.48,275.39,79.19,77.05,200.29,275.61,1.0
2018-09-10 07:36:00,88.65608,46.18056,919.118,267.69,79.5,809.7,0.36,-0.92,101.82,82.33,80.44,200.11,275.29,79.54,77.05,200.25,275.64,1.0
2018-09-10 07:36:00,88.65608,46.18056,919.134,267.7,79.4,809.5,0.59,-0.91,101.84,82.26,80.3,200.11,275.0,79.98,77.06,200.21,275.62,1.0
2018-09-10 07:36:00,88.65608,46.18056,919.136,267.69,79.4,809.5,0.56,-0.94,101.83,81.15,80.03,200.3,275.39,80.5,77.09,200.17,275.57,1.0
2018-09-10 07:36:00,88.65608,46.18056,919.15,267.69,79.4,809.4,0.59,-0.93,101.81,81.15,80.24,200.29,275.39,81.04,77.14,200.14,275.5,1.0
2018-09-10 07:36:00,88.65608,46.18056,919.179,267.7,79.4,809.2,0.72,-0.9,101.75,81.22,80.1,200.19,275.29,81.57,77.19,200.13,275.41,1.0
2018-09-10 07:36:00,88.65608,46.18056,919.178,267.7,79.4,809.2,0.78,-0.91,101.66,82.33,80.03,200.2,275.29,82.06,77.24,200.12,275.33,1.0
2018-09-10 07:36:00,88.65608,46.18057,919.173,267.7,79.4,809.2,0.68,-0.79,101.57,82.53,79.96,200.4,275.39,82.48,77.29,200.14,275.27,1.0
2018-09-10 07:36:00,88.65608,46.18057,919.128,267.7,79.4,809.6,0.79,-0.86,101.44,81.94,79.82,200.3,275.58,82.82,77.33,200.17,275.25,1.0
2018-09-10 07:36:00,88.65609,46.18057,919.126,267.7,79.4,809.6,0.72,-0.86,101.3,81.02,79.96,200.4,275.49,83.08,77.36,200.21,275.25,1.0
2018-09-10 07:36:00,88.65609,46.18057,919.166,267.7,79.4,809.3,0.69,-0.82,101.14,82.92,79.82,200.02,275.68,83.27,77.4,200.25,275.28,1.0
2018-09-10 07:36:00,88.65609,46.18058,919.194,267.7,79.4,809.0,0.84,-0.82,100.94,82.13,79.61,200.4,275.39,83.39,77.45,200.27,275.33,1.0
2018-09-10 07:36:00,88.65609,46.18058,919.169,267.7,79.4,809.3,0.66,-0.88,100.77,81.94,79.61,200.21,275.49,83.49,77.52,200.25,275.39,1.0
2018-09-10 07:36:00,88.65609,46.18058,919.181,267.7,79.4,809.2,0.6,-0.92,100.54,82.59,79.68,200.21,275.19,83.57,77.63,200.33,275.55,1.0
2018-09-10 07:36:00,88.65609,46.18058,919.179,267.7,79.3,809.2,0.63,-0.86,100.28,82.33,79.61,200.21,275.29,83.66,77.78,200.36,275.6,1.0
2018-09-10 07:36:00,88.65609,46.18058,919.172,267.7,79.3,809.2,0.65,-0.83,100.0,82.59,79.54,200.21,275.39,83.77,77.98,200.36,275.58,1.0
2018-09-10 07:36:00,88.65609,46.18059,919.176,267.71,79.3,809.2,0.66,-0.86,99.72,81.94,79.61,199.84,275.39,83.9,78.22,200.35,275.53,1.0
2018-09-10 07:36:00,88.65609,46.18059,919.178,267.7,79.3,809.2,0.76,-0.82,99.4,81.54,79.2,199.65,275.3,84.06,78.51,200.33,275.47,1.0
2018-09-10 07:36:00,88.65609,46.18059,919.194,267.7,79.2,809.0,0.77,-0.86,99.08,80.89,79.13,200.73,276.52,84.22,78.82,200.32,275.4,1.0
2018-09-10 07:36:00,88.65609,46.18059,919.198,267.7,79.3,809.0,0.83,-0.8,98.71,82.72,79.41,200.48,275.58,84.38,79.15,200.32,275.34,1.0
2018-09-10 07:36:00,88.65609,46.18059,919.186,267.7,79.3,809.1,0.88,-0.77,98.34,83.12,79.47,200.21,275.3,84.54,79.48,200.33,275.3,1.0
2018-09-10 07:36:00,88.65609,46.1806,919.17,267.71,79.3,809.3,0.9,-0.76,97.96,83.12,79.47,200.21,275.58,84.68,79.8,200.35,275.3,1.0
2018-09-10 07:36:00,88.65609,46.1806,919.169,267.7,79.3,809.3,0.91,-0.72,97.57,82.92,79.41,200.21,275.1,84.81,80.1,200.39,275.33,1.0
2018-09-10 07:36:00,88.65609,46.1806,919.142,267.7,79.3,809.5,1.05,-0.57,97.17,82.33,79.61,200.3,275.39,84.94,80.37,200.46,275.38,1.0
2018-09-10 07:36:00,88.65609,46.1806,919.185,267.71,79.3,809.1,1.09,-0.63,96.76,82.98,79.61,200.58,275.39,85.07,80.63,200.4,275.33,1.0
2018-09-10 07:36:00,88.65609,46.1806,919.202,267.71,79.3,809.0,1.13,-0.66,96.34,82.33,79.54,200.21,275.29,85.21,80.87,200.37,275.36,1.0
2018-09-10 07:36:00,88.65609,46.1806,919.199,267.7,79.2,809.0,1.17,-0.67,95.92,82.66,79.47,200.21,275.29,85.36,81.1,200.34,275.42,1.0
2018-09-10 07:36:00,88.65609,46.1806,919.201,267.7,79.2,809.0,1.18,-0.66,95.48,82.53,79.68,200.21,275.3,85.54,81.32,200.28,275.45,1.0
2018-09-10 07:36:00,88.65609,46.18061,919.171,267.7,79.2,809.2,1.09,-0.53,95.02,83.51,79.68,200.4,275.31,85.74,81.53,200.21,275.44,1.0
2018-09-10 07:36:00,88.65609,46.18061,919.179,267.7,79.2,809.2,1.03,-0.58,94.57,83.57,79.61,200.02,275.31,85.95,81.72,200.13,275.41,1.0
2018-09-10 07:36:00,88.65609,46.18061,919.178,267.7,79.2,809.2,0.89,-0.53,94.12,81.74,79.61,200.5,275.3,86.16,81.9,200.06,275.36,1.0
2018-09-10 07:36:00,88.65609,46.18061,919.167,267.7,79.2,809.3,0.87,-0.56,93.66,83.25,79.82,200.5,275.39,86.36,82.06,199.99,275.31,1.0
2018-09-10 07:36:00,88.65609,46.18061,919.17,267.7,79.2,809.2,0.94,-0.59,93.19,82.72,80.03,200.4,275.3,86.54,82.19,199.95,275.26,1.0
2018-09-10 07:36:00,88.65609,46.18061,919.214,267.7,79.2,808.9,0.96,-0.45,92.7,83.38,79.89,200.3,275.3,86.69,82.29,199.95,275.25,1.0
2018-09-10 07:36:00,88.65609,46.18062,919.197,267.7,79.2,809.0,1.12,-0.55,92.24,83.97,80.1,200.3,275.5,86.82,82.36,199.97,275.26,1.0
2018-09-10 07:36:00,88.65609,46.18062,919.204,267.7,79.2,809.0,1.05,-0.56,91.78,83.97,80.1,200.4,275.4,86.94,82.41,200.02,275.31,1.0
2018-09-10 07:36:00,88.65609,46.18062,919.205,267.7,79.2,809.0,1.04,-0.55,91.32,84.1,80.3,200.22,275.5,87.06,82.46,200.09,275.38,1.0
2018-09-10 07:36:00,88.65609,46.18062,919.195,267.7,79.2,809.0,1.01,-0.54,90.86,83.57,80.17,200.02,275.4,87.2,82.51,200.16,275.47,1.0
2018-09-10 07:36:00,88.65609,46.18062,919.189,267.7,79.2,809.1,0.85,-0.54,90.43,84.29,80.37,200.3,275.41,87.37,82.59,200.22,275.54,1.0
2018-09-10 07:36:00,88.65609,46.18062,919.2,267.7,79.2,809.0,0.72,-0.58,89.99,83.31,80.24,200.4,275.59,87.58,82.7,200.25,275.58,1.0
2018-09-10 07:36:00,88.65609,46.18062,919.196,267.69,79.2,809.0,0.8,-0.49,89.5,83.25,80.3,200.02,275.2,87.81,82.86,200.25,275.58,1.0
2018-09-10 07:36:00,88.65609,46.18062,919.195,267.69,79.2,809.0,0.74,-0.47,89.07,83.77,80.3,200.12,275.3,88.06,83.05,200.21,275.52,1.0
2018-09-10 07:36:00,88.65609,46.18063,919.195,267.69,79.1,809.0,0.69,-0.47,88.67,83.9,80.44,199.93,275.21,88.3,83.28,200.13,275.41,1.0
2018-09-10 07:36:00,88.65609,46.18063,919.188,267.69,79.1,809.1,0.73,-0.44,88.28,84.16,80.58,200.02,274.93,88.48,83.51,200.02,275.26,1.0
2018-09-10 07:36:00,88.65609,46.18063,919.194,267.69,79.1,809.1,0.61,-0.39,87.9,84.69,80.65,200.04,275.32,88.57,83.73,199.9,275.1,1.0
2018-09-10 07:36:00,88.65609,46.18063,919.203,267.69,79.1,809.0,0.75,-0.38,87.54,84.42,80.65,200.04,275.32,88.54,83.9,199.78,274.94,1.0
2018-09-10 07:36:00,88.65609,46.18063,919.21,267.69,79.1,808.9,0.8,-0.42,87.22,85.21,80.93,200.04,275.41,88.37,84.01,199.69,274.8,1.0
2018-09-10 07:36:00,88.65609,46.18063,919.234,267.69,79.1,808.7,0.84,-0.44,86.9,84.88,80.86,200.32,275.41,88.05,84.03,199.63,274.71,1.0
2018-09-10 07:36:00,88.65609,46.18063,919.261,267.69,79.1,808.5,0.86,-0.46,86.59,85.6,81.06,200.32,275.31,87.59,83.96,199.6,274.68,1.0
2018-09-10 07:36:00,88.65609,46.18063,919.241,267.7,79.1,808.7,0.82,-0.5,86.33,84.75,81.13,200.41,275.6,87.02,83.8,199.56,274.69,1.0
2018-09-10 07:36:00,88.65609,46.18063,919.204,267.69,79.1,809.0,0.72,-0.41,86.08,84.56,81.2,200.22,275.41,86.38,83.58,199.62,274.65,1.0
2018-09-10 07:36:00,88.65609,46.18063,919.197,267.69,79.1,809.0,0.75,-0.46,85.85,84.36,81.34,200.22,275.41,85.72,83.32,199.72,274.75,1.0
2018-09-10 07:36:00,88.65609,46.18063,919.212,267.69,79.1,808.9,0.63,-0.43,85.68,85.34,81.27,200.22,275.51,85.08,83.05,199.85,274.87,1.0
2018-09-10 07:36:00,88.65609,46.18063,919.234,267.69,79.1,808.7,0.59,-0.41,85.55,84.36,81.27,199.96,275.22,84.52,82.81,199.95,274.92,1.0
2018-09-10 07:36:00,88.65609,46.18063,919.244,267.69,79.1,808.6,0.76,-0.48,85.43,85.34,81.27,199.8,275.04,84.05,82.62,200.03,274.93,1.0
2018-09-10 07:36:00,88.65609,46.18063,919.231,267.69,79.1,808.7,0.66,-0.43,85.36,84.42,81.2,199.6,274.16,83.71,82.51,200.11,274.94,1.0
2018-09-10 07:36:00,88.65609,46.18063,919.224,267.69,79.1,808.8,0.76,-0.43,85.29,85.34,81.27,200.07,274.53,83.48,82.49,200.19,274.8,1.0
2018-09-10 07:36:00,88.65609,46.18063,919.227,267.68,79.0,808.8,0.74,-0.47,85.26,84.49,81.69,200.12,275.21,83.37,82.55,200.18,274.72,1.0
2018-09-10 07:36:00,88.65609,46.18064,919.254,267.68,79.0,808.6,0.66,-0.47,85.27,84.88,81.34,199.9,274.85,83.34,82.67,200.13,274.64,1.0
2018-09-10 07:36:00,88.65609,46.18064,919.28,267.69,79.0,808.3,0.63,-0.45,85.3,84.56,81.27,200.05,274.45,83.36,82.84,200.09,274.49,1.0
2018-09-10 07:36:00,88.65609,46.18064,919.251,267.69,79.0,808.6,0.64,-0.5,85.35,84.95,81.34,199.88,274.84,83.42,83.02,200.08,274.32,1.0
2018-09-10 07:36:00,88.65609,46.18065,919.29,267.68,79.0,808.3,0.52,-0.55,85.44,84.56,81.27,200.57,273.33,83.49,83.19,200.03,274.29,1.0
2018-09-10 07:36:00,88.65609,46.18065,919.273,267.68,79.0,808.4,0.54,-0.5,85.57,84.36,81.69,200.08,274.99,83.55,83.32,199.98,274.29,1.0
2018-09-10 07:36:00,88.65609,46.18065,919.261,267.68,79.0,808.5,0.5,-0.54,85.74,84.49,81.69,200.04,275.22,83.6,83.4,199.96,274.33,1.0
2018-09-10 07:36:00,88.65609,46.18066,919.261,267.67,79.0,808.5,0.46,-0.54,85.95,83.97,81.76,200.22,274.72,83.64,83.42,200.02,274.43,1.0
2018-09-10 07:36:00,88.65609,46.18066,919.262,267.68,79.0,808.5,0.54,-0.4,86.18,85.01,81.69,200.13,273.74,83.68,83.38,200.14,274.56,1.0
2018-09-10 07:36:00,88.65609,46.18066,919.26,267.68,79.0,808.5,0.79,-0.38,86.41,85.01,81.89,200.13,274.1,83.72,83.29,200.25,274.7,1.0
2018-09-10 07:36:00,88.65609,46.18066,919.264,267.68,79.0,808.5,0.74,-0.31,86.73,83.9,81.82,200.22,275.27,83.77,83.16,200.3,274.95,1.0
2018-09-10 07:36:00,88.65609,46.18067,919.247,267.68,79.0,808.6,1.01,-0.39,87.02,84.36,81.89,200.04,275.13,83.83,83.01,200.41,275.08,1.0
2018-09-10 07:36:00,88.65609,46.18067,919.234,267.68,79.0,808.7,1.14,-0.4,87.36,84.29,81.89,200.26,274.87,83.91,82.86,200.53,275.17,1.0
2018-09-10 07:36:00,88.65609,46.18067,919.238,267.68,79.0,808.7,1.14,-0.35,87.72,84.49,81.69,200.82,274.71,83.98,82.72,200.65,275.28,1.0
2018-09-10 07:36:00,88.65609,46.18067,919.248,267.67,79.0,808.6,1.26,-0.4,88.09,84.42,81.69,200.5,275.12,84.05,82.6,200.74,275.43,1.0
2018-09-10 07:36:00,88.65609,46.18068,919.28,267.68,79.0,808.3,1.08,-0.38,88.48,85.28,81.96,200.26,275.13,84.09,82.5,200.82,275.53,1.0
2018-09-10 07:36:00,88.65609,46.18068,919.261,267.67,79.0,808.5,0.93,-0.44,88.91,84.03,81.96,200.22,275.22,84.11,82.43,200.86,275.54,1.0
2018-09-10 07:36:00,88.65609,46.18068,919.272,267.67,79.0,808.4,0.84,-0.47,89.32,84.42,81.96,200.22,275.41,84.08,82.38,200.88,275.52,1.0
2018-09-10 07:36:00,88.6561,46.18068,919.302,267.68,79.0,808.2,0.74,-0.49,89.75,84.56,81.96,200.41,275.42,84.01,82.35,200.84,275.54,1.0
2018-09-10 07:36:00,88.6561,46.18069,919.293,267.68,79.0,808.2,0.6,-0.52,90.22,84.23,81.96,200.22,275.42,83.9,82.32,200.75,275.58,1.0
2018-09-10 07:36:00,88.6561,46.18069,919.279,267.68,79.0,808.4,0.72,-0.52,90.67,83.64,81.89,200.22,275.33,83.77,82.3,200.66,275.57,1.0
2018-09-10 07:36:00,88.6561,46.18069,919.282,267.68,78.9,808.3,0.79,-0.67,91.16,84.75,81.96,200.05,275.12,83.61,82.27,200.59,275.57,1.0
2018-09-10 07:36:00,88.6561,46.18069,919.257,267.67,78.9,808.5,0.85,-0.63,91.65,83.97,81.96,200.23,275.12,83.45,82.23,200.52,275.57,1.0
2018-09-10 07:36:00,88.6561,46.1807,919.252,267.67,78.9,808.6,0.98,-0.61,92.14,84.42,81.96,200.13,275.41,83.27,82.17,200.46,275.56,1.0
2018-09-10 07:36:00,88.6561,46.1807,919.291,267.68,78.9,808.3,1.07,-0.68,92.62,84.56,81.89,200.32,275.41,83.09,82.08,200.41,275.54,1.0
2018-09-10 07:36:00,88.6561,46.18071,919.306,267.68,78.9,808.1,0.89,-0.66,93.12,84.75,82.1,200.5,275.51,82.9,81.97,200.37,275.51,1.0
2018-09-10 07:36:00,88.6561,46.18071,919.296,267.67,78.9,808.2,0.99,-0.73,93.62,84.49,81.82,200.32,275.33,82.69,81.81,200.35,275.46,1.0
2018-09-10 07:36:00,88.6561,46.18072,919.298,267.68,78.9,808.2,0.74,-0.7,94.12,84.36,82.1,200.32,275.22,82.45,81.61,200.34,275.41,1.0
2018-09-10 07:36:00,88.6561,46.18072,919.302,267.68,78.9,808.2,0.75,-0.7,94.63,83.57,81.89,200.32,275.41,82.17,81.36,200.34,275.36,1.0
2018-09-10 07:36:00,88.6561,46.18073,919.309,267.68,78.9,808.1,0.89,-0.73,95.17,83.9,82.03,200.32,275.31,81.84,81.05,200.35,275.32,1.0
2018-09-10 07:36:00,88.6561,46.18073,919.322,267.68,78.9,808.0,0.82,-0.75,95.74,84.16,81.96,200.33,275.41,81.47,80.68,200.37,275.28,1.0
2018-09-10 07:36:00,88.6561,46.18074,919.277,267.68,78.9,808.4,0.93,-0.7,96.3,83.97,81.89,200.41,275.22,81.06,80.27,200.38,275.26,1.0
2018-09-10 07:36:00,88.6561,46.18074,919.281,267.69,78.9,808.3,1.1,-0.7,96.84,83.18,81.82,200.33,275.32,80.64,79.82,200.39,275.25,1.0
2018-09-10 07:36:00,88.6561,46.18075,919.296,267.69,78.9,808.2,1.28,-0.51,97.38,83.31,81.76,200.23,275.42,80.24,79.34,200.38,275.26,1.0
2018-09-10 07:36:00,88.6561,46.18075,919.307,267.69,78.9,808.1,1.6,-0.37,97.89,84.62,81.89,200.23,275.6,79.88,78.87,200.36,275.29,1.0
2018-09-10 07:36:00,88.6561,46.18076,919.309,267.69,78.9,808.1,1.96,-0.41,98.37,83.77,81.55,200.24,275.32,79.61,78.41,200.33,275.32,1.0
2018-09-10 07:36:00,88.6561,46.18078,919.305,267.69,78.9,808.1,1.88,-0.33,98.87,84.36,81.69,200.24,275.23,79.44,77.99,200.29,275.36,1.0
2018-09-10 07:36:00,88.6561,46.18079,919.289,267.69,78.8,808.3,2.14,-0.29,99.3,83.44,81.48,200.24,275.23,79.39,77.62,200.25,275.39,1.0
2018-09-10 07:36:00,88.6561,46.1808,919.306,267.69,78.8,808.1,2.13,-0.3,99.68,82.46,81.34,200.43,275.34,79.49,77.31,200.22,275.42,1.0
2018-09-10 07:36:00,88.6561,46.18081,919.328,267.69,78.8,808.0,2.07,-0.28,100.07,83.25,81.06,200.24,275.24,79.71,77.08,200.2,275.43,1.0
2018-09-10 07:36:00,88.6561,46.18082,919.339,267.69,78.8,807.9,2.09,-0.26,100.47,82.53,80.86,200.04,275.22,80.03,76.91,200.19,275.43,1.0
2018-09-10 07:36:00,88.6561,46.18083,919.347,267.69,78.8,807.8,2.2,-0.28,100.84,82.72,81.0,200.22,275.6,80.42,76.8,200.21,275.42,1.0
2018-09-10 07:36:00,88.6561,46.18084,919.347,267.7,78.8,807.8,2.03,-0.33,101.21,82.79,80.93,200.22,275.22,80.85,76.74,200.24,275.4,1.0
2018-09-10 07:36:00,88.6561,46.18085,919.318,267.69,78.8,808.0,2.17,-0.33,101.52,82.98,80.93,200.33,275.04,81.26,76.71,200.28,275.37,1.0
2018-09-10 07:36:00,88.6561,46.18086,919.31,267.69,78.8,808.1,2.22,-0.42,101.8,82.59,80.65,200.52,275.22,81.61,76.71,200.33,275.34,1.0
2018-09-10 07:36:00,88.6561,46.18087,919.325,267.7,78.8,808.0,2.15,-0.49,102.06,82.98,80.51,200.24,275.32,81.88,76.73,200.37,275.31,1.0
2018-09-10 07:36:00,88.6561,46.18088,919.327,267.7,78.8,808.0,2.12,-0.41,102.28,83.05,80.44,200.33,275.42,82.04,76.75,200.4,275.28,1.0
2018-09-10 07:36:00,88.6561,46.18089,919.314,267.69,78.8,808.1,2.2,-0.49,102.42,83.31,80.37,200.14,275.33,82.08,76.78,200.41,275.26,1.0
2018-09-10 07:36:00,88.6561,46.1809,919.31,267.7,78.8,808.1,1.96,-0.45,102.54,82.85,80.3,200.22,275.41,82.03,76.81,200.4,275.24,1.0
2018-09-10 07:36:00,88.6561,46.1809,919.322,267.69,78.8,808.0,1.95,-0.41,102.59,82.98,80.24,200.23,275.23,81.89,76.84,200.37,275.22,1.0
2018-09-10 07:36:00,88.6561,46.18091,919.33,267.69,78.8,807.9,1.93,-0.37,102.61,82.72,80.1,200.33,275.62,81.7,76.88,200.33,275.2,1.0
2018-09-10 07:36:00,88.65611,46.18092,919.32,267.7,78.8,808.0,1.84,-0.32,102.6,82.4,79.96,200.33,275.42,81.51,76.93,200.27,275.19,1.0
2018-09-10 07:36:00,88.65611,46.18092,919.314,267.7,78.8,808.1,2.0,-0.33,102.54,82.72,80.1,200.42,275.62,81.33,76.98,200.22,275.18,1.0
2018-09-10 07:36:00,88.65611,46.18093,919.344,267.7,78.7,807.8,2.11,-0.41,102.41,82.2,79.82,200.33,275.04,81.21,77.04,200.17,275.17,1.0
2018-09-10 07:36:00,88.65611,46.18094,919.344,267.7,78.7,807.8,2.06,-0.4,102.29,83.12,79.96,200.24,275.32,81.18,77.1,200.15,275.17,1.0
2018-09-10 07:36:00,88.65611,46.18094,919.338,267.7,78.7,807.9,2.13,-0.39,102.12,82.72,79.61,200.42,275.32,81.23,77.16,200.14,275.17,1.0
2018-09-10 07:36:00,88.65611,46.18095,919.342,267.7,78.7,807.8,2.21,-0.38,101.91,82.33,79.68,200.32,275.42,81.38,77.23,200.16,275.18,1.0
2018-09-10 07:36:00,88.65611,46.18096,919.36,267.7,78.7,807.7,2.07,-0.36,101.71,82.33,79.61,200.33,275.52,81.62,77.3,200.2,275.2,1.0
2018-09-10 07:36:00,88.65611,46.18096,919.342,267.7,78.7,807.8,2.39,-0.48,101.42,82.72,79.61,200.24,275.42,81.94,77.37,200.25,275.22,1.0
2018-09-10 07:36:00,88.65611,46.18097,919.353,267.7,78.7,807.7,2.17,-0.55,101.15,82.33,79.68,200.33,275.23,82.32,77.46,200.31,275.24,1.0
2018-09-10 07:36:00,88.65611,46.18098,919.349,267.7,78.7,807.8,2.09,-0.6,100.84,82.72,79.34,200.33,275.23,82.74,77.58,200.36,275.26,1.0
2018-09-10 07:36:00,88.65611,46.18098,919.335,267.7,78.7,807.9,2.02,-0.58,100.47,81.81,79.41,200.42,275.42,83.18,77.74,200.39,275.28,1.0
2018-09-10 07:36:00,88.65611,46.181,919.335,267.7,78.7,807.9,1.78,-0.5,100.1,83.31,79.41,200.14,275.04,83.64,77.93,200.41,275.3,1.0
2018-09-10 07:36:00,88.65611,46.18102,919.345,267.7,78.7,807.8,1.48,-0.55,99.7,82.2,79.47,200.33,275.13,84.1,78.18,200.4,275.31,1.0
2018-09-10 07:36:00,88.65611,46.18103,919.33,267.7,78.7,807.9,1.59,-0.53,99.24,82.4,79.27,200.24,275.12,84.56,78.49,200.37,275.31,1.0
2018-09-10 07:36:00,88.65611,46.18105,919.342,267.7,78.6,807.8,1.47,-0.58,98.78,82.79,79.41,200.05,275.33,85.01,78.84,200.32,275.32,1.0
2018-09-10 07:36:00,88.65611,46.18106,919.356,267.7,78.6,807.7,1.38,-0.61,98.3,82.79,79.06,200.05,275.14,85.45,79.22,200.27,275.33,1.0
2018-09-10 07:36:00,88.65611,46.18108,919.357,267.7,78.6,807.7,1.37,-0.6,97.81,82.92,79.2,200.14,275.04,85.89,79.64,200.23,275.35,1.0
2018-09-10 07:36:00,88.65611,46.18109,919.375,267.7,78.6,807.6,1.28,-0.55,97.3,82.92,79.27,200.24,275.33,86.31,80.05,200.2,275.38,1.0
2018-09-10 07:36:00,88.65611,46.18111,919.395,267.7,78.6,807.4,1.19,-0.48,96.77,82.72,79.41,200.42,275.33,86.72,80.46,200.19,275.44,1.0
2018-09-10 07:36:00,88.65612,46.18112,919.408,267.7,78.6,807.3,1.2,-0.53,96.25,82.53,79.54,200.33,275.32,87.11,80.85,200.21,275.51,1.0
2018-09-10 07:36:00,88.65612,46.18113,919.401,267.7,78.6,807.4,1.13,-0.49,95.73,83.77,79.41,200.43,275.42,87.48,81.21,200.25,275.59,1.0
2018-09-10 07:36:00,88.65612,46.18114,919.383,267.7,78.6,807.5,1.17,-0.4,95.19,83.51,79.41,200.34,275.23,87.81,81.53,200.31,275.68,1.0
2018-09-10 07:36:00,88.65612,46.18115,919.391,267.7,78.6,807.4,1.43,-0.42,94.61,83.38,79.61,200.33,275.33,88.11,81.82,200.37,275.77,1.0
2018-09-10 07:36:00,88.65612,46.18116,919.377,267.7,78.6,807.6,1.27,-0.42,94.07,83.84,79.68,200.24,275.42,88.37,82.08,200.43,275.85,1.0
2018-09-10 07:36:00,88.65612,46.18116,919.36,267.7,78.6,807.7,1.37,-0.46,93.5,84.16,79.61,200.15,275.42,88.59,82.32,200.48,275.9,1.0
2018-09-10 07:36:00,88.65612,46.18117,919.369,267.7,78.6,807.6,1.33,-0.5,92.96,83.05,79.82,200.52,275.33,88.77,82.54,200.5,275.91,1.0
2018-09-10 07:36:00,88.65612,46.18118,919.388,267.7,78.6,807.5,1.15,-0.51,92.42,83.05,79.82,200.42,275.33,88.9,82.76,200.5,275.88,1.0
2018-09-10 07:36:00,88.65612,46.18119,919.394,267.7,78.6,807.4,0.93,-0.5,91.87,84.82,79.89,200.24,275.62,89.0,82.97,200.46,275.82,1.0
2018-09-10 07:36:00,88.65612,46.1812,919.386,267.7,78.6,807.5,0.8,-0.52,91.3,84.69,80.1,200.34,275.42,89.06,83.17,200.41,275.73,1.0
2018-09-10 07:36:00,88.65612,46.18121,919.375,267.69,78.6,807.6,0.53,-0.46,90.77,84.56,80.1,200.33,275.42,89.1,83.35,200.35,275.62,1.0
2018-09-10 07:36:00,88.65612,46.18121,919.366,267.69,78.6,807.6,0.58,-0.31,90.22,84.29,80.17,200.24,275.42,89.12,83.5,200.29,275.5,1.0
2018-09-10 07:36:00,88.65612,46.18122,919.371,267.69,78.6,807.6,0.68,-0.22,89.68,84.29,80.03,200.33,275.42,89.11,83.62,200.24,275.4,1.0
2018-09-10 07:36:00,88.65612,46.18124,919.385,267.69,78.6,807.5,0.76,-0.15,89.15,84.29,80.37,200.33,275.62,89.09,83.69,200.2,275.32,1.0
2018-09-10 07:36:00,88.65612,46.18126,919.369,267.69,78.5,807.6,0.89,-0.03,88.63,84.75,80.44,200.33,275.62,89.06,83.72,200.2,275.28,1.0
2018-09-10 07:36:00,88.65612,46.18129,919.363,267.69,78.5,807.7,1.2,-0.12,88.11,85.6,80.51,200.44,275.33,88.99,83.7,200.21,275.26,1.0
2018-09-10 07:36:00,88.65612,46.18132,919.392,267.69,78.5,807.4,1.1,-0.02,87.58,85.21,80.72,200.33,275.52,88.9,83.64,200.25,275.28,1.0
2018-09-10 07:36:00,88.65612,46.18134,919.411,267.69,78.5,807.3,1.12,0.04,87.06,84.75,80.72,200.33,275.42,88.77,83.56,200.3,275.31,1.0
2018-09-10 07:36:00,88.65612,46.18137,919.423,267.69,78.5,807.2,1.06,0.06,86.55,85.14,80.86,200.15,275.62,88.59,83.46,200.35,275.35,1.0
2018-09-10 07:36:00,88.65612,46.1814,919.44,267.68,78.5,807.0,0.89,0.08,86.1,85.54,80.86,200.25,275.33,88.35,83.36,200.38,275.38,1.0
2018-09-10 07:36:00,88.65613,46.18142,919.423,267.69,78.5,807.2,1.1,0.12,85.67,84.82,80.93,200.25,275.52,88.04,83.28,200.4,275.39,1.0
2018-09-10 07:36:00,88.65613,46.18145,919.394,267.68,78.5,807.4,1.29,0.14,85.29,86.0,80.93,200.34,275.52,87.66,83.22,200.39,275.37,1.0
2018-09-10 07:36:00,88.65613,46.18148,919.38,267.68,78.5,807.5,1.32,0.05,84.96,85.21,80.86,200.35,274.99,87.2,83.18,200.36,275.32,1.0
2018-09-10 07:36:00,88.65613,46.18151,919.384,267.68,78.5,807.5,1.43,0.06,84.63,85.34,80.86,200.34,275.19,86.69,83.15,200.31,275.23,1.0
2018-09-10 07:36:00,88.65613,46.18153,919.408,267.68,78.5,807.3,1.68,0.26,84.34,85.14,81.06,200.15,275.03,86.14,83.13,200.25,275.13,1.0
2018-09-10 07:36:00,88.65613,46.18156,919.397,267.68,78.5,807.4,1.73,0.36,84.13,86.52,81.13,200.34,275.62,85.58,83.1,200.2,275.04,1.0
2018-09-10 07:36:00,88.65613,46.18156,919.42,267.68,78.5,807.2,1.97,0.38,83.92,85.8,81.27,200.25,275.14,85.05,83.07,200.16,274.96,1.0
2018-09-10 07:36:00,88.65613,46.18156,919.436,267.68,78.5,807.1,2.1,0.49,83.74,85.08,81.27,200.24,275.42,84.58,83.01,200.14,274.92,1.0
2018-09-10 07:36:00,88.65613,46.18157,919.431,267.68,78.5,807.1,2.14,0.52,83.62,85.34,81.27,200.43,275.04,84.21,82.95,200.16,274.94,1.0
2018-09-10 07:36:00,88.65613,46.18157,919.429,267.67,78.4,807.1,2.18,0.53,83.54,85.54,81.34,200.16,275.42,83.95,82.87,200.2,275.02,1.0
2018-09-10 07:36:00,88.65613,46.18158,919.452,267.66,78.4,806.9,2.24,0.56,83.51,84.95,81.2,200.44,275.42,83.81,82.79,200.26,275.13,1.0
2018-09-10 07:36:00,88.65613,46.18158,919.46,267.66,78.4,806.9,2.22,0.56,83.54,85.54,81.55,200.34,275.42,83.78,82.73,200.34,275.28,1.0
2018-09-10 07:36:00,88.65613,46.18159,919.425,267.65,78.4,807.2,2.33,0.61,83.63,85.54,81.48,200.34,275.42,83.82,82.7,200.44,275.44,1.0
2018-09-10 07:36:00,88.65613,46.18159,919.403,267.65,78.4,807.3,2.3,0.66,83.78,84.82,81.55,200.52,275.42,83.9,82.71,200.64,275.73,1.0
2018-09-10 07:36:00,88.65613,46.1816,919.399,267.65,78.4,807.4,2.23,0.64,83.94,85.28,81.48,200.34,275.42,83.95,82.76,200.76,275.94,1.0
2018-09-10 07:36:00,88.65613,46.1816,919.401,267.65,78.4,807.4,2.2,0.59,84.12,84.82,81.48,200.53,275.62,83.92,82.86,200.76,276.02,1.0
2018-09-10 07:36:00,88.65613,46.1816,919.381,267.64,78.4,807.5,2.21,0.6,84.36,84.69,81.2,200.26,275.32,83.78,83.0,200.73,276.03,1.0
2018-09-10 07:36:00,88.65613,46.18161,919.427,267.65,78.4,807.1,2.16,0.58,84.61,85.14,81.48,200.38,275.03,83.5,83.14,200.66,275.98,1.0
2018-09-10 07:36:00,88.65613,46.18161,919.429,267.64,78.4,807.1,2.11,0.54,84.91,85.73,81.48,201.53,276.51,83.08,83.29,200.58,275.88,1.0
2018-09-10 07:36:00,88.65613,46.18162,919.425,267.64,78.4,807.2,2.06,0.52,85.24,84.82,81.76,201.31,276.04,82.56,83.4,200.5,275.74,1.0
2018-09-10 07:36:00,88.65613,46.18162,919.433,267.64,78.4,807.1,2.04,0.54,85.61,85.8,81.76,200.43,275.62,81.99,83.45,200.42,275.58,1.0
2018-09-10 07:36:00,88.65613,46.18162,919.436,267.64,78.3,807.1,2.06,0.55,86.0,84.88,81.96,200.15,275.71,81.45,83.44,200.37,275.44,1.0
2018-09-10 07:36:00,88.65613,46.18162,919.44,267.63,78.3,807.0,2.13,0.45,86.41,85.21,81.62,200.24,275.23,81.02,83.35,200.33,275.32,1.0
2018-09-10 07:36:00,88.65613,46.18163,919.419,267.62,78.3,807.2,1.97,0.52,86.87,84.03,82.1,200.42,275.23,80.78,83.18,200.3,275.25,1.0
2018-09-10 07:36:00,88.65613,46.18163,919.424,267.62,78.3,807.2,1.97,0.43,87.36,84.36,81.89,200.52,275.62,80.79,82.95,200.18,275.09,1.0
