Date/Time,Latitude,Longitude,PPPP [hPa],TTT grad [K],RH [%],Height [m],Pitch [deg],Roll [deg],Yaw [deg],SWD [W/m**2] (raw),SWU [W/m**2] (raw),LWD [W/m**2] (raw),LWU [W/m**2] (raw),SWD [W/m**2] (corrected),SWU [W/m**2] (corrected),LWD [W/m**2] (corrected),LWU [W/m**2] (corrected),Flag
2018-09-10 07:11:00,88.65819,46.2791,1023.817,264.25,85.5,-12.6,-3.69,-5.68,84.39,71.14,61.92,237.04,277.28,66.84,61.58,236.94,277.33,0.0
2018-09-10 07:11:00,88.65819,46.2791,1023.818,264.25,85.5,-12.6,-3.7,-5.61,85.14,70.81,61.78,237.6,276.91,66.82,61.61,237.03,277.3,0.0
2018-09-10 07:11:00,88.65819,46.2791,1023.808,264.25,85.5,-12.5,-3.7,-5.56,85.88,70.75,61.99,237.34,277.15,66.76,61.65,237.11,277.28,0.0
2018-09-10 07:11:00,88.65819,46.2791,1023.805,264.25,85.5,-12.5,-3.69,-5.52,86.64,70.29,61.92,237.34,277.84,66.7,61.68,237.18,277.28,0.0
2018-09-10 07:11:00,88.65819,46.27909,1023.825,264.24,85.5,-12.6,-3.67,-5.47,87.37,70.35,61.85,237.43,277.73,66.64,61.7,237.24,277.33,0.0
2018-09-10 07:11:00,88.65819,46.27909,1023.816,264.24,85.5,-12.6,-3.66,-5.44,88.13,70.61,61.78,237.33,277.73,66.59,61.68,237.33,277.49,0.0
2018-09-10 07:11:00,88.65819,46.27909,1023.836,264.24,85.5,-12.7,-3.65,-5.39,88.84,70.22,61.99,237.3,277.68,66.55,61.64,237.36,277.58,0.0
2018-09-10 07:11:00,88.65819,46.27908,1023.847,264.24,85.5,-12.8,-3.65,-5.32,89.55,70.29,61.78,237.54,277.58,66.52,61.54,237.28,277.66,0.0
2018-09-10 07:11:00,88.65819,46.27908,1023.842,264.24,85.5,-12.8,-3.66,-5.23,90.26,69.9,61.99,237.52,277.58,66.49,61.4,237.16,277.69,0.0
2018-09-10 07:11:00,88.65819,46.27908,1023.833,264.24,85.5,-12.7,-3.67,-5.13,90.97,69.9,61.85,237.27,277.42,66.45,61.21,237.04,277.67,0.0
2018-09-10 07:11:00,88.65819,46.27908,1023.865,264.24,85.5,-12.9,-3.66,-5.04,91.67,69.96,61.92,237.57,277.37,66.38,60.99,236.92,277.61,0.0
2018-09-10 07:11:00,88.65819,46.27907,1023.867,264.24,85.5,-13.0,-3.6,-4.61,92.32,69.83,61.85,237.84,277.92,66.27,60.74,236.87,277.61,0.0
2018-09-10 07:11:00,88.65819,46.27907,1023.832,264.23,85.5,-12.7,-3.46,-4.74,93.02,69.7,61.64,237.68,277.47,66.13,60.47,236.87,277.64,0.0
2018-09-10 07:11:00,88.65819,46.27906,1023.801,264.23,85.5,-12.5,-3.35,-4.77,93.73,69.7,61.71,237.39,277.19,65.96,60.22,236.92,277.67,0.0
2018-09-10 07:11:00,88.65819,46.27906,1023.801,264.23,85.5,-12.5,-3.2,-4.54,94.4,69.7,61.71,237.33,277.41,65.76,60.01,237.0,277.7,0.0
2018-09-10 07:11:00,88.65819,46.27906,1023.812,264.23,85.5,-12.6,-2.81,-4.53,95.05,69.57,61.78,236.95,277.07,65.56,59.84,237.11,277.7,0.0
2018-09-10 07:11:00,88.65819,46.27905,1023.836,264.23,85.6,-12.7,-2.39,-5.2,96.03,69.44,61.51,237.73,277.64,65.38,59.73,237.22,277.58,0.0
2018-09-10 07:11:00,88.65819,46.27905,1023.847,264.23,85.6,-12.8,-2.33,-4.28,96.46,69.11,61.64,237.76,277.73,65.22,59.7,237.3,277.55,0.0
2018-09-10 07:11:00,88.65819,46.27904,1023.839,264.23,85.6,-12.8,-2.11,-4.02,96.8,69.18,61.58,237.66,277.73,65.12,59.74,237.31,277.54,0.0
2018-09-10 07:11:00,88.65819,46.27904,1023.82,264.23,85.6,-12.6,-2.17,-4.27,97.18,68.91,61.37,237.83,277.45,65.06,59.85,237.28,277.51,0.0
2018-09-10 07:11:00,88.65819,46.27903,1023.806,264.22,85.6,-12.5,-2.94,-4.2,97.62,68.78,61.3,237.67,277.13,65.05,60.02,237.24,277.5,0.0
2018-09-10 07:11:00,88.65819,46.27903,1023.817,264.22,85.5,-12.6,-3.13,-3.91,97.93,68.72,61.16,237.47,275.43,65.07,60.23,237.18,277.54,0.0
2018-09-10 07:11:00,88.65819,46.27902,1023.825,264.22,85.6,-12.6,-2.95,-3.45,98.35,69.04,61.37,237.2,277.22,65.13,60.47,237.06,277.54,0.0
2018-09-10 07:11:00,88.65819,46.27902,1023.816,264.22,85.6,-12.6,-2.53,-3.83,98.99,68.72,61.3,236.96,277.12,65.19,60.74,236.9,277.53,0.0
2018-09-10 07:11:00,88.65819,46.27902,1023.802,264.22,85.6,-12.5,-2.03,-3.46,99.58,68.52,61.3,236.65,277.1,65.26,61.01,236.76,277.55,0.0
2018-09-10 07:11:00,88.65819,46.27901,1023.8,264.22,85.6,-12.5,-1.21,-2.29,99.95,68.39,61.23,237.07,277.79,65.31,61.28,236.68,277.61,0.0
2018-09-10 07:11:00,88.65819,46.27901,1023.804,264.22,85.6,-12.5,0.61,-3.19,100.21,68.46,61.44,237.06,277.91,65.36,61.55,236.65,277.71,0.0
2018-09-10 07:11:00,88.65819,46.27901,1023.781,264.22,85.6,-12.3,0.39,-2.81,100.71,68.26,61.37,237.28,278.15,65.4,61.84,236.57,277.88,0.0
2018-09-10 07:11:00,88.65819,46.279,1023.782,264.21,85.6,-12.3,1.34,-3.5,101.09,68.13,61.37,237.12,278.15,65.46,62.13,236.47,277.95,0.0
2018-09-10 07:11:00,88.65819,46.279,1023.785,264.21,85.6,-12.3,1.78,-3.77,101.52,68.26,61.37,237.34,278.34,65.53,62.45,236.48,278.01,0.0
2018-09-10 07:11:00,88.65819,46.27899,1023.779,264.2,85.6,-12.3,1.6,-3.34,102.04,68.06,61.37,237.59,277.97,65.64,62.8,236.51,278.04,0.0
2018-09-10 07:11:00,88.65819,46.27899,1023.781,264.19,85.6,-12.3,1.53,-2.81,102.57,68.32,61.44,237.71,277.77,65.81,63.18,236.47,277.97,0.0
2018-09-10 07:11:00,88.65819,46.27899,1023.793,264.19,85.6,-12.4,1.34,-2.62,103.22,68.32,61.51,236.37,277.08,66.02,63.6,236.4,277.77,0.0
2018-09-10 07:11:00,88.65819,46.27898,1023.798,264.18,85.6,-12.4,0.91,-2.27,103.87,68.13,61.51,236.1,277.31,66.28,64.03,236.25,277.58,0.0
2018-09-10 07:11:00,88.65819,46.27898,1023.792,264.18,85.6,-12.4,0.97,-2.42,104.41,67.47,61.58,235.96,276.97,66.57,64.48,236.08,277.36,0.0
2018-09-10 07:11:00,88.65819,46.27898,1023.783,264.17,85.6,-12.3,0.94,-2.36,104.93,67.6,61.58,235.81,276.47,66.89,64.92,235.86,277.11,0.0
2018-09-10 07:11:00,88.65819,46.27897,1023.785,264.17,85.6,-12.4,0.35,-1.57,105.47,67.6,61.64,235.27,276.29,67.2,65.35,235.6,276.85,0.0
2018-09-10 07:11:00,88.65819,46.27897,1023.734,264.16,85.6,-12.0,0.4,-1.92,105.93,67.74,61.92,235.73,275.58,67.5,65.74,235.3,276.61,0.0
2018-09-10 07:11:00,88.65819,46.27896,1023.744,264.16,85.6,-12.0,-0.08,-1.26,106.42,68.39,62.2,235.14,276.57,67.77,66.1,235.14,276.47,0.0
2018-09-10 07:11:00,88.65819,46.27896,1023.76,264.16,85.6,-12.2,-0.29,-1.26,106.9,67.8,62.06,235.24,277.18,68.0,66.42,235.05,276.34,0.0
2018-09-10 07:11:00,88.65819,46.27895,1023.763,264.16,85.6,-12.2,-0.2,-1.14,107.32,67.93,62.27,235.64,277.15,68.2,66.71,234.99,276.33,0.0
2018-09-10 07:11:00,88.65819,46.27895,1023.756,264.16,85.6,-12.1,0.2,-0.92,107.69,68.0,62.34,235.39,277.11,68.39,66.99,234.99,276.43,0.0
2018-09-10 07:11:00,88.65819,46.27894,1023.754,264.15,85.6,-12.1,0.92,-1.43,108.07,68.13,62.54,235.31,277.11,68.59,67.26,235.06,276.55,0.0
2018-09-10 07:11:00,88.65819,46.27894,1023.745,264.15,85.6,-12.0,1.08,-1.12,108.4,67.8,62.68,235.09,277.33,68.81,67.55,235.12,276.76,0.0
2018-09-10 07:11:00,88.65819,46.27893,1023.74,264.14,85.6,-12.0,1.34,-1.31,108.72,68.06,62.75,235.79,277.21,69.09,67.87,235.24,276.84,0.0
2018-09-10 07:11:00,88.65819,46.27893,1023.729,264.14,85.6,-11.9,1.03,-1.2,109.07,68.06,62.96,235.63,277.58,69.42,68.23,235.35,276.88,0.0
2018-09-10 07:11:00,88.65819,46.27892,1023.72,264.14,85.6,-11.9,0.86,-0.99,109.43,67.87,62.75,235.48,277.87,69.83,68.64,235.44,276.88,0.0
2018-09-10 07:11:00,88.65819,46.27892,1023.742,264.13,85.6,-12.0,1.63,-1.17,109.72,67.74,62.96,235.25,277.05,70.29,69.08,235.51,276.85,0.0
2018-09-10 07:11:00,88.65819,46.27891,1023.724,264.13,85.6,-11.9,0.97,-0.95,110.1,68.06,63.16,234.93,277.08,70.8,69.56,235.53,276.8,0.0
2018-09-10 07:11:00,88.65819,46.27891,1023.703,264.13,85.6,-11.7,1.64,-1.48,110.45,68.26,63.37,235.15,276.16,71.33,70.03,235.54,276.74,0.0
2018-09-10 07:11:00,88.65819,46.2789,1023.708,264.13,85.6,-11.8,1.77,-1.16,110.75,68.06,63.72,235.14,276.38,71.85,70.5,235.48,276.63,0.0
2018-09-10 07:11:00,88.65819,46.2789,1023.702,264.13,85.6,-11.7,2.16,-0.95,110.93,68.65,63.92,235.41,276.16,72.33,70.93,235.42,276.44,0.0
2018-09-10 07:11:00,88.65819,46.27887,1023.651,264.12,85.6,-11.3,2.88,-1.23,111.05,68.72,64.13,235.54,276.24,72.74,71.31,235.38,276.23,0.0
2018-09-10 07:11:00,88.65819,46.27883,1023.66,264.12,85.6,-11.4,1.9,-0.62,111.36,68.78,64.2,235.57,277.01,73.07,71.63,235.37,276.1,0.0
2018-09-10 07:11:00,88.65819,46.2788,1023.653,264.12,85.6,-11.4,2.67,-1.9,111.57,68.59,64.34,235.53,277.5,73.31,71.9,235.41,275.99,0.0
2018-09-10 07:11:00,88.65819,46.27877,1023.632,264.12,85.6,-11.2,1.56,-1.57,112.05,68.91,64.55,235.35,277.26,73.47,72.11,235.45,276.01,0.0
2018-09-10 07:11:00,88.65819,46.27874,1023.612,264.12,85.6,-11.0,1.69,-1.57,112.35,68.85,64.76,235.39,277.13,73.56,72.28,235.5,276.04,0.0
2018-09-10 07:11:00,88.65818,46.27871,1023.602,264.11,85.6,-11.0,2.58,-1.9,112.52,69.44,65.03,235.84,277.22,73.59,72.43,235.55,276.06,0.0
2018-09-10 07:11:00,88.65818,46.27868,1023.595,264.11,85.6,-10.9,1.67,-1.35,112.91,69.24,65.24,235.96,277.21,73.6,72.56,235.6,276.1,0.0
2018-09-10 07:11:00,88.65818,46.27865,1023.588,264.1,85.6,-10.9,3.25,-2.06,113.04,69.24,65.31,235.9,277.19,73.61,72.71,235.66,276.11,0.0
2018-09-10 07:11:00,88.65818,46.27862,1023.578,264.1,85.6,-10.8,2.54,-1.71,113.46,69.57,65.65,235.95,277.26,73.64,72.86,235.68,276.08,0.0
2018-09-10 07:11:00,88.65818,46.27859,1023.574,264.1,85.6,-10.8,2.48,-1.7,113.78,69.57,65.45,235.73,277.06,73.71,73.04,235.71,276.07,0.0
2018-09-10 07:11:00,88.65818,46.27856,1023.579,264.09,85.6,-10.8,2.56,-1.86,114.11,69.7,65.86,235.6,276.51,73.82,73.22,235.71,276.05,0.0
2018-09-10 07:11:00,88.65818,46.27853,1023.586,264.09,85.6,-10.9,1.89,-1.68,114.6,69.5,66.21,235.71,276.73,73.98,73.42,235.66,276.0,0.0
2018-09-10 07:11:00,88.65818,46.27851,1023.563,264.09,85.6,-10.7,3.06,-1.83,114.99,69.96,66.21,235.79,276.77,74.2,73.61,235.6,275.95,0.0
2018-09-10 07:11:00,88.65818,46.27848,1023.571,264.09,85.6,-10.7,2.77,-1.6,115.52,69.9,66.55,235.61,276.77,74.45,73.8,235.53,275.89,0.0
2018-09-10 07:11:00,88.65818,46.27845,1023.57,264.08,85.6,-10.7,3.04,-1.75,115.98,70.09,66.62,235.53,277.0,74.73,73.96,235.49,275.82,0.0
2018-09-10 07:11:00,88.65818,46.27842,1023.562,264.08,85.6,-10.7,3.17,-1.85,116.41,70.22,66.69,235.18,276.67,75.04,74.1,235.49,275.78,0.0
2018-09-10 07:11:00,88.65818,46.2784,1023.553,264.09,85.6,-10.6,2.9,-1.81,116.84,70.29,67.04,235.26,276.82,75.35,74.21,235.48,275.79,0.0
2018-09-10 07:11:00,88.65818,46.27837,1023.541,264.08,85.6,-10.5,2.72,-2.11,117.26,70.55,67.24,235.46,277.13,75.66,74.29,235.41,275.76,0.0
2018-09-10 07:11:00,88.65818,46.27834,1023.534,264.08,85.6,-10.5,2.6,-2.05,117.73,70.68,67.45,235.23,277.24,75.97,74.36,235.35,275.73,0.0
2018-09-10 07:11:00,88.65818,46.27832,1023.528,264.09,85.6,-10.4,2.58,-2.03,118.26,70.81,67.52,235.73,277.08,76.25,74.41,235.3,275.69,0.0
2018-09-10 07:11:00,88.65818,46.27829,1023.51,264.09,85.6,-10.3,2.8,-2.06,118.77,70.68,67.86,235.74,277.14,76.51,74.46,235.25,275.65,0.0
2018-09-10 07:11:00,88.65818,46.27826,1023.487,264.08,85.6,-10.1,3.05,-2.13,119.29,70.94,67.66,235.63,277.07,76.73,74.51,235.21,275.62,0.0
2018-09-10 07:11:00,88.65817,46.27824,1023.494,264.08,85.6,-10.2,3.0,-2.22,119.85,71.01,68.07,234.82,276.45,76.92,74.56,235.16,275.6,0.0
2018-09-10 07:11:00,88.65817,46.27821,1023.484,264.08,85.6,-10.1,3.19,-2.38,120.4,71.6,68.21,235.02,276.38,77.07,74.63,235.1,275.56,0.0
2018-09-10 07:11:00,88.65817,46.27818,1023.485,264.08,85.6,-10.1,2.97,-2.32,120.99,71.47,68.42,235.14,276.5,77.18,74.7,235.05,275.51,0.0
2018-09-10 07:11:00,88.65817,46.27816,1023.463,264.08,85.6,-9.9,3.12,-2.42,121.56,71.53,68.56,235.14,276.6,77.25,74.78,235.01,275.47,0.0
2018-09-10 07:11:00,88.65817,46.27813,1023.443,264.08,85.6,-9.8,3.3,-2.5,122.09,71.79,68.56,235.33,276.53,77.29,74.86,234.99,275.42,0.0
2018-09-10 07:11:00,88.65817,46.2781,1023.455,264.08,85.6,-9.9,3.31,-2.46,122.57,72.06,68.83,234.85,276.53,77.31,74.94,235.0,275.39,0.0
2018-09-10 07:11:00,88.65817,46.27808,1023.463,264.08,85.6,-9.9,3.54,-2.5,123.0,72.19,68.9,235.1,276.44,77.33,75.01,235.07,275.39,0.0
2018-09-10 07:11:00,88.65817,46.27805,1023.441,264.08,85.7,-9.8,3.64,-2.53,123.41,72.06,69.25,235.1,276.38,77.36,75.07,235.12,275.33,0.0
2018-09-10 07:11:00,88.65817,46.27802,1023.427,264.08,85.7,-9.7,3.46,-2.64,123.87,72.45,69.32,235.28,276.43,77.4,75.11,235.16,275.26,0.0
2018-09-10 07:11:00,88.65817,46.278,1023.432,264.08,85.7,-9.7,3.31,-2.72,124.32,72.32,69.45,235.5,276.62,77.49,75.14,235.19,275.19,0.0
2018-09-10 07:11:00,88.65817,46.27797,1023.44,264.08,85.7,-9.8,3.38,-2.78,124.72,72.38,69.59,235.63,276.63,77.61,75.15,235.21,275.1,0.0
2018-09-10 07:11:00,88.65817,46.27794,1023.401,264.08,85.7,-9.5,3.65,-2.9,125.12,72.51,69.73,235.44,276.67,77.78,75.14,235.21,275.01,0.0
2018-09-10 07:11:00,88.65817,46.27791,1023.409,264.08,85.7,-9.5,3.53,-2.91,125.47,72.91,69.87,235.0,275.56,78.0,75.11,235.19,274.9,0.0
2018-09-10 07:11:00,88.65816,46.27788,1023.411,264.07,85.7,-9.5,3.89,-3.2,125.76,72.84,69.94,235.23,275.82,78.26,75.07,235.14,274.8,0.0
2018-09-10 07:11:00,88.65816,46.27785,1023.386,264.06,85.7,-9.3,3.53,-3.05,126.09,73.04,69.94,235.34,275.85,78.54,75.02,235.07,274.72,0.0
2018-09-10 07:11:00,88.65816,46.27782,1023.384,264.06,85.7,-9.3,3.52,-3.0,126.34,73.3,70.21,235.26,275.7,78.83,74.96,234.98,274.66,0.0
2018-09-10 07:11:00,88.65816,46.2778,1023.409,264.05,85.7,-9.5,3.67,-3.07,126.52,73.5,70.42,235.64,275.93,79.12,74.9,234.89,274.61,0.0
2018-09-10 07:11:00,88.65816,46.27777,1023.386,264.04,85.7,-9.3,3.17,-2.96,126.67,73.5,70.49,235.15,276.03,79.38,74.84,234.84,274.56,0.0
2018-09-10 07:11:00,88.65816,46.27774,1023.342,264.03,85.7,-9.0,3.86,-3.13,126.67,73.56,70.63,235.43,275.75,79.62,74.78,234.83,274.52,0.0
2018-09-10 07:11:00,88.65816,46.27771,1023.34,264.02,85.7,-9.0,3.45,-3.01,126.73,73.69,70.63,235.34,275.99,79.81,74.75,234.84,274.52,0.0
2018-09-10 07:11:00,88.65816,46.27768,1023.334,264.02,85.7,-9.0,3.47,-3.17,126.7,73.76,70.77,235.17,276.32,79.95,74.73,234.88,274.54,0.0
2018-09-10 07:11:00,88.65816,46.27765,1023.314,264.02,85.7,-8.8,3.58,-3.33,126.63,74.28,70.84,235.46,275.99,80.06,74.74,234.93,274.56,0.0
2018-09-10 07:11:00,88.65816,46.27762,1023.293,264.0,85.7,-8.7,3.3,-3.24,126.56,74.08,71.04,235.42,275.87,80.12,74.77,235.0,274.57,0.0
2018-09-10 07:11:00,88.65816,46.2776,1023.311,264.0,85.7,-8.8,3.47,-3.42,126.37,74.8,70.9,235.49,275.09,80.15,74.82,235.08,274.57,0.0
2018-09-10 07:11:00,88.65816,46.27758,1023.3,264.0,85.7,-8.7,3.34,-3.43,126.13,74.67,71.11,235.09,275.3,80.17,74.89,235.13,274.54,0.0
2018-09-10 07:11:00,88.65816,46.27756,1023.271,263.99,85.7,-8.5,3.13,-3.5,125.87,74.8,71.11,235.46,275.48,80.18,74.97,235.16,274.5,0.0
2018-09-10 07:11:00,88.65816,46.27754,1023.244,263.99,85.7,-8.3,3.0,-3.52,125.57,74.48,71.25,235.64,275.64,80.2,75.04,235.16,274.44,0.0
2018-09-10 07:11:00,88.65815,46.27752,1023.233,263.99,85.7,-8.2,2.93,-3.44,125.22,75.06,71.46,235.36,275.7,80.24,75.12,235.11,274.37,0.0
2018-09-10 07:11:00,88.65815,46.2775,1023.227,263.99,85.7,-8.2,2.78,-3.39,124.85,75.0,71.53,235.67,275.91,80.31,75.18,235.04,274.33,0.0
2018-09-10 07:11:00,88.65815,46.27748,1023.208,264.0,85.8,-8.0,3.13,-3.46,124.38,75.0,71.67,235.02,275.6,80.41,75.22,234.98,274.39,0.0
2018-09-10 07:11:00,88.65815,46.27746,1023.226,264.01,85.8,-8.1,3.02,-3.39,123.93,75.59,71.74,235.25,276.15,80.53,75.25,235.01,274.38,0.0
2018-09-10 07:11:00,88.65815,46.27744,1023.244,264.01,85.8,-8.3,2.99,-3.36,123.44,75.46,71.74,235.11,276.09,80.69,75.27,234.97,274.37,0.0
2018-09-10 07:11:00,88.65815,46.27742,1023.236,264.01,85.8,-8.2,3.06,-3.28,122.94,75.59,71.87,235.16,275.85,80.88,75.27,234.87,274.36,0.0
2018-09-10 07:11:00,88.65815,46.2774,1023.197,264.01,85.8,-7.9,3.07,-3.06,122.46,75.92,72.01,235.17,276.03,81.08,75.28,234.8,274.35,0.0
2018-09-10 07:11:00,88.65815,46.27738,1023.209,264.01,85.8,-8.0,2.9,-3.13,121.94,75.85,71.94,235.5,275.88,81.28,75.28,234.73,274.41,0.0
2018-09-10 07:11:00,88.65815,46.27736,1023.221,264.02,85.8,-8.1,3.17,-2.79,121.38,75.85,72.22,236.22,275.28,81.49,75.29,234.71,274.46,0.0
2018-09-10 07:11:00,88.65815,46.27734,1023.214,264.02,85.8,-8.1,2.86,-2.73,120.83,75.98,72.15,235.63,275.34,81.67,75.32,234.71,274.47,0.0
2018-09-10 07:11:00,88.65815,46.27732,1023.192,264.02,85.8,-7.9,2.68,-2.74,120.26,76.31,72.15,234.97,274.97,81.83,75.36,234.73,274.45,0.0
2018-09-10 07:11:00,88.65815,46.27729,1023.171,264.02,85.8,-7.7,2.95,-2.63,119.63,76.44,72.29,235.02,274.85,81.96,75.41,234.74,274.41,0.0
2018-09-10 07:11:00,88.65815,46.27726,1023.165,264.02,85.8,-7.7,2.37,-2.73,119.04,76.64,72.43,234.84,275.64,82.04,75.47,234.75,274.34,0.0
2018-09-10 07:11:00,88.65815,46.27723,1023.186,264.03,85.8,-7.8,3.08,-2.68,118.41,77.03,72.5,234.82,275.46,82.09,75.53,234.74,274.25,0.0
2018-09-10 07:11:00,88.65814,46.2772,1023.174,264.02,85.9,-7.8,3.25,-2.53,117.82,76.7,72.63,234.84,275.5,82.09,75.59,234.63,274.22,0.0
2018-09-10 07:11:00,88.65814,46.27717,1023.146,264.02,85.9,-7.5,3.28,-2.48,117.24,76.64,72.7,234.87,275.38,82.04,75.65,234.61,274.24,0.0
2018-09-10 07:11:00,88.65814,46.27714,1023.125,264.02,85.9,-7.4,3.29,-2.46,116.63,77.36,72.7,234.52,275.48,81.97,75.69,234.65,274.29,0.0
2018-09-10 07:11:00,88.65814,46.27711,1023.138,264.03,85.9,-7.5,3.12,-2.23,115.99,77.62,72.77,234.72,275.32,81.86,75.73,234.61,274.26,0.0
2018-09-10 07:11:00,88.65814,46.27708,1023.13,264.02,85.9,-7.4,2.81,-2.29,115.35,77.16,72.91,234.48,275.59,81.72,75.76,234.59,274.19,0.0
2018-09-10 07:11:00,88.65814,46.27705,1023.121,264.02,85.9,-7.4,2.66,-2.27,114.66,77.49,72.84,234.73,275.14,81.58,75.79,234.56,274.15,0.0
2018-09-10 07:11:00,88.65814,46.27702,1023.113,264.02,85.9,-7.3,2.53,-2.25,113.98,77.36,73.05,235.38,275.93,81.44,75.81,234.56,274.07,0.0
2018-09-10 07:11:00,88.65814,46.27699,1023.104,264.03,85.9,-7.2,2.38,-2.16,113.32,77.55,72.98,235.38,276.01,81.32,75.84,234.57,274.01,0.0
2018-09-10 07:11:00,88.65814,46.27697,1023.091,264.02,85.9,-7.1,2.2,-1.94,112.65,77.81,73.32,235.01,274.9,81.21,75.87,234.57,274.01,0.0
2018-09-10 07:11:00,88.65814,46.27694,1023.104,264.03,85.9,-7.2,2.02,-2.14,111.96,78.14,73.19,234.99,274.83,81.13,75.91,234.57,274.02,0.0
2018-09-10 07:11:00,88.65814,46.27692,1023.061,264.03,85.9,-6.9,1.92,-2.07,111.32,77.62,73.32,234.74,274.95,81.09,75.94,234.59,274.01,0.0
2018-09-10 07:11:00,88.65814,46.2769,1023.031,264.03,85.9,-6.7,1.91,-2.01,110.65,77.94,73.26,235.22,274.18,81.09,75.97,234.62,274.01,0.0
2018-09-10 07:11:00,88.65814,46.27688,1023.026,264.02,86.0,-6.6,1.92,-2.0,109.9,77.94,73.39,235.12,274.05,81.13,75.99,234.61,273.94,0.0
2018-09-10 07:11:00,88.65814,46.27685,1023.034,264.02,86.0,-6.7,1.77,-1.98,109.05,78.14,73.39,234.81,274.87,81.19,76.0,234.58,273.88,0.0
2018-09-10 07:11:00,88.65814,46.27683,1023.037,264.02,86.0,-6.7,1.25,-1.78,108.22,78.34,73.6,234.96,274.81,81.28,76.0,234.59,273.95,0.0
2018-09-10 07:11:00,88.65813,46.27681,1023.033,264.02,86.0,-6.7,0.74,-1.76,107.33,78.4,73.6,234.84,274.99,81.39,75.98,234.61,273.95,0.0
2018-09-10 07:11:00,88.65813,46.27679,1023.041,264.02,86.0,-6.8,0.67,-1.64,106.49,78.34,73.81,235.0,274.83,81.49,75.95,234.63,273.96,0.0
2018-09-10 07:11:00,88.65813,46.27676,1023.042,264.02,86.0,-6.8,0.99,-1.55,105.61,78.01,73.74,235.15,274.96,81.57,75.93,234.62,274.04,0.0
2018-09-10 07:11:00,88.65813,46.27674,1023.028,264.01,86.0,-6.7,1.53,-1.47,104.7,78.47,73.67,235.06,274.86,81.62,75.91,234.61,274.13,0.0
2018-09-10 07:11:00,88.65813,46.27673,1023.004,264.01,86.0,-6.5,1.99,-1.3,103.8,78.47,73.95,234.68,275.37,81.63,75.91,234.62,274.17,0.0
2018-09-10 07:11:00,88.65813,46.27674,1022.97,264.01,86.0,-6.2,2.16,-1.35,102.91,78.86,73.81,234.91,274.6,81.59,75.94,234.62,274.2,0.0
2018-09-10 07:11:00,88.65813,46.27676,1022.979,264.0,86.0,-6.3,2.11,-1.31,102.06,78.86,73.95,234.94,274.71,81.49,76.0,234.61,274.23,0.0
2018-09-10 07:11:00,88.65813,46.27677,1022.967,264.0,86.0,-6.2,2.12,-1.2,101.2,78.93,73.81,235.06,274.97,81.34,76.1,234.57,274.25,0.0
2018-09-10 07:11:00,88.65813,46.27678,1022.941,264.0,86.0,-6.0,2.09,-1.14,100.31,78.86,74.02,235.04,274.89,81.13,76.23,234.52,274.27,0.0
2018-09-10 07:11:00,88.65813,46.2768,1022.934,264.01,86.0,-6.0,1.9,-1.14,99.38,78.86,74.15,235.21,274.93,80.88,76.38,234.47,274.25,0.0
2018-09-10 07:11:00,88.65813,46.27682,1022.938,264.0,86.0,-6.0,1.51,-1.13,98.42,79.06,74.08,234.98,274.83,80.59,76.54,234.43,274.19,0.0
2018-09-10 07:11:00,88.65813,46.27683,1022.918,264.0,86.0,-5.8,0.85,-0.93,97.51,79.12,74.22,234.89,274.85,80.28,76.7,234.4,274.19,0.0
2018-09-10 07:11:00,88.65813,46.27684,1022.936,264.0,86.1,-6.0,0.59,-0.94,96.57,79.06,74.15,235.21,274.98,79.97,76.83,234.33,274.14,0.0
2018-09-10 07:11:00,88.65813,46.27686,1022.959,264.0,86.1,-6.1,0.53,-0.98,95.66,78.86,74.43,234.9,275.04,79.66,76.93,234.25,274.09,0.0
2018-09-10 07:11:00,88.65813,46.27687,1022.954,264.01,86.1,-6.1,0.53,-0.98,94.76,78.86,74.43,234.84,275.08,79.38,76.98,234.18,274.04,0.0
2018-09-10 07:11:00,88.65813,46.27689,1022.939,264.0,86.1,-6.0,0.62,-1.06,93.85,79.19,74.43,234.79,274.86,79.13,76.98,234.13,274.01,0.0
2018-09-10 07:11:00,88.65813,46.2769,1022.921,263.99,86.1,-5.9,0.52,-0.93,92.95,79.19,74.64,234.84,275.2,78.92,76.93,234.1,274.0,0.0
2018-09-10 07:11:00,88.65813,46.2769,1022.908,264.0,86.1,-5.8,0.58,-0.96,92.0,79.06,74.57,234.67,274.94,78.75,76.84,234.08,274.02,0.0
2018-09-10 07:11:00,88.65813,46.2769,1022.89,264.0,86.1,-5.6,0.41,-0.94,91.1,78.86,74.71,234.4,274.87,78.64,76.73,234.06,274.11,0.0
2018-09-10 07:11:00,88.65813,46.27689,1022.867,263.99,86.1,-5.5,0.18,-0.89,90.22,79.06,74.57,234.75,274.95,78.57,76.62,234.02,274.17,0.0
2018-09-10 07:11:00,88.65813,46.27689,1022.849,263.99,86.1,-5.3,0.09,-0.93,89.31,79.06,74.91,234.66,274.99,78.54,76.51,233.96,274.13,0.0
2018-09-10 07:11:00,88.65813,46.27689,1022.86,263.99,86.1,-5.4,-0.12,-0.99,88.45,79.06,74.84,234.49,275.11,78.55,76.44,234.0,274.04,0.0
2018-09-10 07:11:00,88.65813,46.27689,1022.842,263.98,86.1,-5.3,-0.08,-0.88,87.57,78.73,74.78,234.3,275.06,78.57,76.4,234.01,273.99,0.0
2018-09-10 07:11:00,88.65813,46.27689,1022.822,263.98,86.1,-5.1,-0.04,-0.91,86.72,78.86,74.84,234.24,275.51,78.59,76.4,234.14,273.85,0.0
2018-09-10 07:11:00,88.65813,46.27688,1022.817,263.97,86.1,-5.1,0.06,-1.0,85.88,78.93,74.78,233.75,275.16,78.6,76.45,234.24,273.69,0.0
2018-09-10 07:11:00,88.65813,46.27688,1022.829,263.97,86.1,-5.2,0.18,-1.03,85.08,78.99,75.12,233.56,273.87,78.57,76.54,234.26,273.53,0.0
2018-09-10 07:11:00,88.65813,46.27688,1022.85,263.97,86.1,-5.3,0.04,-0.92,84.31,79.12,74.91,234.83,273.27,78.5,76.66,234.35,273.32,0.0
2018-09-10 07:11:00,88.65813,46.27688,1022.843,263.96,86.1,-5.3,0.15,-0.76,83.49,78.8,74.84,234.87,273.62,78.36,76.78,234.45,273.09,0.0
2018-09-10 07:11:00,88.65813,46.27688,1022.819,263.95,86.1,-5.1,-0.28,-0.91,82.72,78.67,74.98,235.67,272.35,78.16,76.91,234.57,272.84,0.0
2018-09-10 07:11:00,88.65813,46.27688,1022.791,263.95,86.1,-4.9,-0.74,-0.86,82.0,78.86,75.05,235.61,272.39,77.9,77.03,234.61,272.55,0.0
2018-09-10 07:11:00,88.65813,46.27687,1022.772,263.94,86.1,-4.7,-0.91,-0.7,81.29,79.19,75.26,235.06,272.92,77.6,77.12,234.7,272.3,0.0
2018-09-10 07:11:00,88.65813,46.27687,1022.77,263.93,86.1,-4.7,-0.7,-0.91,80.62,79.12,75.19,236.31,272.85,77.25,77.19,234.9,272.17,0.0
2018-09-10 07:11:00,88.65813,46.27687,1022.767,263.93,86.1,-4.7,-0.71,-0.77,80.01,78.8,75.47,236.15,272.86,76.9,77.23,235.02,272.16,0.0
2018-09-10 07:11:00,88.65813,46.27687,1022.777,263.92,86.1,-4.8,-0.76,-0.81,79.41,78.8,75.26,236.17,272.78,76.56,77.24,235.12,272.1,0.0
2018-09-10 07:11:00,88.65813,46.27687,1022.758,263.92,86.1,-4.6,-0.62,-0.9,78.77,78.27,75.33,235.23,272.83,76.26,77.24,235.13,272.18,0.0
2018-09-10 07:11:00,88.65813,46.27686,1022.736,263.92,86.1,-4.5,-0.57,-0.85,78.13,78.53,75.4,234.95,272.89,76.0,77.23,235.14,272.26,0.0
2018-09-10 07:11:00,88.65813,46.27686,1022.745,263.91,86.1,-4.5,-0.82,-0.64,77.51,78.6,75.54,235.84,272.67,75.8,77.22,235.17,272.28,0.0
2018-09-10 07:11:00,88.65813,46.27686,1022.727,263.91,86.1,-4.4,-1.21,-0.7,76.91,78.34,75.54,235.86,272.94,75.65,77.22,235.21,272.39,0.0
2018-09-10 07:11:00,88.65813,46.27686,1022.748,263.9,86.1,-4.6,-1.56,-0.55,76.33,78.67,75.6,235.5,272.55,75.56,77.22,235.24,272.46,0.0
2018-09-10 07:11:00,88.65813,46.27686,1022.744,263.9,86.1,-4.5,-1.88,-0.63,75.79,78.01,75.47,235.28,272.7,75.48,77.25,235.27,272.55,0.0
2018-09-10 07:11:00,88.65813,46.27685,1022.71,263.9,86.1,-4.3,-1.99,-0.65,75.3,78.4,75.33,235.05,272.48,75.42,77.28,235.38,272.6,0.0
2018-09-10 07:11:00,88.65812,46.27685,1022.667,263.9,86.2,-4.0,-1.86,-0.58,74.83,78.14,75.81,234.64,272.0,75.33,77.33,235.49,272.64,0.0
2018-09-10 07:11:00,88.65812,46.27685,1022.669,263.89,86.2,-4.0,-1.71,-0.65,74.35,78.01,75.67,235.92,272.71,75.2,77.4,235.51,272.67,0.0
2018-09-10 07:11:00,88.65812,46.27685,1022.68,263.9,86.2,-4.0,-1.75,-0.48,73.87,78.01,75.81,236.02,272.75,75.01,77.47,235.46,272.6,0.0
2018-09-10 07:11:00,88.65812,46.27684,1022.661,263.89,86.2,-3.9,-2.04,-0.57,73.44,77.88,75.81,236.0,273.0,74.75,77.56,235.39,272.61,0.0
2018-09-10 07:11:00,88.65812,46.27684,1022.653,263.89,86.2,-3.8,-2.17,-0.63,73.02,77.81,75.81,236.06,272.91,74.41,77.65,235.4,272.58,0.0
2018-09-10 07:11:00,88.65812,46.27683,1022.66,263.89,86.2,-3.9,-2.22,-0.6,72.58,77.75,76.02,236.25,273.08,74.01,77.75,235.5,272.59,0.0
2018-09-10 07:11:00,88.65812,46.27683,1022.653,263.88,86.2,-3.8,-2.35,-0.53,72.17,78.14,76.02,235.89,273.04,73.56,77.85,235.59,272.68,0.0
2018-09-10 07:11:00,88.65812,46.27682,1022.642,263.88,86.2,-3.8,-2.33,-0.78,71.75,77.29,75.81,235.19,272.64,73.07,77.95,235.61,272.71,0.0
2018-09-10 07:11:00,88.65812,46.27682,1022.62,263.87,86.2,-3.6,-2.21,-0.54,71.36,77.36,75.88,234.7,273.0,72.56,78.05,235.62,272.76,0.0
2018-09-10 07:11:00,88.65812,46.27681,1022.608,263.87,86.2,-3.5,-2.19,-0.61,70.98,77.68,76.09,235.6,273.02,72.04,78.13,235.64,272.78,0.0
2018-09-10 07:11:00,88.65812,46.2768,1022.608,263.88,86.2,-3.5,-2.08,-0.7,70.6,77.36,76.16,235.7,273.03,71.53,78.19,235.65,272.81,0.0
2018-09-10 07:11:00,88.65812,46.2768,1022.614,263.87,86.2,-3.5,-1.86,-0.62,70.23,76.9,76.16,235.54,273.23,71.03,78.23,235.67,272.85,0.0
2018-09-10 07:11:00,88.65812,46.27679,1022.61,263.87,86.2,-3.5,-1.86,-0.7,69.89,76.83,76.23,235.78,273.14,70.54,78.24,235.69,272.88,0.0
2018-09-10 07:11:00,88.65812,46.27679,1022.607,263.87,86.2,-3.5,-2.22,-0.82,69.68,76.31,76.36,235.75,273.06,70.07,78.21,235.76,272.95,0.0
2018-09-10 07:11:00,88.65812,46.27678,1022.579,263.87,86.2,-3.3,-2.36,-0.88,69.45,76.64,76.43,235.66,272.73,69.62,78.16,235.84,272.92,0.0
2018-09-10 07:11:00,88.65812,46.27678,1022.549,263.87,86.2,-3.1,-2.62,-0.91,69.28,76.37,76.36,236.1,273.19,69.18,78.08,235.85,272.92,0.0
2018-09-10 07:11:00,88.65812,46.27677,1022.535,263.86,86.2,-3.0,-2.91,-0.88,69.14,75.98,76.5,235.96,273.27,68.76,77.97,235.79,272.91,0.0
2018-09-10 07:11:00,88.65812,46.27676,1022.544,263.86,86.3,-3.0,-2.96,-0.79,69.01,76.18,76.43,235.94,273.18,68.36,77.85,235.72,272.86,0.0
2018-09-10 07:11:00,88.65812,46.27676,1022.52,263.85,86.3,-2.8,-2.96,-0.94,68.94,75.72,76.57,235.88,273.25,68.0,77.73,235.62,272.85,0.0
2018-09-10 07:11:00,88.65812,46.27675,1022.523,263.85,86.3,-2.9,-3.14,-0.71,68.84,75.92,76.5,235.56,273.1,67.68,77.61,235.53,272.87,0.0
2018-09-10 07:11:00,88.65812,46.27675,1022.506,263.85,86.3,-2.7,-3.34,-0.71,68.52,75.13,76.57,235.34,273.2,67.41,77.49,235.42,272.86,0.0
2018-09-10 07:11:00,88.65812,46.27674,1022.483,263.84,86.3,-2.6,-3.67,-0.71,68.22,75.06,76.43,235.51,273.35,67.2,77.4,235.31,272.79,0.0
2018-09-10 07:11:00,88.65812,46.27674,1022.49,263.84,86.3,-2.6,-4.01,-0.54,68.12,74.94,76.57,235.25,273.05,67.06,77.32,235.2,272.73,0.0
2018-09-10 07:11:00,88.65812,46.27673,1022.496,263.83,86.3,-2.7,-3.63,-0.76,67.99,74.87,76.57,234.84,273.57,66.97,77.25,235.11,272.71,0.0
2018-09-10 07:11:00,88.65812,46.27672,1022.51,263.84,86.3,-2.8,-3.78,-0.72,67.97,74.67,76.71,235.54,273.45,66.94,77.2,235.04,272.66,0.0
2018-09-10 07:11:00,88.65812,46.27672,1022.498,263.84,86.3,-2.7,-3.39,-0.83,67.91,73.89,76.71,235.32,272.93,66.95,77.16,235.01,272.65,0.0
2018-09-10 07:11:00,88.65812,46.27672,1022.485,263.84,86.3,-2.6,-3.08,-0.91,67.89,73.89,76.5,235.58,272.42,66.98,77.12,235.0,272.59,0.0
2018-09-10 07:11:00,88.65812,46.27671,1022.497,263.84,86.3,-2.7,-3.16,-0.94,67.91,74.02,76.71,235.58,272.59,67.02,77.09,235.04,272.52,0.0
2018-09-10 07:11:00,88.65812,46.27671,1022.493,263.83,86.4,-2.6,-3.29,-1.16,67.9,74.08,76.71,235.6,272.82,67.05,77.07,235.16,272.51,0.0
2018-09-10 07:11:00,88.65812,46.2767,1022.475,263.83,86.4,-2.5,-3.7,-0.99,67.93,73.56,76.57,235.58,272.67,67.07,77.05,235.21,272.39,0.0
2018-09-10 07:11:00,88.65812,46.2767,1022.441,263.82,86.4,-2.3,-4.49,-1.14,68.02,73.5,76.64,235.61,272.85,67.07,77.04,235.22,272.28,0.0
2018-09-10 07:11:00,88.65812,46.27669,1022.431,263.82,86.4,-2.2,-4.94,-1.26,68.11,73.43,76.71,235.65,272.46,67.04,77.04,235.23,272.16,0.0
2018-09-10 07:11:00,88.65812,46.27669,1022.441,263.83,86.4,-2.3,-5.18,-1.3,68.22,73.23,76.78,235.63,272.63,66.98,77.06,235.24,272.05,0.0
2018-09-10 07:11:00,88.65812,46.27668,1022.435,263.82,86.4,-2.2,-5.58,-1.35,68.37,73.17,76.71,236.1,273.0,66.9,77.1,235.23,271.99,0.0
2018-09-10 07:11:00,88.65812,46.27668,1022.436,263.81,86.4,-2.2,-5.71,-1.41,68.45,72.84,76.64,234.88,272.24,66.8,77.16,235.22,271.9,0.0
2018-09-10 07:11:00,88.65812,46.27668,1022.425,263.81,86.4,-2.1,-6.21,-1.54,68.56,72.91,76.64,234.98,272.48,66.69,77.24,235.2,271.88,0.0
2018-09-10 07:11:00,88.65812,46.27667,1022.415,263.81,86.4,-2.1,-6.64,-1.52,68.66,72.12,76.78,235.13,271.76,66.58,77.32,235.17,271.87,0.0
2018-09-10 07:11:00,88.65812,46.27667,1022.413,263.8,86.4,-2.0,-6.83,-1.57,68.75,72.45,76.71,235.39,271.83,66.47,77.41,235.17,271.9,0.0
2018-09-10 07:11:00,88.65812,46.27666,1022.414,263.8,86.4,-2.0,-6.76,-1.77,68.86,72.19,76.78,235.14,272.21,66.37,77.5,235.16,271.95,0.0
2018-09-10 07:11:00,88.65812,46.27665,1022.381,263.8,86.4,-1.8,-6.71,-1.88,69.04,72.19,76.71,235.64,272.13,66.27,77.58,235.11,271.93,0.0
2018-09-10 07:11:00,88.65812,46.27665,1022.36,263.8,86.4,-1.6,-6.5,-2.0,69.21,72.06,76.92,235.67,272.69,66.19,77.65,235.17,272.04,0.0
2018-09-10 07:11:00,88.65812,46.27664,1022.379,263.8,86.4,-1.8,-6.3,-2.07,69.42,71.86,76.78,235.65,272.76,66.12,77.7,235.24,272.08,0.0
2018-09-10 07:11:00,88.65812,46.27664,1022.404,263.8,86.4,-2.0,-6.27,-2.01,69.62,71.66,76.85,236.0,272.83,66.07,77.74,235.24,272.21,0.0
2018-09-10 07:11:00,88.65812,46.27663,1022.398,263.8,86.4,-1.9,-6.46,-1.94,69.84,71.47,76.92,235.7,272.7,66.03,77.77,235.16,272.35,0.0
2018-09-10 07:11:00,88.65812,46.27662,1022.333,263.8,86.5,-1.4,-6.81,-2.1,70.11,71.79,76.85,235.64,272.46,66.0,77.78,235.07,272.35,0.0
2018-09-10 07:11:00,88.65812,46.27662,1022.357,263.8,86.5,-1.6,-7.08,-1.94,70.35,71.2,77.06,235.68,272.92,65.99,77.79,235.07,272.4,0.0
2018-09-10 07:11:00,88.65812,46.27661,1022.344,263.8,86.5,-1.5,-7.26,-1.93,70.64,71.01,76.99,235.39,272.66,65.98,77.79,235.05,272.37,0.0
2018-09-10 07:11:00,88.65812,46.27661,1022.332,263.8,86.5,-1.4,-7.38,-2.04,70.98,71.07,76.99,234.62,272.62,65.96,77.78,235.0,272.35,0.0
2018-09-10 07:11:00,88.65812,46.2766,1022.333,263.79,86.5,-1.4,-7.44,-2.11,71.33,70.94,76.78,233.78,272.48,65.94,77.77,234.92,272.33,0.0
2018-09-10 07:11:00,88.65812,46.2766,1022.335,263.79,86.5,-1.5,-7.5,-2.04,71.66,70.42,77.06,234.22,271.84,65.9,77.75,234.82,272.31,0.0
2018-09-10 07:11:00,88.65812,46.27659,1022.34,263.8,86.5,-1.5,-7.95,-2.08,72.1,70.55,77.06,235.49,272.32,65.84,77.74,234.73,272.34,0.0
2018-09-10 07:11:00,88.65812,46.27658,1022.338,263.79,86.5,-1.5,-8.05,-2.0,72.48,70.68,76.99,235.35,272.26,65.75,77.72,234.62,272.3,0.0
2018-09-10 07:11:00,88.65812,46.27658,1022.326,263.79,86.5,-1.4,-8.11,-2.07,72.96,70.48,77.19,235.58,272.95,65.65,77.71,234.56,272.35,0.0
2018-09-10 07:11:00,88.65812,46.27657,1022.318,263.79,86.5,-1.3,-8.13,-2.06,73.44,70.42,76.92,235.44,273.02,65.52,77.71,234.58,272.39,0.0
2018-09-10 07:11:00,88.65812,46.27657,1022.32,263.79,86.6,-1.3,-8.09,-1.98,73.91,70.09,77.26,235.36,272.99,65.4,77.71,234.66,272.46,0.0
2018-09-10 07:11:00,88.65812,46.27656,1022.303,263.8,86.6,-1.2,-7.98,-2.13,74.43,70.29,77.06,235.31,273.3,65.27,77.73,234.71,272.63,0.0
2018-09-10 07:11:00,88.65812,46.27656,1022.288,263.8,86.6,-1.1,-8.26,-2.2,74.96,69.83,77.19,235.08,272.78,65.17,77.76,234.67,272.73,0.0
2018-09-10 07:11:00,88.65812,46.27655,1022.281,263.8,86.6,-1.0,-8.34,-2.12,75.47,70.22,76.99,235.03,272.95,65.1,77.8,234.64,272.85,0.0
2018-09-10 07:11:00,88.65812,46.27654,1022.282,263.8,86.6,-1.1,-8.51,-1.99,76.01,69.44,77.19,235.0,273.05,65.07,77.87,234.63,272.91,0.0
2018-09-10 07:11:00,88.65812,46.27654,1022.283,263.8,86.6,-1.1,-8.67,-1.85,76.58,69.31,77.19,234.61,272.77,65.08,77.94,234.6,272.92,0.0
2018-09-10 07:11:00,88.65812,46.27653,1022.271,263.81,86.6,-1.0,-8.59,-1.72,77.15,69.57,77.12,234.56,272.89,65.13,78.03,234.53,272.92,0.0
2018-09-10 07:11:00,88.65812,46.27653,1022.261,263.81,86.6,-0.9,-8.6,-1.75,77.7,69.18,77.26,234.31,272.52,65.21,78.11,234.36,272.86,0.0
2018-09-10 07:11:00,88.65812,46.27652,1022.238,263.82,86.6,-0.7,-8.58,-1.66,78.27,69.31,77.12,234.59,272.66,65.31,78.2,234.28,272.84,0.0
2018-09-10 07:11:00,88.65812,46.27652,1022.215,263.82,86.6,-0.5,-8.54,-1.61,78.88,68.98,77.33,234.81,272.9,65.41,78.28,234.2,272.75,0.0
2018-09-10 07:11:00,88.65812,46.2765,1022.205,263.83,86.6,-0.5,-8.44,-1.52,79.46,69.11,77.19,234.93,272.65,65.51,78.35,234.14,272.68,0.0
2018-09-10 07:11:00,88.65812,46.27649,1022.211,263.83,86.6,-0.5,-8.3,-1.36,80.02,69.11,77.33,234.52,272.81,65.59,78.4,234.14,272.63,0.0
2018-09-10 07:11:00,88.65812,46.27647,1022.186,263.82,86.6,-0.3,-8.18,-1.33,80.65,68.91,77.4,233.57,272.7,65.65,78.45,234.16,272.53,0.0
2018-09-10 07:11:00,88.65812,46.27646,1022.189,263.82,86.7,-0.4,-7.99,-1.21,81.33,69.11,77.47,234.62,272.69,65.68,78.49,234.2,272.51,0.0
2018-09-10 07:11:00,88.65812,46.27644,1022.171,263.83,86.7,-0.2,-7.74,-1.22,82.05,68.78,77.4,234.48,272.52,65.68,78.51,234.13,272.4,0.0
2018-09-10 07:11:00,88.65811,46.27643,1022.159,263.83,86.7,-0.1,-7.58,-1.19,82.78,68.46,77.4,234.78,272.41,65.66,78.54,234.11,272.34,0.0
2018-09-10 07:11:00,88.65811,46.27641,1022.165,263.84,86.7,-0.2,-7.57,-1.13,83.51,68.52,77.4,234.79,272.7,65.63,78.56,234.17,272.33,0.0
2018-09-10 07:11:00,88.65811,46.2764,1022.17,263.84,86.7,-0.2,-7.72,-1.11,84.28,68.59,77.47,234.9,272.26,65.59,78.58,234.27,272.31,0.0
2018-09-10 07:11:00,88.65811,46.27638,1022.154,263.83,86.7,-0.1,-7.75,-0.87,84.95,68.52,77.61,234.4,272.56,65.54,78.59,234.44,272.34,0.0
2018-09-10 07:11:00,88.65811,46.27638,1022.128,263.84,86.7,0.1,-7.89,-0.8,85.66,68.39,77.54,233.45,271.4,65.5,78.61,234.49,272.3,0.0
2018-09-10 07:11:00,88.65811,46.27639,1022.125,263.84,86.7,0.1,-7.98,-0.64,86.39,68.13,77.54,234.05,271.77,65.46,78.63,234.52,272.31,0.0
2018-09-10 07:11:00,88.65811,46.2764,1022.136,263.84,86.7,0.0,-7.99,-0.52,87.14,68.46,77.54,235.01,272.02,65.43,78.64,234.51,272.28,0.0
2018-09-10 07:11:00,88.65811,46.27641,1022.129,263.84,86.7,0.1,-7.94,-0.52,87.92,68.13,77.61,235.11,271.94,65.41,78.66,234.48,272.21,0.0
2018-09-10 07:11:00,88.65811,46.27642,1022.138,263.84,86.7,0.0,-7.81,-0.38,88.71,68.13,77.75,235.09,272.7,65.4,78.68,234.46,272.24,0.0
2018-09-10 07:11:00,88.65811,46.27643,1022.132,263.84,86.7,0.1,-7.5,-0.1,89.46,68.06,77.54,234.86,272.32,65.41,78.71,234.47,272.31,0.0
2018-09-10 07:11:00,88.65811,46.27644,1022.111,263.84,86.7,0.2,-7.25,-0.0,90.24,67.8,77.82,234.79,272.7,65.44,78.75,234.56,272.43,0.0
2018-09-10 07:11:00,88.65811,46.27645,1022.084,263.84,86.7,0.4,-7.03,0.16,91.01,67.93,77.61,235.03,272.44,65.51,78.81,234.52,272.46,0.0
2018-09-10 07:11:00,88.65811,46.27646,1022.065,263.84,86.7,0.6,-6.83,0.37,91.75,67.74,77.89,234.69,272.48,65.61,78.88,234.4,272.43,0.0
2018-09-10 07:11:00,88.65811,46.27648,1022.064,263.83,86.7,0.6,-6.65,0.28,92.52,68.13,77.75,235.06,272.95,65.75,78.97,234.38,272.5,0.0
2018-09-10 07:11:00,88.65811,46.27649,1022.033,263.83,86.7,0.8,-6.67,0.55,93.27,67.54,77.82,235.07,273.86,65.95,79.07,234.39,272.51,0.0
2018-09-10 07:11:00,88.65811,46.2765,1022.026,263.82,86.7,0.9,-6.68,0.52,94.05,67.93,77.89,234.97,273.32,66.21,79.17,234.41,272.58,0.0
2018-09-10 07:11:00,88.65811,46.27651,1022.033,263.82,86.7,0.8,-6.6,0.55,94.81,67.67,77.89,234.02,271.98,66.52,79.28,234.41,272.62,0.0
2018-09-10 07:11:00,88.65811,46.27653,1022.036,263.82,86.8,0.8,-6.52,0.7,95.57,67.41,77.82,233.69,271.86,66.88,79.38,234.41,272.66,0.0
2018-09-10 07:11:00,88.65811,46.27654,1022.007,263.81,86.7,1.0,-6.53,0.88,96.47,67.54,77.82,234.82,272.44,67.28,79.47,234.36,272.71,0.0
2018-09-10 07:11:00,88.65811,46.27656,1022.017,263.81,86.8,0.9,-6.34,0.96,97.32,67.47,78.02,234.82,272.0,67.7,79.55,234.19,272.65,0.0
2018-09-10 07:11:00,88.65811,46.27658,1021.995,263.81,86.8,1.1,-6.13,1.13,98.12,67.47,77.95,235.13,272.73,68.14,79.62,234.11,272.54,0.0
2018-09-10 07:11:00,88.65811,46.27659,1021.979,263.81,86.8,1.2,-5.89,1.22,98.92,67.6,78.23,234.68,272.54,68.58,79.67,234.05,272.45,0.0
2018-09-10 07:11:00,88.65811,46.27661,1021.962,263.81,86.8,1.3,-5.72,1.38,99.72,67.74,78.23,234.64,272.61,68.99,79.71,234.06,272.44,0.0
2018-09-10 07:11:00,88.65811,46.27662,1021.935,263.81,86.8,1.5,-5.66,1.62,100.53,67.8,78.09,234.34,273.11,69.38,79.75,234.07,272.46,0.0
2018-09-10 07:11:00,88.65811,46.27664,1021.947,263.8,86.8,1.5,-5.51,1.59,101.34,68.26,78.16,233.09,272.51,69.73,79.78,233.97,272.37,0.0
2018-09-10 07:11:00,88.65811,46.27666,1021.959,263.81,86.8,1.4,-5.44,1.87,102.17,67.74,78.37,234.22,272.97,70.04,79.8,233.87,272.34,0.0
2018-09-10 07:11:00,88.65811,46.27668,1021.944,263.8,86.8,1.5,-5.18,1.81,103.01,67.87,78.23,234.32,272.84,70.3,79.81,233.77,272.26,0.0
2018-09-10 07:11:00,88.65811,46.27669,1021.927,263.8,86.8,1.6,-4.85,1.86,103.82,68.0,78.37,234.42,272.9,70.52,79.81,233.62,272.2,0.0
2018-09-10 07:11:00,88.65811,46.27671,1021.931,263.8,86.8,1.6,-4.56,1.96,104.58,67.93,78.37,234.11,273.04,70.7,79.79,233.48,272.15,0.0
2018-09-10 07:11:00,88.65811,46.27672,1021.958,263.8,86.8,1.4,-4.44,1.74,105.38,68.26,78.23,234.2,272.53,70.84,79.74,233.45,272.08,0.0
2018-09-10 07:11:00,88.65811,46.27672,1021.917,263.79,86.8,1.7,-4.57,2.11,106.1,67.67,78.44,233.98,272.71,70.97,79.65,233.54,272.1,0.0
2018-09-10 07:11:00,88.65811,46.27672,1021.914,263.8,86.8,1.7,-4.65,1.89,106.88,68.52,78.44,234.25,272.44,71.08,79.53,233.5,272.04,0.0
2018-09-10 07:11:00,88.65811,46.27672,1021.909,263.8,86.8,1.7,-4.69,1.94,107.66,68.32,78.44,233.39,272.56,71.18,79.38,233.44,272.04,0.0
2018-09-10 07:11:00,88.65811,46.27672,1021.896,263.79,86.8,1.8,-4.59,2.09,108.44,68.26,78.51,233.49,272.68,71.29,79.2,233.41,272.06,0.0
2018-09-10 07:11:00,88.65811,46.27671,1021.882,263.8,86.8,2.0,-4.32,2.08,109.2,68.72,78.64,234.37,272.52,71.42,79.01,233.39,272.06,0.0
2018-09-10 07:11:00,88.65811,46.27671,1021.87,263.8,86.8,2.0,-4.16,2.16,109.95,68.65,78.64,234.06,272.79,71.56,78.84,233.38,272.1,0.0
2018-09-10 07:11:00,88.65811,46.27671,1021.881,263.8,86.8,2.0,-3.82,2.39,110.64,68.98,78.58,233.92,272.4,71.72,78.68,233.33,272.12,0.0
2018-09-10 07:11:00,88.65811,46.2767,1021.89,263.8,86.8,1.9,-3.79,2.29,111.39,68.72,78.58,233.79,272.63,71.9,78.57,233.21,272.08,0.0
2018-09-10 07:11:00,88.6581,46.2767,1021.884,263.8,86.8,1.9,-3.92,2.23,112.17,68.59,78.64,233.94,272.64,72.09,78.51,233.22,272.07,0.0
2018-09-10 07:11:00,88.6581,46.2767,1021.865,263.81,86.8,2.1,-4.01,2.32,112.93,68.72,78.44,234.13,272.77,72.3,78.5,233.29,272.09,0.0
2018-09-10 07:11:00,88.6581,46.2767,1021.845,263.8,86.8,2.2,-3.89,2.23,113.61,68.85,78.3,234.02,272.52,72.5,78.55,233.21,272.07,0.0
2018-09-10 07:11:00,88.6581,46.27669,1021.826,263.79,86.8,2.4,-3.66,2.75,114.23,68.91,78.37,233.38,272.6,72.69,78.64,233.2,272.06,0.0
2018-09-10 07:11:00,88.6581,46.27668,1021.82,263.79,86.8,2.4,-3.16,2.54,114.83,69.04,78.44,233.02,271.84,72.86,78.75,233.24,272.15,0.0
2018-09-10 07:11:00,88.6581,46.27668,1021.826,263.79,86.8,2.4,-3.01,2.66,115.38,69.57,78.58,234.1,272.61,73.0,78.87,233.3,272.21,0.0
2018-09-10 07:11:00,88.6581,46.27667,1021.831,263.78,86.8,2.3,-2.9,2.89,115.82,69.24,78.51,234.79,273.25,73.11,78.99,233.38,272.27,0.0
2018-09-10 07:11:00,88.6581,46.27666,1021.81,263.77,86.9,2.5,-2.36,2.7,116.11,69.44,78.44,233.7,272.58,73.18,79.07,233.48,272.39,0.0
2018-09-10 07:11:00,88.6581,46.27665,1021.781,263.76,86.8,2.7,-2.11,3.13,116.29,69.76,78.64,234.64,272.84,73.22,79.11,233.64,272.53,0.0
2018-09-10 07:11:00,88.6581,46.27665,1021.776,263.76,86.9,2.7,-1.78,2.84,116.41,69.9,78.72,234.96,273.58,73.24,79.11,233.81,272.71,0.0
2018-09-10 07:11:00,88.6581,46.27664,1021.784,263.76,86.9,2.7,-2.0,2.77,116.58,69.63,78.64,235.1,273.07,73.25,79.07,234.01,272.9,0.0
2018-09-10 07:11:00,88.6581,46.27663,1021.79,263.75,86.8,2.6,-2.22,2.73,116.73,69.7,78.78,234.88,273.05,73.26,79.0,234.13,273.07,0.0
2018-09-10 07:11:00,88.6581,46.27662,1021.783,263.76,86.9,2.7,-2.16,2.65,116.82,69.96,78.64,235.15,273.4,73.3,78.92,234.2,273.25,0.0
2018-09-10 07:11:00,88.6581,46.27662,1021.751,263.75,86.9,2.9,-2.3,2.86,116.85,70.03,78.64,235.18,273.44,73.36,78.83,234.34,273.43,0.0
2018-09-10 07:11:00,88.6581,46.27661,1021.751,263.74,86.9,2.9,-2.27,2.68,116.86,69.96,78.44,234.94,273.38,73.46,78.75,234.4,273.6,0.0
2018-09-10 07:11:00,88.6581,46.2766,1021.737,263.74,86.9,3.0,-1.79,2.78,116.74,69.96,78.58,234.4,272.83,73.59,78.7,234.41,273.67,0.0
2018-09-10 07:11:00,88.6581,46.2766,1021.732,263.74,86.9,3.1,-1.48,2.84,116.52,70.22,78.58,234.23,272.71,73.76,78.68,234.39,273.74,0.0
2018-09-10 07:11:00,88.6581,46.27659,1021.742,263.75,86.9,3.0,-1.5,2.78,116.2,70.22,78.58,234.52,273.51,73.96,78.69,234.37,273.76,0.0
2018-09-10 07:11:00,88.6581,46.27658,1021.735,263.75,86.9,3.1,-1.6,2.76,115.82,70.42,78.58,234.78,273.18,74.16,78.73,234.32,273.69,0.0
2018-09-10 07:11:00,88.6581,46.27657,1021.714,263.75,86.9,3.2,-1.41,2.99,115.35,70.61,78.72,234.76,273.63,74.37,78.8,234.23,273.69,0.0
2018-09-10 07:11:00,88.65809,46.27656,1021.708,263.75,86.9,3.3,-1.5,2.68,114.88,70.68,78.72,234.99,273.36,74.56,78.87,234.17,273.62,0.0
2018-09-10 07:11:00,88.65809,46.27656,1021.705,263.75,86.9,3.3,-1.82,2.64,114.39,70.88,78.64,234.94,273.54,74.73,78.94,234.18,273.65,0.0
2018-09-10 07:11:00,88.65809,46.27655,1021.702,263.74,86.9,3.3,-1.89,2.64,113.86,70.88,78.64,234.99,273.62,74.85,79.0,234.19,273.68,0.0
2018-09-10 07:11:00,88.65809,46.27654,1021.698,263.75,86.9,3.3,-1.46,2.52,113.27,70.88,78.58,235.03,273.38,74.94,79.04,234.19,273.67,0.0
2018-09-10 07:11:00,88.65809,46.27654,1021.68,263.74,86.9,3.5,-0.95,2.81,112.66,70.88,78.72,234.71,274.0,74.98,79.06,234.19,273.74,0.0
2018-09-10 07:11:00,88.65809,46.27653,1021.655,263.74,86.9,3.7,-0.74,2.7,111.98,71.14,78.72,234.71,273.76,74.98,79.04,234.16,273.75,0.0
2018-09-10 07:11:00,88.65809,46.27652,1021.658,263.74,86.9,3.6,-0.45,2.67,111.28,71.2,78.78,234.71,273.94,74.94,79.01,234.19,273.8,0.0
2018-09-10 07:11:00,88.65809,46.27651,1021.664,263.74,86.9,3.6,-0.42,2.65,110.59,71.27,78.64,234.43,273.95,74.87,78.95,234.16,273.83,0.0
2018-09-10 07:11:00,88.65809,46.27651,1021.656,263.73,86.9,3.7,-0.81,2.64,109.9,71.27,78.58,234.25,274.04,74.79,78.88,234.09,273.88,0.0
2018-09-10 07:11:00,88.65809,46.2765,1021.677,263.73,86.9,3.5,-1.46,2.69,109.25,71.6,78.78,234.24,273.73,74.7,78.81,234.03,273.98,0.0
2018-09-10 07:11:00,88.65809,46.2765,1021.656,263.73,86.9,3.7,-1.26,2.36,108.59,71.99,78.58,234.42,273.61,74.61,78.74,233.96,273.94,0.0
2018-09-10 07:11:00,88.65809,46.2765,1021.649,263.73,87.0,3.7,-1.28,2.55,107.97,71.6,78.85,234.84,273.53,74.54,78.68,233.9,273.96,0.0
2018-09-10 07:11:00,88.65809,46.27649,1021.651,263.72,87.0,3.7,-0.85,2.57,107.2,71.79,78.85,234.41,273.3,74.49,78.65,233.79,273.92,0.0
2018-09-10 07:11:00,88.65809,46.27649,1021.635,263.72,87.0,3.8,-0.04,2.63,106.55,71.4,78.64,234.02,273.23,74.47,78.63,233.71,273.85,0.0
2018-09-10 07:11:00,88.65809,46.27649,1021.608,263.71,87.0,4.0,0.57,2.83,105.91,71.92,78.64,234.27,273.6,74.48,78.64,233.66,273.75,0.0
2018-09-10 07:11:00,88.65809,46.27648,1021.625,263.72,87.0,3.9,0.29,2.86,105.34,71.86,78.58,234.2,273.22,74.51,78.67,233.6,273.61,0.0
2018-09-10 07:11:00,88.65809,46.27648,1021.62,263.71,87.0,3.9,0.0,2.75,104.79,71.99,78.78,234.54,273.59,74.56,78.72,233.6,273.53,0.0
2018-09-10 07:11:00,88.65809,46.27648,1021.61,263.71,87.0,4.0,0.22,2.82,104.33,71.92,78.78,233.94,273.48,74.63,78.77,233.55,273.44,0.0
2018-09-10 07:11:00,88.65809,46.27648,1021.594,263.71,87.0,4.1,0.26,2.78,103.99,72.32,78.64,234.02,273.29,74.7,78.82,233.57,273.41,0.0
2018-09-10 07:11:00,88.65809,46.27647,1021.574,263.71,87.0,4.3,0.44,2.83,103.69,72.06,78.78,233.88,273.22,74.77,78.87,233.6,273.38,0.0
2018-09-10 07:11:00,88.65809,46.27647,1021.554,263.7,87.0,4.4,1.09,3.06,103.36,72.25,78.44,233.98,273.12,74.84,78.9,233.6,273.35,0.0
2018-09-10 07:11:00,88.65809,46.27647,1021.551,263.7,87.0,4.4,1.72,2.92,103.08,72.19,78.78,234.47,273.38,74.9,78.91,233.6,273.41,0.0
2018-09-10 07:11:00,88.65809,46.27646,1021.532,263.69,87.0,4.6,1.4,3.26,102.96,72.32,78.72,234.05,273.12,74.95,78.91,233.6,273.38,0.0
2018-09-10 07:11:00,88.65809,46.27646,1021.523,263.69,87.0,4.7,1.82,3.19,102.76,72.51,78.78,234.35,273.33,75.01,78.87,233.61,273.41,0.0
2018-09-10 07:11:00,88.65809,46.27646,1021.519,263.69,87.0,4.7,2.24,3.22,102.61,72.45,78.72,234.14,273.44,75.07,78.82,233.59,273.43,0.0
2018-09-10 07:11:00,88.65809,46.27645,1021.516,263.69,87.0,4.7,2.32,3.37,102.57,72.51,78.72,234.3,273.17,75.15,78.75,233.56,273.44,0.0
2018-09-10 07:11:00,88.65809,46.27645,1021.527,263.68,87.0,4.6,2.18,3.24,102.63,72.78,78.85,234.4,273.69,75.26,78.67,233.56,273.47,0.0
2018-09-10 07:11:00,88.65809,46.27644,1021.51,263.68,87.0,4.7,2.35,3.13,102.77,72.64,78.78,234.51,273.2,75.4,78.58,233.51,273.43,0.0
2018-09-10 07:11:00,88.65809,46.27644,1021.464,263.68,87.0,5.1,2.81,3.28,102.97,72.84,78.85,234.42,273.46,75.58,78.49,233.52,273.44,0.0
2018-09-10 07:11:00,88.65809,46.27644,1021.452,263.68,87.0,5.2,3.26,3.11,103.18,72.91,78.64,234.36,273.21,75.8,78.41,233.52,273.4,0.0
2018-09-10 07:11:00,88.65809,46.27643,1021.465,263.68,87.0,5.1,3.57,2.96,103.48,72.64,78.64,234.13,272.98,76.04,78.33,233.56,273.37,0.0
2018-09-10 07:11:00,88.65809,46.27643,1021.428,263.68,87.1,5.4,3.7,3.23,103.91,72.84,78.64,234.18,273.39,76.3,78.28,233.62,273.39,0.0
2018-09-10 07:11:00,88.65809,46.27642,1021.434,263.68,87.1,5.3,3.87,2.73,104.25,73.04,78.64,233.97,273.06,76.56,78.24,233.64,273.34,0.0
2018-09-10 07:11:00,88.65809,46.27642,1021.439,263.67,87.1,5.3,3.72,2.83,104.71,73.04,78.58,234.24,273.53,76.8,78.23,233.68,273.38,0.0
2018-09-10 07:11:00,88.65809,46.27642,1021.443,263.67,87.1,5.3,3.26,2.78,105.23,73.3,78.64,234.26,273.45,77.01,78.23,233.63,273.27,0.0
2018-09-10 07:11:00,88.65809,46.27641,1021.442,263.67,87.1,5.3,2.91,2.77,105.81,73.5,78.78,234.41,273.65,77.18,78.26,233.58,273.19,0.0
2018-09-10 07:11:00,88.65809,46.27641,1021.435,263.67,87.1,5.3,2.81,2.86,106.46,73.56,78.64,234.37,273.92,77.31,78.3,233.6,273.28,0.0
2018-09-10 07:11:00,88.65808,46.2764,1021.424,263.67,87.1,5.4,2.71,2.67,107.12,73.43,78.64,234.22,273.34,77.38,78.36,233.55,273.3,0.0
2018-09-10 07:11:00,88.65808,46.2764,1021.431,263.67,87.1,5.3,2.24,2.65,107.96,73.89,78.58,234.31,273.67,77.41,78.42,233.54,273.33,0.0
2018-09-10 07:11:00,88.65808,46.27639,1021.427,263.67,87.1,5.4,2.25,2.6,108.77,73.63,78.58,233.23,271.64,77.4,78.48,233.45,273.28,0.0
2018-09-10 07:11:00,88.65808,46.27639,1021.424,263.67,87.1,5.4,2.26,2.51,109.52,73.95,78.64,233.11,271.9,77.36,78.52,233.33,273.24,0.0
2018-09-10 07:11:00,88.65808,46.27638,1021.426,263.66,87.1,5.4,2.18,2.4,110.24,73.95,78.58,234.2,273.42,77.31,78.55,233.21,273.2,0.0
2018-09-10 07:11:00,88.65808,46.27638,1021.406,263.67,87.1,5.5,2.46,2.37,110.92,73.82,78.64,233.91,273.2,77.24,78.54,233.11,273.11,0.0
2018-09-10 07:11:00,88.65808,46.27638,1021.394,263.68,87.1,5.6,2.49,2.41,111.53,74.15,78.64,234.42,273.33,77.17,78.49,233.08,273.11,0.0
2018-09-10 07:11:00,88.65808,46.27637,1021.398,263.67,87.2,5.6,2.82,2.42,112.1,74.22,78.64,233.76,273.06,77.11,78.41,233.02,273.07,0.0
2018-09-10 07:11:00,88.65808,46.27637,1021.393,263.67,87.2,5.6,2.75,2.38,112.76,74.35,78.58,233.72,273.41,77.06,78.29,233.07,273.21,0.0
2018-09-10 07:11:00,88.65808,46.27637,1021.38,263.67,87.2,5.7,2.67,2.33,113.51,74.28,78.64,233.52,273.73,77.02,78.15,233.14,273.35,0.0
2018-09-10 07:11:00,88.65808,46.27638,1021.371,263.67,87.2,5.8,2.98,2.31,114.32,74.22,78.44,233.68,273.75,77.01,77.99,233.15,273.36,0.0
2018-09-10 07:11:00,88.65808,46.27638,1021.349,263.68,87.2,6.0,3.08,2.21,115.19,74.41,78.64,234.14,273.84,77.04,77.83,233.18,273.48,0.0
2018-09-10 07:11:00,88.65808,46.27638,1021.335,263.68,87.2,6.1,3.65,2.14,116.0,74.48,78.64,233.55,273.84,77.1,77.69,233.18,273.61,0.0
2018-09-10 07:11:00,88.65808,46.27639,1021.338,263.68,87.2,6.0,3.85,2.23,116.88,74.74,78.44,233.48,273.77,77.21,77.57,233.19,273.72,0.0
2018-09-10 07:11:00,88.65808,46.27639,1021.349,263.68,87.2,6.0,4.13,2.22,117.71,74.41,78.58,233.61,273.97,77.38,77.5,233.17,273.69,0.0
2018-09-10 07:11:00,88.65808,46.2764,1021.35,263.68,87.2,6.0,4.48,2.16,118.54,74.67,78.58,233.62,273.36,77.6,77.47,233.08,273.58,0.0
2018-09-10 07:11:00,88.65808,46.2764,1021.314,263.67,87.2,6.2,4.22,2.36,119.42,74.87,78.58,233.79,273.86,77.86,77.47,232.95,273.45,0.0
2018-09-10 07:11:00,88.65808,46.2764,1021.34,263.67,87.2,6.0,4.03,2.08,120.19,75.33,78.23,233.83,274.15,78.17,77.5,232.85,273.14,0.0
2018-09-10 07:11:00,88.65808,46.2764,1021.325,263.66,87.2,6.1,3.6,2.07,120.96,74.67,78.44,233.77,273.78,78.49,77.53,232.74,272.93,0.0
2018-09-10 07:11:00,88.65808,46.27641,1021.297,263.66,87.2,6.4,3.48,2.01,121.69,74.67,78.09,233.47,272.94,78.82,77.55,232.59,272.67,0.0
2018-09-10 07:11:00,88.65808,46.27641,1021.28,263.66,87.2,6.5,3.6,1.99,122.41,74.87,78.23,232.86,272.36,79.12,77.54,232.45,272.43,0.0
2018-09-10 07:11:00,88.65808,46.27642,1021.277,263.65,87.2,6.5,3.72,2.18,123.12,75.13,78.3,233.07,273.04,79.38,77.48,232.37,272.28,0.0
2018-09-10 07:11:00,88.65808,46.27642,1021.278,263.65,87.2,6.5,4.35,1.81,123.66,75.33,78.44,234.26,272.06,79.57,77.38,232.33,272.16,0.0
2018-09-10 07:11:00,88.65807,46.27642,1021.278,263.65,87.2,6.5,4.16,1.87,124.26,75.85,78.3,233.72,273.21,79.71,77.24,232.33,272.08,0.0
2018-09-10 07:11:00,88.65807,46.27643,1021.245,263.65,87.2,6.7,4.25,1.67,124.67,75.59,78.37,233.61,273.28,79.77,77.06,232.32,272.07,0.0
2018-09-10 07:11:00,88.65807,46.27644,1021.224,263.65,87.3,6.9,4.29,1.49,124.96,75.65,78.37,233.62,273.38,79.78,76.87,232.38,272.17,0.0
2018-09-10 07:11:00,88.65807,46.27644,1021.244,263.66,87.3,6.7,4.14,1.44,125.18,75.98,78.23,233.85,273.49,79.75,76.7,232.53,272.31,0.0
2018-09-10 07:11:00,88.65807,46.27644,1021.193,263.66,87.3,7.1,4.2,1.15,125.33,76.05,78.37,233.92,273.48,79.71,76.57,232.62,272.33,0.0
2018-09-10 07:11:00,88.65807,46.27645,1021.19,263.67,87.3,7.2,4.2,1.12,125.4,75.85,78.02,233.65,273.25,79.68,76.51,232.65,272.61,0.0
2018-09-10 07:11:00,88.65807,46.27646,1021.164,263.66,87.3,7.4,4.12,0.99,125.48,75.78,78.09,232.8,272.39,79.68,76.51,232.69,272.67,0.0
2018-09-10 07:11:00,88.65807,46.27646,1021.143,263.66,87.3,7.5,3.99,0.83,125.54,76.44,77.89,232.95,272.07,79.73,76.59,232.76,272.75,0.0
2018-09-10 07:11:00,88.65807,46.27646,1021.148,263.66,87.3,7.5,3.9,0.73,125.55,76.31,77.82,233.13,271.33,79.83,76.74,232.79,272.8,0.0
2018-09-10 07:11:00,88.65807,46.27646,1021.151,263.66,87.3,7.5,3.94,0.74,125.54,75.85,77.61,232.63,270.64,79.97,76.93,232.75,272.74,0.0
2018-09-10 07:11:00,88.65807,46.27646,1021.154,263.67,87.3,7.4,4.16,0.63,125.41,76.57,77.95,232.81,272.54,80.13,77.15,232.71,272.67,0.0
2018-09-10 07:11:00,88.65807,46.27645,1021.12,263.68,87.3,7.7,4.01,0.73,125.29,76.44,77.95,233.04,271.76,80.29,77.37,232.65,272.53,0.0
2018-09-10 07:11:00,88.65807,46.27644,1021.093,263.68,87.3,7.9,3.99,0.81,125.07,76.7,77.82,233.42,272.23,80.43,77.56,232.65,272.47,0.0
2018-09-10 07:11:00,88.65807,46.27644,1021.087,263.68,87.4,7.9,3.96,0.87,124.74,76.5,78.09,233.48,273.25,80.52,77.71,232.65,272.46,0.0
2018-09-10 07:11:00,88.65807,46.27643,1021.096,263.68,87.4,7.9,3.79,0.93,124.31,76.77,77.95,233.34,272.98,80.55,77.79,232.64,272.51,0.0
2018-09-10 07:11:00,88.65806,46.27642,1021.071,263.69,87.4,8.1,3.65,0.76,123.73,76.9,78.02,233.55,273.81,80.5,77.82,232.74,272.77,0.0
2018-09-10 07:11:00,88.65806,46.27642,1021.073,263.69,87.4,8.0,3.59,1.08,123.11,77.16,77.95,233.72,273.14,80.38,77.79,232.72,272.82,0.0
2018-09-10 07:11:00,88.65806,46.27641,1021.072,263.69,87.4,8.0,3.83,1.13,122.37,77.42,77.95,233.79,273.12,80.22,77.72,232.77,273.06,0.0
2018-09-10 07:11:00,88.65806,46.2764,1021.073,263.69,87.4,8.0,3.93,1.2,121.62,77.42,77.95,233.48,273.41,80.02,77.63,232.83,273.3,0.0
2018-09-10 07:11:00,88.65806,46.2764,1021.072,263.69,87.4,8.0,3.83,1.34,120.85,77.09,77.82,233.43,272.81,79.82,77.53,232.9,273.49,0.0
2018-09-10 07:11:00,88.65806,46.27639,1021.029,263.69,87.4,8.4,3.93,1.29,120.0,77.36,77.89,233.47,273.17,79.65,77.43,232.99,273.71,0.0
2018-09-10 07:11:00,88.65806,46.27639,1021.033,263.7,87.4,8.3,3.66,1.42,119.11,77.03,77.61,232.41,272.36,79.53,77.35,233.0,273.79,0.0
2018-09-10 07:11:00,88.65806,46.27639,1021.02,263.69,87.4,8.4,3.7,1.51,118.15,77.09,78.02,232.76,273.01,79.48,77.29,233.02,273.92,0.0
2018-09-10 07:11:00,88.65806,46.27639,1021.006,263.69,87.4,8.5,3.76,1.57,117.13,77.42,77.75,233.19,273.54,79.5,77.25,232.99,273.92,0.0
2018-09-10 07:11:00,88.65806,46.27639,1021.006,263.69,87.4,8.5,3.69,1.58,116.08,77.55,77.75,233.1,273.4,79.59,77.23,232.93,273.87,0.0
2018-09-10 07:11:00,88.65806,46.27639,1021.029,263.7,87.4,8.4,3.48,1.59,114.98,77.49,77.95,233.01,273.81,79.73,77.23,232.84,273.83,0.0
2018-09-10 07:11:00,88.65806,46.27639,1021.03,263.69,87.4,8.4,3.47,1.79,113.81,77.68,77.82,232.9,273.26,79.89,77.23,232.67,273.65,0.0
2018-09-10 07:11:00,88.65806,46.2764,1021.028,263.7,87.4,8.4,3.61,1.74,112.59,77.88,77.75,233.36,273.82,80.06,77.25,232.61,273.46,0.0
2018-09-10 07:11:00,88.65806,46.2764,1021.019,263.7,87.4,8.4,3.78,1.86,111.35,77.55,77.82,233.34,273.17,80.2,77.26,232.5,273.22,0.0
2018-09-10 07:11:00,88.65806,46.2764,1021.008,263.7,87.4,8.5,3.76,2.02,110.11,77.55,77.82,233.08,273.19,80.29,77.28,232.35,273.02,0.0
2018-09-10 07:11:00,88.65806,46.2764,1021.003,263.7,87.4,8.6,3.46,2.12,108.84,78.14,77.75,232.88,273.55,80.32,77.3,232.21,272.87,0.0
2018-09-10 07:11:00,88.65806,46.2764,1020.993,263.71,87.4,8.6,3.08,2.33,107.59,77.55,77.75,232.6,272.6,80.28,77.32,232.07,272.7,0.0
2018-09-10 07:11:00,88.65806,46.2764,1020.986,263.71,87.5,8.7,2.82,2.34,106.34,77.94,77.61,232.79,271.67,80.17,77.35,232.01,272.63,0.0
2018-09-10 07:11:00,88.65806,46.2764,1020.979,263.71,87.5,8.7,2.91,2.49,105.09,78.53,77.82,232.53,271.95,80.0,77.36,231.95,272.51,0.0
2018-09-10 07:11:00,88.65806,46.2764,1020.974,263.71,87.5,8.8,2.99,2.55,103.87,77.94,77.4,232.46,272.93,79.78,77.38,231.93,272.46,0.0
2018-09-10 07:11:00,88.65806,46.2764,1020.972,263.71,87.5,8.8,2.88,2.56,102.65,78.01,77.75,232.72,273.02,79.54,77.38,231.95,272.43,0.0
2018-09-10 07:11:00,88.65805,46.27639,1020.973,263.71,87.5,8.8,2.65,2.76,101.44,78.21,77.61,232.48,273.21,79.3,77.38,231.99,272.35,0.0
2018-09-10 07:11:00,88.65805,46.27638,1020.915,263.71,87.5,9.2,2.73,2.72,100.21,78.21,77.82,232.97,273.46,79.07,77.36,232.03,272.34,0.0
2018-09-10 07:11:00,88.65805,46.27638,1020.908,263.72,87.5,9.3,2.47,2.84,99.06,78.01,77.75,233.08,273.19,78.88,77.34,232.12,272.46,0.0
2018-09-10 07:11:00,88.65805,46.27637,1020.917,263.72,87.5,9.2,2.44,2.88,97.89,78.34,77.68,232.92,273.06,78.73,77.33,232.16,272.58,0.0
2018-09-10 07:11:00,88.65805,46.27637,1020.921,263.71,87.5,9.2,2.35,2.9,96.73,77.94,77.82,232.93,273.01,78.64,77.32,232.13,272.62,0.0
2018-09-10 07:11:00,88.65805,46.27636,1020.91,263.69,87.5,9.3,1.97,2.96,95.57,78.6,77.61,233.05,272.65,78.62,77.33,232.02,272.58,0.0
2018-09-10 07:11:00,88.65805,46.27636,1020.879,263.68,87.5,9.5,1.91,2.95,94.42,77.94,77.54,232.13,271.77,78.64,77.36,231.84,272.46,0.0
2018-09-10 07:11:00,88.65805,46.27635,1020.881,263.68,87.5,9.5,1.99,3.01,93.32,78.6,77.75,232.85,272.38,78.7,77.41,231.73,272.47,0.0
2018-09-10 07:11:00,88.65805,46.27635,1020.886,263.67,87.5,9.4,1.76,3.11,92.29,78.08,77.61,232.32,272.23,78.8,77.49,231.53,272.46,0.0
2018-09-10 07:11:00,88.65805,46.27634,1020.886,263.67,87.5,9.4,1.47,3.25,91.34,78.14,77.54,231.53,272.09,78.9,77.58,231.26,272.37,0.0
2018-09-10 07:11:00,88.65805,46.27632,1020.881,263.67,87.5,9.5,1.26,3.39,90.43,77.81,77.4,230.81,271.36,79.0,77.67,230.99,272.24,0.0
2018-09-10 07:12:00,88.65805,46.27631,1020.872,263.67,87.5,9.6,0.91,3.43,89.59,78.01,77.54,230.55,270.72,79.06,77.74,230.73,272.14,0.0
2018-09-10 07:12:00,88.65805,46.27629,1020.856,263.66,87.5,9.7,1.28,3.41,88.79,78.6,77.75,232.37,273.29,79.08,77.79,230.55,272.08,0.0
2018-09-10 07:12:00,88.65805,46.27628,1020.839,263.66,87.5,9.8,1.48,3.61,88.05,78.8,77.61,231.46,273.29,79.05,77.78,230.35,272.02,0.0
2018-09-10 07:12:00,88.65805,46.27626,1020.842,263.66,87.5,9.8,1.68,3.68,87.36,78.14,77.82,231.16,273.18,78.95,77.73,230.22,271.99,0.0
2018-09-10 07:12:00,88.65805,46.27624,1020.856,263.65,87.5,9.7,1.79,3.7,86.75,78.47,77.68,231.21,273.34,78.8,77.63,230.21,272.08,0.0
2018-09-10 07:12:00,88.65805,46.27622,1020.844,263.65,87.5,9.8,1.71,3.91,86.23,78.4,77.61,231.22,273.4,78.61,77.48,230.3,272.35,0.0
2018-09-10 07:12:00,88.65805,46.27621,1020.826,263.64,87.5,9.9,1.88,4.04,85.7,78.34,77.68,231.58,273.29,78.38,77.32,230.44,272.66,0.0
2018-09-10 07:12:00,88.65805,46.27619,1020.805,263.64,87.5,10.1,1.63,3.98,85.28,78.53,77.82,231.51,273.31,78.16,77.17,230.34,272.67,0.0
2018-09-10 07:12:00,88.65805,46.27618,1020.802,263.64,87.5,10.1,1.44,4.08,84.93,78.14,77.68,231.27,273.43,77.94,77.04,230.38,272.81,0.0
2018-09-10 07:12:00,88.65805,46.27616,1020.801,263.64,87.5,10.1,1.41,4.25,84.63,78.53,77.61,231.18,273.71,77.77,76.97,230.42,273.01,0.0
2018-09-10 07:12:00,88.65805,46.27614,1020.778,263.64,87.5,10.3,1.52,4.37,84.33,78.27,77.61,231.28,274.47,77.65,76.97,230.39,273.18,0.0
2018-09-10 07:12:00,88.65805,46.27613,1020.768,263.62,87.5,10.3,1.69,4.28,84.3,78.4,77.4,230.92,273.09,77.59,77.04,230.39,273.37,0.0
2018-09-10 07:12:00,88.65805,46.27611,1020.756,263.62,87.5,10.4,1.82,4.13,84.23,77.94,77.33,229.32,271.54,77.6,77.2,230.33,273.51,0.0
2018-09-10 07:12:00,88.65804,46.27609,1020.766,263.62,87.5,10.3,2.05,4.04,84.22,78.21,77.4,229.94,272.24,77.67,77.42,230.26,273.56,0.0
2018-09-10 07:12:00,88.65804,46.27607,1020.783,263.62,87.5,10.2,2.1,3.99,84.23,78.53,77.4,229.87,272.45,77.77,77.67,230.22,273.57,0.0
2018-09-10 07:12:00,88.65804,46.27604,1020.782,263.62,87.5,10.2,1.82,3.97,84.28,77.94,77.61,229.51,272.24,77.9,77.95,230.17,273.49,0.0
2018-09-10 07:12:00,88.65804,46.276,1020.748,263.61,87.5,10.5,1.32,3.97,84.38,77.94,77.75,230.81,273.37,78.02,78.2,230.04,273.31,0.0
2018-09-10 07:12:00,88.65804,46.27597,1020.762,263.61,87.5,10.4,0.78,3.93,84.58,78.53,77.54,230.61,273.52,78.11,78.41,229.95,273.24,0.0
2018-09-10 07:12:00,88.65804,46.27593,1020.778,263.61,87.5,10.3,0.66,3.84,84.81,78.4,77.61,230.95,273.55,78.15,78.56,230.13,273.35,0.0
2018-09-10 07:12:00,88.65804,46.2759,1020.779,263.61,87.5,10.3,0.61,3.78,85.12,78.21,77.75,231.62,273.64,78.13,78.64,230.22,273.36,0.0
2018-09-10 07:12:00,88.65804,46.27587,1020.768,263.6,87.5,10.3,0.64,3.77,85.49,78.34,77.61,231.68,273.65,78.05,78.64,230.31,273.37,0.0
2018-09-10 07:12:00,88.65804,46.27584,1020.765,263.59,87.5,10.4,0.78,3.81,85.86,78.08,77.82,230.54,273.54,77.92,78.58,230.47,273.45,0.0
2018-09-10 07:12:00,88.65804,46.27582,1020.74,263.59,87.5,10.5,0.4,3.73,86.3,78.08,77.68,230.62,273.49,77.75,78.46,230.57,273.47,0.0
2018-09-10 07:12:00,88.65804,46.27579,1020.742,263.58,87.5,10.5,0.09,3.51,86.82,78.4,77.75,231.98,273.82,77.57,78.31,230.67,273.54,0.0
2018-09-10 07:12:00,88.65804,46.27577,1020.734,263.58,87.6,10.6,-0.12,3.38,87.38,78.14,77.75,231.19,273.28,77.4,78.15,230.74,273.61,0.0
2018-09-10 07:12:00,88.65803,46.27574,1020.718,263.58,87.6,10.7,-0.28,3.35,88.0,77.88,77.75,230.52,273.08,77.25,77.99,230.75,273.67,0.0
2018-09-10 07:12:00,88.65803,46.27572,1020.701,263.57,87.6,10.8,-0.36,3.33,88.65,78.53,77.75,230.32,273.26,77.15,77.85,230.73,273.71,0.0
2018-09-10 07:12:00,88.65803,46.27569,1020.685,263.57,87.6,11.0,-0.27,3.23,89.31,78.01,77.75,230.44,273.22,77.1,77.75,230.76,273.76,0.0
2018-09-10 07:12:00,88.65803,46.27566,1020.684,263.56,87.6,11.0,-0.35,3.29,89.95,78.34,77.82,230.28,273.38,77.11,77.67,230.73,273.72,0.0
2018-09-10 07:12:00,88.65803,46.27564,1020.664,263.56,87.6,11.1,-0.02,3.29,90.55,77.88,77.75,230.52,273.3,77.16,77.63,230.55,273.64,0.0
2018-09-10 07:12:00,88.65803,46.27561,1020.652,263.56,87.6,11.2,0.2,3.32,91.22,77.75,77.75,230.67,273.52,77.25,77.62,230.41,273.58,0.0
2018-09-10 07:12:00,88.65803,46.27558,1020.65,263.56,87.6,11.2,0.23,3.36,91.95,78.01,77.82,230.85,273.62,77.37,77.62,230.36,273.52,0.0
2018-09-10 07:12:00,88.65803,46.27556,1020.619,263.55,87.6,11.5,0.24,3.3,92.69,78.01,77.75,230.66,273.68,77.49,77.65,230.34,273.45,0.0
2018-09-10 07:12:00,88.65803,46.27555,1020.614,263.55,87.6,11.5,-0.05,3.24,93.46,77.88,77.61,230.58,273.44,77.6,77.68,230.28,273.41,0.0
