Date/Time,Latitude,Longitude,PPPP [hPa],TTT grad [K],RH [%],Height [m],Pitch [deg],Roll [deg],Yaw [deg],SWD [W/m**2] (raw),SWU [W/m**2] (raw),LWD [W/m**2] (raw),LWU [W/m**2] (raw),SWD [W/m**2] (corrected),SWU [W/m**2] (corrected),LWD [W/m**2] (corrected),LWU [W/m**2] (corrected),Flag
2018-09-10 19:40:00,88.65479,45.77156,921.029,266.51,85.8,834.3,-0.49,-0.34,73.89,60.28,56.39,243.12,280.92,60.74,56.66,244.07,281.14,1.0
2018-09-10 19:40:00,88.65479,45.77158,921.031,266.51,85.8,834.2,-0.49,-0.33,73.83,58.7,56.25,243.07,280.45,60.37,56.52,243.95,281.13,1.0
2018-09-10 19:40:00,88.65479,45.7716,921.056,266.51,85.8,834.0,-0.49,-0.31,73.77,59.56,56.46,243.74,281.49,59.92,56.34,243.78,281.14,1.0
2018-09-10 19:40:00,88.65479,45.77162,921.038,266.51,85.8,834.2,-0.49,-0.3,73.72,59.69,56.39,243.69,281.5,59.42,56.14,243.51,281.11,1.0
2018-09-10 19:40:00,88.65479,45.77164,921.079,266.51,85.8,833.8,-0.5,-0.29,73.68,60.54,56.39,243.75,281.36,58.92,55.95,243.48,281.15,1.0
2018-09-10 19:40:00,88.65478,45.77166,921.089,266.51,85.8,833.8,-0.49,-0.28,73.63,59.95,56.25,243.28,281.41,58.44,55.77,243.49,281.15,1.0
2018-09-10 19:40:00,88.65478,45.77168,921.076,266.51,85.8,833.9,-0.49,-0.28,73.59,59.36,56.25,243.77,281.12,58.02,55.63,243.6,281.25,1.0
2018-09-10 19:40:00,88.65478,45.7717,921.058,266.51,85.8,834.0,-0.49,-0.28,73.55,61.13,56.25,243.9,281.53,57.71,55.52,243.71,281.36,1.0
2018-09-10 19:40:00,88.65478,45.77172,921.063,266.51,85.8,834.0,-0.49,-0.28,73.5,59.16,56.32,243.69,281.16,57.51,55.47,243.71,281.3,1.0
2018-09-10 19:40:00,88.65478,45.77175,921.076,266.51,85.8,833.9,-0.48,-0.28,73.46,59.03,56.25,244.27,281.34,57.44,55.47,243.67,281.11,1.0
2018-09-10 19:40:00,88.65478,45.77177,921.076,266.5,85.8,833.9,-0.48,-0.27,73.41,58.77,56.25,244.6,281.35,57.51,55.51,243.7,280.91,1.0
2018-09-10 19:40:00,88.65478,45.77179,921.05,266.5,85.8,834.1,-0.47,-0.26,73.37,60.08,56.25,244.23,281.15,57.71,55.59,243.78,280.64,1.0
2018-09-10 19:40:00,88.65478,45.77181,921.029,266.51,85.8,834.3,-0.46,-0.26,73.33,59.69,56.05,244.14,280.9,58.03,55.69,243.83,280.37,1.0
2018-09-10 19:40:00,88.65478,45.77183,921.05,266.5,85.8,834.1,-0.44,-0.25,73.29,59.1,56.18,243.33,280.17,58.44,55.8,243.86,280.12,1.0
2018-09-10 19:40:00,88.65478,45.77185,921.025,266.5,85.8,834.3,-0.39,-0.16,73.25,59.42,55.98,242.76,278.89,58.93,55.91,243.88,279.87,1.0
2018-09-10 19:40:00,88.65478,45.77187,921.043,266.5,85.8,834.1,-0.35,-0.23,73.21,59.23,56.18,244.1,279.3,59.47,56.01,243.85,279.69,1.0
2018-09-10 19:40:00,88.65478,45.7719,921.058,266.5,85.8,834.0,-0.37,-0.21,73.17,59.23,56.18,244.34,279.1,60.03,56.09,243.81,279.65,1.0
2018-09-10 19:40:00,88.65478,45.77192,921.061,266.5,85.8,834.0,-0.34,-0.19,73.13,59.03,56.18,244.33,278.94,60.6,56.15,243.79,279.64,1.0
2018-09-10 19:40:00,88.65478,45.77194,921.052,266.51,85.8,834.1,-0.31,-0.19,73.08,59.75,56.05,244.06,279.58,61.14,56.18,243.8,279.67,1.0
2018-09-10 19:40:00,88.65478,45.77197,921.038,266.5,85.8,834.2,-0.36,-0.18,73.06,59.23,56.18,244.52,279.36,61.63,56.18,243.88,279.82,1.0
2018-09-10 19:40:00,88.65478,45.77199,921.041,266.51,85.8,834.2,-0.29,-0.18,73.03,58.7,56.32,244.06,280.04,62.04,56.17,243.97,280.1,1.0
2018-09-10 19:40:00,88.65478,45.77201,921.032,266.5,85.8,834.2,-0.36,-0.15,73.01,60.21,56.12,244.42,280.9,62.33,56.14,244.0,280.47,1.0
2018-09-10 19:40:00,88.65478,45.77204,921.04,266.5,85.8,834.2,-0.34,-0.14,72.98,59.82,56.32,244.33,280.86,62.48,56.09,243.98,280.87,1.0
2018-09-10 19:40:00,88.65478,45.77206,921.054,266.51,85.8,834.1,-0.32,-0.12,72.96,59.36,55.91,244.43,280.75,62.47,56.04,243.95,281.24,1.0
2018-09-10 19:40:00,88.65478,45.77208,921.036,266.5,85.9,834.2,-0.4,-0.1,72.94,59.95,56.05,244.13,281.32,62.28,55.99,243.93,281.54,1.0
2018-09-10 19:40:00,88.65478,45.7721,921.058,266.51,85.8,834.0,-0.31,-0.13,72.92,60.54,56.25,243.53,281.1,61.9,55.94,243.92,281.81,1.0
2018-09-10 19:40:00,88.65478,45.77212,921.054,266.51,85.9,834.1,-0.32,-0.11,72.93,60.01,56.18,243.93,282.13,61.35,55.88,243.89,281.99,1.0
2018-09-10 19:40:00,88.65478,45.77214,921.058,266.5,85.9,834.0,-0.26,-0.12,72.91,59.16,56.18,243.83,282.55,60.67,55.83,243.86,282.06,1.0
2018-09-10 19:40:00,88.65478,45.77216,921.052,266.5,85.9,834.1,-0.22,-0.13,72.9,60.08,56.12,243.78,282.6,59.9,55.77,243.84,282.06,1.0
2018-09-10 19:40:00,88.65478,45.77218,921.031,266.5,85.9,834.2,-0.25,-0.12,72.88,58.9,56.18,243.84,282.93,59.1,55.7,243.82,282.01,1.0
2018-09-10 19:40:00,88.65478,45.7722,921.081,266.5,85.9,833.8,-0.24,-0.1,72.86,61.13,56.05,244.09,282.64,58.35,55.63,243.82,281.95,1.0
2018-09-10 19:40:00,88.65478,45.77222,921.075,266.51,85.9,833.9,-0.25,-0.11,72.85,60.47,56.12,243.9,282.81,57.7,55.55,243.86,281.99,1.0
2018-09-10 19:40:00,88.65478,45.77224,921.05,266.51,85.9,834.1,-0.28,-0.11,72.83,60.54,56.05,244.25,282.77,57.21,55.47,243.8,281.83,1.0
2018-09-10 19:40:00,88.65478,45.77226,921.034,266.51,85.9,834.2,-0.28,-0.06,72.83,60.14,56.12,244.13,281.96,56.93,55.39,243.79,281.72,1.0
2018-09-10 19:40:00,88.65478,45.77228,921.038,266.51,85.9,834.2,-0.28,-0.01,72.85,59.36,56.12,244.15,281.24,56.85,55.31,243.82,281.68,1.0
2018-09-10 19:40:00,88.65478,45.7723,921.046,266.5,85.9,834.1,-0.33,-0.06,72.89,59.03,55.98,244.51,281.45,56.98,55.24,243.85,281.58,1.0
2018-09-10 19:40:00,88.65478,45.77232,921.051,266.51,85.9,834.1,-0.33,-0.01,72.91,59.42,55.98,243.96,282.08,57.27,55.19,244.01,281.57,1.0
2018-09-10 19:40:00,88.65478,45.77234,921.025,266.5,85.9,834.3,-0.21,-0.02,72.92,59.03,56.05,243.72,280.56,57.68,55.16,244.08,281.53,1.0
2018-09-10 19:40:00,88.65478,45.77235,921.018,266.5,85.9,834.3,-0.15,-0.04,72.94,59.56,56.18,243.61,281.14,58.14,55.15,244.11,281.48,1.0
2018-09-10 19:40:00,88.65478,45.77236,921.039,266.5,85.9,834.2,-0.11,-0.05,72.96,59.36,55.77,243.87,281.94,58.58,55.18,244.13,281.45,1.0
2018-09-10 19:40:00,88.65478,45.77237,921.06,266.5,85.9,834.0,-0.01,-0.04,72.98,58.31,55.84,244.01,280.9,58.96,55.25,244.12,281.44,1.0
2018-09-10 19:40:00,88.65478,45.77238,921.059,266.5,85.9,834.0,-0.01,-0.02,73.01,59.62,55.84,245.75,282.34,59.23,55.34,244.07,281.43,1.0
2018-09-10 19:40:00,88.65478,45.77239,921.046,266.5,85.9,834.1,0.04,0.07,73.04,60.54,56.05,244.78,281.68,59.38,55.45,244.09,281.37,1.0
2018-09-10 19:40:00,88.65478,45.7724,921.045,266.5,85.9,834.1,0.12,0.09,73.07,58.9,55.98,244.25,281.71,59.43,55.59,244.2,281.53,1.0
2018-09-10 19:40:00,88.65478,45.77241,921.046,266.5,85.9,834.1,0.19,0.14,73.09,59.82,55.7,244.25,281.56,59.39,55.72,244.28,281.63,1.0
2018-09-10 19:40:00,88.65478,45.77242,921.039,266.5,85.9,834.2,0.24,0.18,73.1,59.95,55.77,243.78,280.86,59.32,55.85,244.32,281.61,1.0
2018-09-10 19:40:00,88.65478,45.77243,921.041,266.5,85.9,834.2,0.28,0.0,73.12,59.23,55.91,243.3,280.92,59.26,55.97,244.34,281.65,1.0
2018-09-10 19:40:00,88.65478,45.77244,921.052,266.5,85.9,834.1,0.15,0.12,73.16,58.77,55.98,243.87,280.93,59.26,56.05,244.18,281.5,1.0
2018-09-10 19:40:00,88.65478,45.77245,921.045,266.5,85.9,834.1,0.28,0.17,73.18,59.23,55.7,244.04,281.84,59.36,56.1,244.23,281.57,1.0
2018-09-10 19:40:00,88.65478,45.77246,921.045,266.5,85.9,834.1,0.24,0.19,73.23,59.42,55.98,244.24,281.55,59.56,56.1,244.25,281.5,1.0
2018-09-10 19:40:00,88.65478,45.77247,921.055,266.5,85.9,834.0,0.17,0.18,73.29,58.84,55.84,244.34,281.35,59.86,56.07,244.21,281.31,1.0
2018-09-10 19:40:00,88.65478,45.77248,921.045,266.51,85.9,834.1,0.42,0.13,73.34,60.21,55.98,244.32,280.79,60.25,55.99,244.2,281.19,1.0
2018-09-10 19:40:00,88.65478,45.77248,921.056,266.51,85.9,834.0,0.25,0.15,73.41,59.16,55.98,244.1,280.2,60.68,55.89,244.23,281.2,1.0
2018-09-10 19:40:00,88.65478,45.7725,921.075,266.51,85.9,833.9,0.35,0.09,73.45,59.75,55.84,245.3,282.26,61.1,55.77,244.22,281.19,1.0
2018-09-10 19:40:00,88.65478,45.77251,921.059,266.51,85.9,834.0,0.38,0.06,73.49,58.12,56.05,244.7,281.05,61.47,55.65,244.2,281.02,1.0
2018-09-10 19:40:00,88.65478,45.77252,921.038,266.51,85.9,834.2,0.32,0.17,73.54,60.41,55.77,244.24,279.34,61.75,55.53,244.2,280.9,1.0
2018-09-10 19:40:00,88.65478,45.77253,921.046,266.5,85.9,834.1,0.27,0.36,73.6,59.69,55.98,244.25,279.68,61.91,55.42,244.23,280.89,1.0
2018-09-10 19:40:00,88.65478,45.77254,921.04,266.5,85.9,834.2,0.51,0.34,73.68,59.36,55.98,244.44,281.1,61.93,55.34,244.31,280.92,1.0
2018-09-10 19:40:00,88.65478,45.77255,921.036,266.51,85.9,834.2,0.38,0.38,73.75,59.95,55.84,244.53,281.36,61.81,55.29,244.41,281.14,1.0
2018-09-10 19:40:00,88.65478,45.77256,921.046,266.51,85.9,834.1,0.71,0.38,73.74,59.42,55.77,244.25,280.8,61.59,55.28,244.38,281.17,1.0
2018-09-10 19:40:00,88.65478,45.77258,921.063,266.51,85.9,834.0,0.87,0.39,73.75,60.54,55.84,244.25,280.86,61.28,55.29,244.3,281.22,1.0
2018-09-10 19:40:00,88.65478,45.77259,921.075,266.51,85.9,833.9,0.87,0.42,73.79,59.62,55.77,244.4,281.41,60.93,55.33,244.24,281.38,1.0
2018-09-10 19:40:00,88.65478,45.7726,921.068,266.5,86.0,833.9,1.1,0.51,73.82,59.42,55.7,244.77,281.58,60.59,55.39,244.24,281.62,1.0
2018-09-10 19:40:00,88.65478,45.7726,921.061,266.51,86.0,834.0,1.19,0.53,73.82,59.88,55.91,244.6,282.98,60.27,55.46,244.25,281.7,1.0
2018-09-10 19:40:00,88.65478,45.77261,921.054,266.51,86.0,834.1,1.33,0.58,73.85,61.13,55.77,244.21,282.52,60.02,55.54,244.24,281.69,1.0
2018-09-10 19:40:00,88.65478,45.77262,921.059,266.51,86.0,834.0,1.49,0.56,73.89,59.42,55.91,243.4,281.54,59.85,55.62,244.2,281.72,1.0
2018-09-10 19:40:00,88.65478,45.77263,921.064,266.5,86.0,834.0,1.6,0.52,73.93,60.41,55.42,243.08,280.98,59.76,55.7,244.16,281.75,1.0
2018-09-10 19:40:00,88.65478,45.77264,921.056,266.5,86.0,834.0,1.62,0.51,73.98,58.97,55.98,243.83,282.54,59.75,55.76,244.1,281.76,1.0
2018-09-10 19:40:00,88.65478,45.77265,921.102,266.51,86.0,833.7,1.75,0.56,74.01,59.88,55.7,244.18,282.64,59.8,55.82,244.0,281.84,1.0
2018-09-10 19:40:00,88.65478,45.77265,921.111,266.51,86.0,833.6,1.57,0.46,74.05,59.82,55.84,244.27,281.39,59.88,55.87,243.9,281.78,1.0
2018-09-10 19:40:00,88.65478,45.77266,921.103,266.51,86.0,833.7,1.56,0.42,74.06,59.42,55.77,244.26,281.26,59.97,55.92,243.85,281.72,1.0
2018-09-10 19:40:00,88.65478,45.77267,921.093,266.51,86.0,833.7,1.52,0.41,74.08,61.06,55.84,244.17,281.17,60.03,55.95,243.9,281.75,1.0
2018-09-10 19:40:00,88.65478,45.77268,921.09,266.51,86.0,833.8,1.36,0.37,74.13,60.01,55.77,244.08,281.38,60.04,55.97,243.98,281.78,1.0
2018-09-10 19:40:00,88.65478,45.77269,921.079,266.5,86.0,833.8,1.23,0.25,74.17,59.29,55.63,244.24,282.64,59.98,55.98,244.0,281.66,1.0
2018-09-10 19:40:00,88.65478,45.7727,921.101,266.51,86.0,833.7,1.14,0.29,74.22,59.42,55.84,244.03,281.56,59.83,55.97,244.01,281.52,1.0
2018-09-10 19:40:00,88.65478,45.77271,921.103,266.5,86.0,833.7,0.96,0.26,74.28,60.73,55.77,244.22,281.58,59.6,55.94,244.03,281.45,1.0
2018-09-10 19:40:00,88.65478,45.77273,921.101,266.5,86.0,833.7,0.88,0.23,74.32,59.95,55.91,243.85,281.5,59.3,55.89,244.04,281.4,1.0
2018-09-10 19:40:00,88.65478,45.77274,921.098,266.51,86.0,833.7,0.83,0.24,74.36,59.16,55.77,244.1,281.62,58.96,55.81,244.05,281.35,1.0
2018-09-10 19:40:00,88.65478,45.77276,921.086,266.51,86.0,833.8,0.73,0.28,74.39,60.34,55.84,244.14,281.51,58.62,55.7,244.05,281.28,1.0
2018-09-10 19:40:00,88.65478,45.77277,921.095,266.5,86.0,833.7,0.7,0.22,74.42,59.03,55.84,243.93,281.39,58.33,55.58,244.07,281.16,1.0
2018-09-10 19:40:00,88.65478,45.77279,921.111,266.5,86.0,833.6,0.73,0.24,74.45,60.6,55.84,244.11,281.07,58.14,55.44,244.1,281.13,1.0
2018-09-10 19:40:00,88.65478,45.77281,921.113,266.5,86.0,833.6,0.7,0.29,74.48,60.08,55.84,243.94,281.36,58.08,55.3,244.11,281.13,1.0
2018-09-10 19:40:00,88.65478,45.77282,921.105,266.51,86.0,833.6,0.69,0.3,74.51,60.08,55.77,244.03,281.36,58.18,55.16,244.1,281.17,1.0
2018-09-10 19:40:00,88.65478,45.77284,921.099,266.5,86.0,833.7,0.67,0.36,74.55,60.34,55.77,243.96,281.46,58.46,55.05,244.09,281.23,1.0
2018-09-10 19:40:00,88.65478,45.77285,921.095,266.5,86.0,833.7,0.49,0.91,74.63,58.97,55.7,244.28,281.46,58.89,54.97,244.07,281.32,1.0
2018-09-10 19:40:00,88.65478,45.77287,921.119,266.5,86.1,833.5,2.55,1.8,74.47,58.31,55.84,244.26,281.07,59.44,54.93,244.05,281.4,1.0
2018-09-10 19:40:00,88.65478,45.77289,921.131,266.51,86.1,833.4,3.28,1.95,74.53,59.62,55.63,244.08,281.17,60.04,54.93,243.95,281.43,1.0
2018-09-10 19:40:00,88.65478,45.7729,921.118,266.51,86.1,833.5,4.02,2.08,74.53,59.03,55.7,244.37,281.36,60.64,54.97,243.85,281.43,1.0
2018-09-10 19:40:00,88.65478,45.77291,921.093,266.5,86.1,833.7,4.88,2.41,74.53,59.95,55.63,244.09,281.35,61.14,55.05,243.81,281.4,1.0
2018-09-10 19:40:00,88.65478,45.77292,921.101,266.5,86.1,833.7,5.16,2.66,74.65,60.08,55.7,244.18,281.17,61.5,55.15,243.82,281.33,1.0
2018-09-10 19:40:00,88.65478,45.77293,921.098,266.5,86.1,833.7,5.55,2.3,74.54,59.16,55.63,243.98,281.36,61.66,55.27,243.82,281.24,1.0
2018-09-10 19:40:00,88.65478,45.77294,921.117,266.5,86.1,833.5,5.91,2.36,74.56,60.34,55.63,243.27,280.64,61.6,55.38,243.83,281.06,1.0
2018-09-10 19:40:00,88.65478,45.77296,921.14,266.5,86.1,833.4,6.26,2.33,74.61,60.21,55.42,243.04,280.67,61.33,55.49,243.85,280.94,1.0
2018-09-10 19:40:00,88.65478,45.77297,921.164,266.51,86.1,833.2,6.9,2.18,74.63,60.14,55.56,243.87,281.01,60.9,55.57,243.82,280.86,1.0
2018-09-10 19:40:00,88.65478,45.77298,921.184,266.5,86.1,833.0,7.79,1.95,74.62,59.62,55.63,244.28,281.38,60.36,55.62,243.8,280.83,1.0
2018-09-10 19:40:00,88.65478,45.77299,921.163,266.5,86.1,833.2,7.56,1.66,74.67,59.95,55.56,244.18,281.26,59.8,55.64,243.92,280.88,1.0
2018-09-10 19:40:00,88.65478,45.773,921.176,266.51,86.1,833.1,8.78,1.91,74.61,59.56,55.84,244.18,280.3,59.3,55.64,244.02,280.96,1.0
2018-09-10 19:40:00,88.65478,45.77301,921.179,266.51,86.1,833.0,9.16,1.9,74.63,59.62,55.56,244.28,280.76,58.91,55.63,244.2,281.09,1.0
2018-09-10 19:40:00,88.65478,45.77302,921.179,266.5,86.1,833.0,9.17,1.82,74.66,60.28,55.77,243.88,280.93,58.69,55.61,244.36,281.28,1.0
2018-09-10 19:40:00,88.65478,45.77303,921.187,266.5,86.1,833.0,9.29,1.79,74.67,60.86,55.56,243.54,281.29,58.63,55.58,244.45,281.53,1.0
2018-09-10 19:40:00,88.65478,45.77304,921.169,266.5,86.1,833.1,9.57,1.74,74.71,59.69,55.63,245.1,281.63,58.74,55.57,244.47,281.71,1.0
2018-09-10 19:40:00,88.65478,45.77306,921.187,266.5,86.1,833.0,9.17,1.59,74.83,58.7,55.56,244.98,281.57,58.96,55.57,244.46,281.74,1.0
2018-09-10 19:40:00,88.65478,45.77307,921.2,266.5,86.2,832.9,9.19,1.61,74.9,60.41,55.56,244.99,281.43,59.24,55.59,244.43,281.8,1.0
2018-09-10 19:40:00,88.65478,45.77308,921.2,266.5,86.2,832.9,8.95,1.71,74.99,59.69,55.63,244.89,282.15,59.51,55.61,244.4,281.78,1.0
2018-09-10 19:40:00,88.65478,45.77309,921.193,266.5,86.2,832.9,8.64,1.78,75.08,58.77,55.56,244.81,282.68,59.71,55.63,244.41,281.76,1.0
2018-09-10 19:40:00,88.65478,45.7731,921.197,266.5,86.2,832.9,8.62,1.75,75.15,60.14,55.63,244.64,282.36,59.82,55.63,244.43,281.8,1.0
2018-09-10 19:40:00,88.65478,45.77312,921.2,266.5,86.2,832.9,8.03,1.79,75.31,59.82,55.7,244.28,281.5,59.81,55.62,244.31,281.76,1.0
2018-09-10 19:40:00,88.65478,45.77313,921.182,266.5,86.2,833.0,7.93,1.66,75.34,59.16,55.63,244.36,280.88,59.72,55.57,244.2,281.76,1.0
2018-09-10 19:40:00,88.65478,45.77314,921.176,266.5,86.2,833.1,7.87,1.62,75.4,60.34,55.56,244.0,281.47,59.58,55.5,244.12,281.81,1.0
2018-09-10 19:40:00,88.65478,45.77315,921.182,266.5,86.2,833.0,7.79,1.62,75.46,59.36,55.63,244.28,281.93,59.43,55.41,244.12,281.85,1.0
2018-09-10 19:40:00,88.65478,45.77316,921.187,266.5,86.2,833.0,7.71,1.61,75.5,60.01,55.63,244.06,282.43,59.34,55.3,244.14,281.83,1.0
2018-09-10 19:40:00,88.65478,45.77317,921.186,266.5,86.2,833.0,7.63,1.61,75.58,59.82,55.49,243.97,282.05,59.35,55.2,244.03,281.8,1.0
2018-09-10 19:40:00,88.65478,45.77318,921.194,266.5,86.2,832.9,7.79,1.68,75.64,60.01,55.7,243.84,281.98,59.47,55.11,244.04,281.87,1.0
2018-09-10 19:40:00,88.65478,45.7732,921.192,266.5,86.2,832.9,7.82,1.68,75.69,60.8,55.63,244.11,282.16,59.71,55.05,244.1,281.97,1.0
2018-09-10 19:40:00,88.65478,45.77321,921.191,266.5,86.2,832.9,7.8,1.58,75.73,59.56,55.63,244.81,282.0,60.02,55.05,244.23,282.02,1.0
2018-09-10 19:40:00,88.65478,45.77321,921.198,266.5,86.2,832.9,7.78,1.46,75.78,58.77,55.77,244.94,281.54,60.37,55.09,244.35,281.95,1.0
2018-09-10 19:40:00,88.65478,45.77322,921.205,266.5,86.2,832.8,7.72,1.41,75.84,58.31,55.42,242.99,281.22,60.68,55.19,244.3,281.76,1.0
2018-09-10 19:40:00,88.65478,45.77322,921.201,266.5,86.2,832.9,7.38,1.27,75.88,60.54,55.42,244.04,280.77,60.91,55.32,244.17,281.51,1.0
2018-09-10 19:40:00,88.65478,45.77322,921.217,266.5,86.2,832.7,7.07,1.2,75.93,59.29,55.36,244.49,281.18,61.0,55.49,244.11,281.23,1.0
2018-09-10 19:40:00,88.65478,45.77323,921.23,266.5,86.2,832.6,6.74,1.2,76.0,59.56,55.36,245.25,281.09,60.95,55.66,244.09,281.0,1.0
2018-09-10 19:40:00,88.65478,45.77323,921.221,266.5,86.3,832.7,6.37,1.16,76.07,59.23,55.63,244.9,281.09,60.75,55.83,244.04,280.79,1.0
2018-09-10 19:40:00,88.65478,45.77324,921.191,266.49,86.2,832.9,6.01,1.0,76.12,61.19,55.42,243.71,281.16,60.44,55.96,243.99,280.59,1.0
2018-09-10 19:40:00,88.65478,45.77324,921.227,266.5,86.3,832.6,5.74,1.02,76.16,60.41,55.56,242.76,280.71,60.08,56.04,244.12,280.51,1.0
2018-09-10 19:40:00,88.65478,45.77325,921.236,266.5,86.3,832.6,5.54,1.08,76.22,61.13,55.63,243.45,280.54,59.72,56.07,244.26,280.56,1.0
2018-09-10 19:40:00,88.65478,45.77324,921.253,266.5,86.3,832.4,5.89,1.29,76.22,59.56,55.7,243.77,281.06,59.42,56.05,244.3,280.59,1.0
2018-09-10 19:40:00,88.65478,45.77323,921.268,266.5,86.3,832.3,6.2,1.38,76.23,59.16,55.56,244.1,281.15,59.22,55.98,244.23,280.64,1.0
2018-09-10 19:40:00,88.65478,45.77322,921.264,266.5,86.3,832.3,6.3,1.35,76.27,59.62,55.63,244.4,280.29,59.12,55.88,244.17,280.71,1.0
2018-09-10 19:40:00,88.65479,45.77322,921.249,266.5,86.3,832.5,6.6,1.5,76.27,60.08,55.63,244.47,280.34,59.11,55.75,244.26,280.77,1.0
2018-09-10 19:40:00,88.65479,45.77321,921.258,266.5,86.3,832.4,6.69,1.52,76.3,59.36,55.42,245.37,280.88,59.15,55.62,244.41,280.91,1.0
2018-09-10 19:40:00,88.65479,45.7732,921.265,266.49,86.3,832.3,6.69,1.66,76.33,59.36,55.77,244.59,280.18,59.2,55.5,244.49,280.98,1.0
2018-09-10 19:40:00,88.65479,45.77319,921.276,266.49,86.3,832.2,6.76,1.48,76.32,59.95,55.63,244.19,280.15,59.19,55.4,244.43,280.87,1.0
2018-09-10 19:40:00,88.65479,45.77318,921.287,266.5,86.3,832.2,6.81,1.29,76.34,59.75,55.7,244.13,280.47,59.08,55.32,244.33,280.71,1.0
2018-09-10 19:40:00,88.65479,45.77318,921.283,266.5,86.3,832.2,6.73,1.53,76.45,59.75,55.49,244.22,280.23,58.85,55.28,244.29,280.65,1.0
2018-09-10 19:40:00,88.65479,45.77317,921.259,266.5,86.3,832.4,7.19,1.16,76.39,59.56,55.7,244.41,281.36,58.51,55.26,244.21,280.57,1.0
2018-09-10 19:40:00,88.65479,45.77316,921.242,266.5,86.3,832.5,6.59,1.13,76.49,59.75,55.49,244.31,281.1,58.1,55.25,244.06,280.47,1.0
2018-09-10 19:40:00,88.65479,45.77315,921.233,266.5,86.3,832.6,6.59,1.11,76.52,61.32,55.49,243.55,280.49,57.68,55.26,243.97,280.45,1.0
2018-09-10 19:40:00,88.65479,45.77314,921.246,266.49,86.3,832.5,6.56,1.08,76.54,58.77,55.49,243.41,280.85,57.32,55.28,243.92,280.5,1.0
2018-09-10 19:40:00,88.65479,45.77314,921.279,266.5,86.3,832.2,6.08,1.06,76.59,60.47,55.56,244.28,281.0,57.09,55.3,243.91,280.61,1.0
2018-09-10 19:40:00,88.65479,45.77314,921.238,266.5,86.3,832.6,6.4,0.97,76.51,59.23,55.56,244.12,281.57,57.04,55.32,243.9,280.77,1.0
2018-09-10 19:40:00,88.65479,45.77314,921.257,266.5,86.3,832.4,5.86,0.99,76.61,58.9,55.56,244.3,281.27,57.21,55.35,243.86,280.81,1.0
2018-09-10 19:40:00,88.65479,45.77314,921.271,266.49,86.3,832.3,5.53,0.86,76.66,59.03,55.56,244.31,281.19,57.59,55.37,243.94,280.87,1.0
2018-09-10 19:40:00,88.65479,45.77314,921.27,266.49,86.3,832.3,5.28,0.89,76.72,59.42,55.56,244.21,281.38,58.13,55.39,244.03,281.09,1.0
2018-09-10 19:40:00,88.65479,45.77314,921.259,266.49,86.3,832.4,5.02,1.0,76.79,58.9,55.56,244.39,281.18,58.77,55.42,243.98,281.3,1.0
2018-09-10 19:40:00,88.65479,45.77314,921.256,266.49,86.4,832.4,4.84,0.86,76.84,59.82,55.56,244.04,281.24,59.43,55.45,243.88,281.3,1.0
2018-09-10 19:40:00,88.65479,45.77314,921.292,266.49,86.4,832.1,5.01,0.83,76.86,58.57,55.49,243.54,280.06,60.02,55.48,243.92,281.32,1.0
2018-09-10 19:40:00,88.65479,45.77314,921.312,266.5,86.4,832.0,5.1,0.94,76.9,58.44,55.36,244.67,280.0,60.46,55.51,243.94,281.29,1.0
2018-09-10 19:40:00,88.65479,45.77313,921.316,266.5,86.4,831.9,5.18,0.94,76.94,59.16,55.56,244.03,281.06,60.71,55.53,243.94,281.22,1.0
2018-09-10 19:40:00,88.65479,45.77313,921.31,266.49,86.4,832.0,5.22,0.86,76.96,59.42,55.56,242.49,281.41,60.74,55.55,243.89,281.14,1.0
2018-09-10 19:40:00,88.65479,45.77313,921.325,266.5,86.4,831.9,5.21,0.87,76.98,61.13,55.49,242.82,280.32,60.59,55.57,243.81,281.07,1.0
2018-09-10 19:40:00,88.65479,45.77314,921.308,266.5,86.4,832.0,5.13,1.03,77.01,59.56,55.42,244.39,281.17,60.29,55.58,243.73,281.02,1.0
2018-09-10 19:40:00,88.65479,45.77314,921.316,266.5,86.4,831.9,5.13,0.9,77.02,59.82,55.56,244.0,281.19,59.9,55.58,243.7,281.08,1.0
2018-09-10 19:40:00,88.65479,45.77315,921.304,266.5,86.4,832.0,4.97,0.93,77.06,59.75,55.63,244.22,281.38,59.5,55.6,243.56,281.17,1.0
2018-09-10 19:40:00,88.65479,45.77316,921.296,266.5,86.4,832.1,4.91,0.96,77.07,58.12,55.49,243.96,281.31,59.15,55.61,243.48,281.19,1.0
2018-09-10 19:40:00,88.65479,45.77316,921.314,266.5,86.4,831.9,4.93,0.9,77.08,59.16,55.56,243.32,281.51,58.89,55.63,243.54,281.2,1.0
2018-09-10 19:40:00,88.65479,45.77317,921.312,266.49,86.4,832.0,4.66,0.81,77.15,59.49,55.56,243.23,281.46,58.74,55.65,243.62,281.32,1.0
2018-09-10 19:40:00,88.65479,45.77317,921.328,266.49,86.4,831.8,4.56,0.86,77.2,59.49,55.56,243.63,281.37,58.69,55.66,243.54,281.36,1.0
2018-09-10 19:40:00,88.65479,45.77318,921.327,266.5,86.4,831.8,4.37,0.81,77.23,60.14,55.56,243.47,281.45,58.73,55.66,243.5,281.37,1.0
2018-09-10 19:40:00,88.65479,45.77318,921.327,266.5,86.4,831.8,4.15,0.79,77.27,59.23,55.49,243.33,281.47,58.82,55.64,243.46,281.31,1.0
2018-09-10 19:40:00,88.65479,45.77319,921.335,266.5,86.4,831.8,3.98,0.78,77.32,59.56,55.56,243.52,281.38,58.93,55.6,243.46,281.17,1.0
2018-09-10 19:40:00,88.65479,45.7732,921.341,266.49,86.4,831.7,3.9,0.73,77.37,59.29,55.36,243.97,281.17,59.02,55.52,243.52,281.01,1.0
2018-09-10 19:40:00,88.65479,45.7732,921.377,266.49,86.4,831.4,3.77,0.65,77.38,59.16,55.49,243.73,281.09,59.08,55.41,243.6,280.87,1.0
2018-09-10 19:40:00,88.65479,45.7732,921.358,266.49,86.4,831.6,3.7,0.62,77.42,59.62,55.56,244.03,281.38,59.13,55.27,243.71,280.75,1.0
2018-09-10 19:40:00,88.65479,45.7732,921.336,266.49,86.4,831.8,3.58,0.58,77.48,58.7,55.63,244.06,280.62,59.17,55.12,243.78,280.64,1.0
2018-09-10 19:40:00,88.65479,45.77319,921.332,266.49,86.4,831.8,3.5,0.53,77.52,59.03,55.7,244.02,280.24,59.24,54.97,243.91,280.54,1.0
2018-09-10 19:40:00,88.65479,45.77319,921.347,266.49,86.4,831.7,3.45,0.49,77.56,59.62,55.49,244.04,280.09,59.38,54.84,244.04,280.47,1.0
2018-09-10 19:40:00,88.65479,45.77319,921.349,266.49,86.4,831.7,3.23,0.52,77.62,59.29,55.7,244.27,280.37,59.61,54.75,244.05,280.45,1.0
2018-09-10 19:40:00,88.65479,45.77318,921.356,266.49,86.4,831.6,3.18,0.39,77.67,60.08,55.56,244.49,280.51,59.93,54.71,244.17,280.37,1.0
2018-09-10 19:40:00,88.65479,45.77318,921.364,266.49,86.5,831.5,3.07,0.44,77.75,60.41,55.42,243.7,280.43,60.34,54.74,244.1,280.29,1.0
2018-09-10 19:40:00,88.65479,45.77317,921.363,266.49,86.5,831.5,2.98,0.44,77.81,58.18,55.29,243.9,280.28,60.81,54.82,244.04,280.32,1.0
2018-09-10 19:40:00,88.65479,45.77317,921.353,266.49,86.5,831.6,2.94,0.35,77.87,58.97,55.36,243.74,279.92,61.27,54.96,244.02,280.42,1.0
2018-09-10 19:40:00,88.65479,45.77317,921.36,266.49,86.5,831.6,2.9,0.34,77.94,59.16,55.29,242.97,280.91,61.67,55.13,243.96,280.51,1.0
2018-09-10 19:40:00,88.65479,45.77316,921.379,266.49,86.5,831.4,2.88,0.39,78.0,59.1,55.29,244.51,279.71,61.94,55.32,243.85,280.54,1.0
2018-09-10 19:40:00,88.65479,45.77316,921.394,266.49,86.5,831.3,2.81,0.35,78.06,59.1,55.29,242.76,280.03,62.05,55.5,243.77,280.62,1.0
2018-09-10 19:40:00,88.65479,45.77316,921.389,266.49,86.5,831.3,2.75,0.32,78.12,60.54,55.42,243.26,280.83,61.95,55.66,243.75,280.71,1.0
2018-09-10 19:40:00,88.65479,45.77315,921.378,266.49,86.5,831.4,2.71,0.35,78.19,59.62,55.56,244.23,281.38,61.66,55.79,243.73,280.83,1.0
2018-09-10 19:40:00,88.65479,45.77315,921.388,266.5,86.5,831.3,2.67,0.39,78.23,60.21,55.42,244.42,281.21,61.19,55.86,243.74,280.96,1.0
2018-09-10 19:40:00,88.65479,45.77314,921.382,266.49,86.5,831.4,2.7,0.26,78.25,59.82,55.56,243.69,280.92,60.6,55.9,243.86,281.08,1.0
2018-09-10 19:40:00,88.65479,45.77314,921.384,266.49,86.5,831.4,1.26,-2.94,78.18,60.67,55.36,244.05,281.08,59.95,55.9,243.9,281.27,1.0
2018-09-10 19:40:00,88.65479,45.77314,921.381,266.49,86.5,831.4,-0.84,-2.8,78.21,59.82,55.42,244.04,281.28,59.3,55.87,244.09,281.5,1.0
2018-09-10 19:40:00,88.6548,45.77313,921.386,266.49,86.5,831.4,-2.11,-2.63,78.16,59.23,55.42,244.32,281.1,58.73,55.85,244.22,281.64,1.0
2018-09-10 19:40:00,88.6548,45.77313,921.401,266.49,86.5,831.2,-2.82,-3.6,78.04,60.41,55.56,244.42,281.38,58.27,55.83,244.25,281.69,1.0
2018-09-10 19:40:00,88.6548,45.77312,921.379,266.49,86.5,831.4,-5.26,-2.62,78.11,58.7,55.42,244.41,281.37,57.95,55.83,244.33,281.7,1.0
2018-09-10 19:40:00,88.6548,45.77312,921.38,266.49,86.5,831.4,-4.59,-4.23,78.07,59.62,55.56,244.23,281.48,57.77,55.85,244.41,281.7,1.0
2018-09-10 19:40:00,88.6548,45.77312,921.38,266.49,86.5,831.4,-6.73,-4.53,78.34,60.8,55.56,244.39,281.76,57.72,55.88,244.41,281.64,1.0
2018-09-10 19:40:00,88.6548,45.77311,921.383,266.49,86.5,831.4,-7.64,-4.75,78.45,58.97,55.49,243.66,281.55,57.75,55.93,244.37,281.53,1.0
2018-09-10 19:40:00,88.6548,45.77311,921.396,266.49,86.5,831.3,-7.72,-4.99,78.4,59.82,55.42,243.49,281.38,57.82,55.97,244.23,281.4,1.0
2018-09-10 19:40:00,88.6548,45.7731,921.417,266.49,86.5,831.1,-9.71,-4.73,78.44,59.03,55.42,244.23,281.09,57.9,55.99,243.99,281.24,1.0
2018-09-10 19:40:00,88.6548,45.77309,921.403,266.49,86.5,831.2,-9.71,-4.91,78.42,60.01,55.56,244.05,281.38,57.96,55.99,243.84,281.14,1.0
2018-09-10 19:40:00,88.6548,45.77308,921.406,266.49,86.5,831.2,-11.16,-4.39,78.45,59.1,55.49,244.05,281.38,57.97,55.95,243.73,281.06,1.0
2018-09-10 19:40:00,88.6548,45.77307,921.409,266.49,86.6,831.2,-11.9,-4.47,78.54,59.03,55.63,244.33,281.57,57.94,55.88,243.64,280.96,1.0
2018-09-10 19:40:00,88.6548,45.77306,921.42,266.49,86.6,831.1,-12.19,-4.7,78.61,59.56,55.63,243.51,281.19,57.89,55.8,243.64,280.91,1.0
2018-09-10 19:40:00,88.6548,45.77305,921.447,266.49,86.6,830.9,-12.55,-4.59,78.63,59.23,55.63,242.48,280.98,57.83,55.71,243.74,280.88,1.0
2018-09-10 19:40:00,88.6548,45.77304,921.439,266.49,86.6,830.9,-12.82,-4.49,78.65,59.16,55.63,243.43,281.53,57.8,55.63,243.94,280.8,1.0
2018-09-10 19:40:00,88.6548,45.77303,921.431,266.49,86.6,831.0,-12.5,-4.44,78.55,59.36,55.63,243.74,281.34,57.81,55.58,244.12,280.78,1.0
2018-09-10 19:40:00,88.6548,45.77302,921.43,266.49,86.6,831.0,-12.59,-4.32,78.48,59.62,55.63,243.95,281.14,57.88,55.58,244.2,280.72,1.0
2018-09-10 19:40:00,88.6548,45.77301,921.438,266.49,86.6,830.9,-12.35,-4.27,78.44,60.41,55.56,243.92,281.35,58.0,55.61,244.24,280.63,1.0
2018-09-10 19:40:00,88.6548,45.773,921.446,266.49,86.6,830.9,-11.81,-4.33,78.44,58.64,55.7,244.59,281.06,58.16,55.7,244.33,280.54,1.0
2018-09-10 19:40:00,88.6548,45.773,921.425,266.49,86.6,831.0,-11.87,-4.35,78.52,58.05,55.36,245.89,280.15,58.33,55.81,244.5,280.47,1.0
2018-09-10 19:40:00,88.6548,45.773,921.435,266.49,86.6,831.0,-11.84,-4.38,78.53,58.57,55.42,245.48,280.75,58.48,55.95,244.58,280.36,1.0
2018-09-10 19:40:00,88.6548,45.773,921.448,266.49,86.6,830.9,-11.79,-4.35,78.59,58.7,55.63,244.18,280.14,58.6,56.08,244.63,280.25,1.0
2018-09-10 19:40:00,88.6548,45.773,921.454,266.49,86.6,830.8,-11.85,-4.33,78.65,59.69,55.56,243.92,280.36,58.66,56.19,244.66,280.17,1.0
2018-09-10 19:40:00,88.6548,45.773,921.447,266.49,86.6,830.9,-11.85,-4.17,78.64,58.9,55.56,243.99,280.2,58.65,56.28,244.67,280.12,1.0
2018-09-10 19:40:00,88.6548,45.773,921.43,266.48,86.6,831.0,-11.63,-3.79,78.59,59.82,55.56,244.06,280.25,58.6,56.31,244.63,280.13,1.0
2018-09-10 19:40:00,88.6548,45.773,921.435,266.48,86.6,831.0,-11.56,-3.84,78.66,58.9,55.84,244.26,280.26,58.53,56.31,244.45,280.25,1.0
2018-09-10 19:40:00,88.6548,45.773,921.471,266.48,86.6,830.7,-11.34,-3.63,78.65,59.1,55.77,244.34,280.53,58.46,56.27,244.3,280.34,1.0
2018-09-10 19:40:00,88.6548,45.773,921.495,266.48,86.6,830.5,-11.17,-3.58,78.71,59.75,55.7,244.34,280.11,58.43,56.2,244.32,280.53,1.0
2018-09-10 19:40:00,88.6548,45.773,921.493,266.48,86.6,830.5,-11.02,-3.47,78.74,58.12,55.77,244.33,280.52,58.45,56.12,244.36,280.71,1.0
2018-09-10 19:40:00,88.6548,45.773,921.473,266.48,86.6,830.6,-10.76,-3.25,78.72,59.82,55.77,244.34,280.68,58.55,56.05,244.35,280.81,1.0
2018-09-10 19:40:00,88.6548,45.773,921.5,266.48,86.6,830.4,-10.21,-3.34,78.71,57.59,55.63,244.25,280.87,58.71,55.99,244.32,280.88,1.0
2018-09-10 19:40:00,88.6548,45.773,921.527,266.49,86.6,830.2,-10.08,-3.07,78.67,59.56,55.7,244.16,281.23,58.9,55.96,244.28,280.94,1.0
2018-09-10 19:40:00,88.6548,45.773,921.51,266.48,86.6,830.4,-9.63,-3.01,78.64,58.7,55.77,244.87,281.9,59.08,55.94,244.24,280.99,1.0
2018-09-10 19:40:00,88.6548,45.77301,921.492,266.48,86.6,830.5,-9.24,-2.95,78.6,59.23,55.63,244.81,281.43,59.19,55.94,244.2,281.03,1.0
2018-09-10 19:40:00,88.6548,45.77302,921.501,266.49,86.6,830.4,-8.88,-2.85,78.56,58.9,55.77,244.42,281.1,59.2,55.95,244.18,281.08,1.0
2018-09-10 19:40:00,88.6548,45.77302,921.513,266.49,86.6,830.3,-8.3,-2.77,78.54,58.05,55.77,244.25,281.38,59.05,55.95,244.17,281.14,1.0
2018-09-10 19:40:00,88.6548,45.77303,921.494,266.48,86.6,830.5,-8.07,-2.8,78.56,59.69,55.63,244.25,281.38,58.74,55.93,244.19,281.22,1.0
2018-09-10 19:40:00,88.6548,45.77304,921.504,266.49,86.6,830.4,-7.85,-2.65,78.56,59.16,55.84,244.32,281.48,58.26,55.9,244.22,281.3,1.0
2018-09-10 19:40:00,88.6548,45.77304,921.505,266.49,86.6,830.4,-7.66,-2.54,78.56,59.29,55.77,244.42,281.0,57.67,55.85,244.11,281.4,1.0
2018-09-10 19:40:00,88.6548,45.77305,921.493,266.49,86.6,830.5,-7.56,-2.5,78.58,59.16,55.84,244.25,281.38,57.01,55.78,244.02,281.57,1.0
2018-09-10 19:40:00,88.6548,45.77305,921.488,266.48,86.6,830.5,-7.5,-2.47,78.6,58.97,55.63,244.34,281.18,56.37,55.71,244.04,281.76,1.0
2018-09-10 19:40:00,88.6548,45.77306,921.546,266.49,86.6,830.1,-7.1,-2.31,78.6,59.23,55.98,244.06,281.29,55.83,55.64,244.14,281.75,1.0
2018-09-10 19:40:00,88.6548,45.77307,921.533,266.48,86.6,830.2,-7.54,-2.3,78.71,59.36,55.77,244.15,281.38,55.46,55.6,244.17,281.77,1.0
2018-09-10 19:40:00,88.6548,45.77307,921.544,266.49,86.6,830.1,-7.47,-2.35,78.79,57.59,55.84,242.99,281.76,55.3,55.58,244.17,281.76,1.0
2018-09-10 19:40:00,88.6548,45.77308,921.564,266.49,86.6,829.9,-7.33,-2.22,78.83,58.12,55.77,243.12,282.54,55.4,55.61,244.12,281.72,1.0
2018-09-10 19:40:00,88.6548,45.77308,921.559,266.48,86.6,830.0,-7.25,-1.99,78.84,58.12,55.56,243.86,282.03,55.73,55.66,244.03,281.66,1.0
2018-09-10 19:40:00,88.6548,45.77307,921.534,266.48,86.7,830.2,-6.83,-2.08,78.86,59.49,55.63,244.66,280.08,56.26,55.74,243.92,281.55,1.0
2018-09-10 19:40:00,88.6548,45.77307,921.554,266.48,86.7,830.0,-6.55,-1.86,78.87,58.44,55.7,244.04,280.49,56.92,55.83,243.7,281.36,1.0
2018-09-10 19:40:00,88.6548,45.77307,921.55,266.48,86.7,830.0,-6.13,-1.83,78.91,57.92,55.77,244.25,281.1,57.61,55.92,243.62,281.25,1.0
2018-09-10 19:40:00,88.6548,45.77307,921.558,266.48,86.7,830.0,-5.8,-1.77,78.92,58.31,55.7,243.95,281.5,58.27,55.99,243.68,281.14,1.0
2018-09-10 19:40:00,88.6548,45.77307,921.582,266.49,86.7,829.8,-5.57,-1.72,78.93,58.05,55.84,243.59,281.74,58.79,56.02,243.76,281.01,1.0
2018-09-10 19:40:00,88.6548,45.77307,921.59,266.48,86.7,829.7,-5.42,-1.77,78.94,57.98,55.84,243.72,281.3,59.13,56.0,243.79,280.98,1.0
2018-09-10 19:40:00,88.6548,45.77307,921.554,266.49,86.7,830.0,-5.28,-1.77,78.94,58.05,55.7,242.51,280.63,59.24,55.94,243.8,281.17,1.0
2018-09-10 19:40:00,88.6548,45.77307,921.536,266.49,86.7,830.1,-5.12,-1.85,78.93,58.44,55.77,243.77,281.36,59.14,55.84,243.86,281.31,1.0
2018-09-10 19:40:00,88.6548,45.77307,921.531,266.49,86.7,830.2,-5.15,-1.81,78.94,58.38,55.84,243.89,281.13,58.86,55.71,243.89,281.4,1.0
2018-09-10 19:40:00,88.6548,45.77306,921.548,266.48,86.7,830.0,-4.95,-1.65,78.93,58.51,55.84,243.91,281.29,58.43,55.57,243.91,281.42,1.0
2018-09-10 19:40:00,88.6548,45.77306,921.583,266.48,86.7,829.8,-4.55,-1.46,78.91,59.16,55.84,243.89,281.4,57.94,55.43,243.93,281.41,1.0
2018-09-10 19:40:00,88.6548,45.77306,921.548,266.48,86.7,830.0,-5.12,-1.49,79.01,58.38,55.63,244.43,281.11,57.44,55.32,244.03,281.44,1.0
2018-09-10 19:40:00,88.6548,45.77306,921.543,266.48,86.7,830.1,-4.77,-1.43,79.0,58.97,55.77,244.35,281.4,57.01,55.25,244.23,281.55,1.0
2018-09-10 19:40:00,88.6548,45.77306,921.548,266.48,86.7,830.0,-5.46,-1.58,79.06,57.98,55.77,243.9,280.87,56.68,55.22,244.3,281.62,1.0
2018-09-10 19:40:00,88.65481,45.77305,921.564,266.48,86.7,829.9,-6.01,-1.55,79.1,59.16,55.91,243.33,280.4,56.48,55.24,244.3,281.55,1.0
2018-09-10 19:40:00,88.65481,45.77304,921.586,266.48,86.7,829.7,-5.99,-1.42,79.12,58.31,55.7,243.7,280.7,56.42,55.29,244.26,281.35,1.0
2018-09-10 19:40:00,88.65481,45.77303,921.594,266.48,86.7,829.7,-5.61,-1.52,79.11,57.33,55.56,244.6,281.31,56.49,55.37,244.27,281.18,1.0
2018-09-10 19:40:00,88.65481,45.77302,921.6,266.48,86.7,829.6,-5.77,-1.09,79.14,57.59,55.63,244.71,281.41,56.64,55.48,244.36,281.2,1.0
2018-09-10 19:40:00,88.65481,45.77301,921.602,266.48,86.7,829.6,-5.34,-1.16,79.15,57.4,55.49,244.97,282.69,56.86,55.58,244.39,281.11,1.0
2018-09-10 19:40:00,88.65481,45.77301,921.602,266.48,86.7,829.6,-5.16,-1.18,79.18,57.98,55.77,244.67,281.73,57.11,55.68,244.44,281.09,1.0
2018-09-10 19:40:00,88.65481,45.773,921.602,266.48,86.7,829.6,-5.01,-1.09,79.18,59.16,55.63,244.32,280.81,57.36,55.76,244.48,281.22,1.0
2018-09-10 19:40:00,88.65481,45.77299,921.6,266.48,86.7,829.6,-4.53,-1.04,79.11,57.79,55.77,244.75,280.99,57.58,55.83,244.51,281.44,1.0
2018-09-10 19:40:00,88.65481,45.77299,921.607,266.48,86.7,829.6,-4.71,-0.96,79.1,58.44,55.63,246.26,282.65,57.77,55.86,244.57,281.57,1.0
2018-09-10 19:40:00,88.65481,45.77299,921.614,266.48,86.7,829.5,-4.43,-0.99,79.06,58.31,55.84,244.83,281.12,57.91,55.88,244.62,281.63,1.0
2018-09-10 19:40:00,88.65481,45.773,921.629,266.48,86.7,829.4,-4.42,-0.85,79.03,58.97,55.63,244.61,280.76,58.01,55.88,244.64,281.59,1.0
2018-09-10 19:40:00,88.65481,45.77301,921.638,266.48,86.7,829.3,-4.42,-0.83,79.03,57.0,55.84,243.85,282.02,58.07,55.86,244.68,281.63,1.0
2018-09-10 19:40:00,88.65481,45.77302,921.633,266.48,86.7,829.3,-4.37,-0.89,79.04,57.53,55.63,243.43,282.51,58.08,55.84,244.73,281.75,1.0
2018-09-10 19:40:00,88.65481,45.77303,921.615,266.48,86.7,829.5,-4.45,-0.64,79.03,57.13,55.63,244.63,281.84,58.04,55.8,244.72,281.79,1.0
2018-09-10 19:40:00,88.65481,45.77304,921.631,266.47,86.7,829.4,-4.42,-0.75,79.05,58.77,55.77,245.08,281.77,57.95,55.77,244.57,281.66,1.0
2018-09-10 19:40:00,88.65481,45.77304,921.643,266.48,86.7,829.3,-4.45,-0.68,79.08,57.98,55.63,244.84,281.72,57.81,55.73,244.29,281.63,1.0
2018-09-10 19:40:00,88.65481,45.77305,921.648,266.48,86.7,829.2,-4.4,-0.49,79.07,58.25,55.7,244.64,281.86,57.63,55.68,244.14,281.66,1.0
2018-09-10 19:40:00,88.65481,45.77306,921.642,266.48,86.7,829.3,-4.31,-0.35,79.06,58.18,55.7,244.81,281.61,57.41,55.64,244.14,281.63,1.0
2018-09-10 19:40:00,88.65481,45.77307,921.628,266.48,86.7,829.4,-4.27,-0.29,79.06,58.77,55.91,244.96,281.82,57.17,55.6,244.17,281.53,1.0
2018-09-10 19:40:00,88.6548,45.77308,921.634,266.48,86.7,829.3,-4.08,0.76,78.96,58.05,55.7,244.5,281.54,56.94,55.57,244.1,281.45,1.0
2018-09-10 19:40:00,88.6548,45.77309,921.637,266.48,86.7,829.3,-2.79,1.45,78.65,57.33,55.63,242.17,281.35,56.73,55.55,244.0,281.41,1.0
2018-09-10 19:40:00,88.6548,45.77309,921.645,266.48,86.7,829.3,-2.16,1.63,78.61,56.81,55.77,243.09,281.69,56.59,55.54,243.92,281.37,1.0
2018-09-10 19:40:00,88.6548,45.77309,921.667,266.47,86.7,829.1,-1.47,1.72,78.6,59.29,55.7,244.24,281.69,56.52,55.55,243.85,281.34,1.0
2018-09-10 19:40:00,88.6548,45.77309,921.692,266.48,86.7,828.9,-0.42,1.79,78.49,58.05,55.63,244.05,281.64,56.54,55.57,243.79,281.3,1.0
2018-09-10 19:40:00,88.6548,45.77309,921.648,266.48,86.7,829.2,0.05,1.18,78.43,57.2,55.63,244.43,281.42,56.66,55.62,243.74,281.27,1.0
2018-09-10 19:40:00,88.6548,45.77309,921.679,266.47,86.8,829.0,0.83,1.46,78.31,57.98,55.7,244.24,281.12,56.85,55.67,243.71,281.23,1.0
2018-09-10 19:40:00,88.6548,45.77309,921.692,266.47,86.8,828.9,1.56,1.37,78.21,58.38,55.77,244.43,281.4,57.1,55.72,243.9,281.08,1.0
2018-09-10 19:40:00,88.6548,45.77309,921.688,266.47,86.8,828.9,1.39,1.3,78.21,57.4,55.63,244.14,281.22,57.38,55.78,243.96,280.94,1.0
2018-09-10 19:40:00,88.6548,45.77309,921.682,266.48,86.8,828.9,1.11,1.21,78.23,57.53,55.63,244.33,281.03,57.64,55.82,243.93,280.85,1.0
2018-09-10 19:40:00,88.6548,45.77309,921.695,266.48,86.8,828.8,2.03,0.9,78.13,56.28,55.77,244.23,281.23,57.86,55.85,243.96,280.8,1.0
2018-09-10 19:40:00,88.6548,45.77309,921.712,266.47,86.8,828.7,1.32,1.03,78.24,58.97,55.63,244.14,281.52,58.01,55.87,244.0,280.82,1.0
2018-09-10 19:40:00,88.6548,45.7731,921.715,266.47,86.8,828.7,1.27,0.86,78.24,57.4,55.63,244.05,280.0,58.1,55.86,244.04,280.85,1.0
2018-09-10 19:40:00,88.6548,45.7731,921.728,266.47,86.8,828.6,1.02,0.92,78.27,57.79,55.84,243.51,280.24,58.12,55.84,244.08,280.85,1.0
2018-09-10 19:40:00,88.6548,45.7731,921.737,266.47,86.8,828.5,0.73,0.99,78.31,57.66,55.63,243.55,280.94,58.11,55.82,244.09,280.9,1.0
2018-09-10 19:40:00,88.6548,45.77309,921.719,266.47,86.8,828.7,0.63,0.88,78.32,58.57,55.77,244.15,281.32,58.08,55.8,244.07,281.02,1.0
2018-09-10 19:40:00,88.6548,45.77309,921.757,266.47,86.8,828.3,0.5,1.03,78.36,57.85,55.7,244.25,281.13,58.09,55.79,244.07,281.05,1.0
2018-09-10 19:40:00,88.6548,45.77309,921.76,266.47,86.8,828.3,0.42,0.96,78.38,57.66,55.77,244.06,281.23,58.14,55.79,244.05,281.04,1.0
2018-09-10 19:40:00,88.6548,45.77309,921.75,266.47,86.8,828.4,0.6,0.92,78.37,58.31,55.77,244.17,280.87,58.25,55.81,244.03,281.07,1.0
2018-09-10 19:40:00,88.6548,45.77308,921.738,266.48,86.8,828.5,0.83,0.93,78.33,57.46,55.84,243.92,281.22,58.43,55.84,244.12,281.02,1.0
2018-09-10 19:40:00,88.6548,45.77308,921.737,266.47,86.8,828.5,1.05,0.97,78.28,57.4,55.42,243.58,282.04,58.65,55.88,244.29,280.9,1.0
2018-09-10 19:40:00,88.6548,45.77308,921.758,266.47,86.8,828.3,1.35,0.89,78.27,57.2,55.77,244.05,280.93,58.87,55.91,244.41,280.77,1.0
2018-09-10 19:40:00,88.6548,45.77308,921.746,266.48,86.8,828.4,1.69,1.01,78.24,58.64,55.7,244.06,281.13,59.06,55.93,244.46,280.64,1.0
2018-09-10 19:40:00,88.6548,45.77308,921.742,266.48,86.8,828.5,1.99,0.98,78.21,56.81,55.84,244.35,280.6,59.16,55.93,244.51,280.55,1.0
2018-09-10 19:40:00,88.6548,45.77307,921.751,266.48,86.8,828.4,2.17,1.0,78.21,57.53,55.7,244.94,280.49,59.13,55.89,244.58,280.56,1.0
2018-09-10 19:40:00,88.6548,45.77307,921.771,266.47,86.8,828.2,2.3,1.05,78.21,59.88,55.63,245.86,280.57,58.96,55.82,244.67,280.6,1.0
2018-09-10 19:40:00,88.6548,45.77307,921.784,266.47,86.8,828.1,2.46,1.03,78.18,57.98,55.84,245.54,280.68,58.63,55.72,244.8,280.59,1.0
2018-09-10 19:40:00,88.6548,45.77307,921.746,266.48,86.8,828.4,2.41,1.06,78.19,57.13,55.77,244.59,280.44,58.18,55.61,244.87,280.69,1.0
2018-09-10 19:40:00,88.6548,45.77307,921.769,266.47,86.8,828.2,2.6,1.03,78.17,58.18,55.84,244.65,280.8,57.64,55.48,244.83,280.9,1.0
2018-09-10 19:40:00,88.6548,45.77307,921.784,266.47,86.8,828.1,2.55,1.03,78.17,58.77,55.63,244.59,281.13,57.06,55.37,244.73,281.16,1.0
2018-09-10 19:40:00,88.6548,45.77307,921.78,266.47,86.8,828.2,2.48,1.0,78.17,58.05,55.84,244.24,281.32,56.52,55.29,244.59,281.33,1.0
2018-09-10 19:40:00,88.6548,45.77307,921.77,266.47,86.8,828.2,2.5,0.92,78.15,58.57,55.84,244.15,281.42,56.06,55.24,244.44,281.4,1.0
2018-09-10 19:40:00,88.6548,45.77307,921.786,266.47,86.8,828.1,2.42,0.88,78.16,56.94,55.84,244.19,280.99,55.75,55.25,244.28,281.46,1.0
2018-09-10 19:40:00,88.6548,45.77308,921.788,266.47,86.8,828.1,2.2,0.89,78.18,58.31,55.63,243.01,282.4,55.61,55.32,244.15,281.51,1.0
2018-09-10 19:40:00,88.6548,45.77308,921.791,266.47,86.8,828.1,2.12,0.81,78.17,56.41,55.56,242.65,282.08,55.66,55.42,244.03,281.52,1.0
2018-09-10 19:40:00,88.6548,45.77308,921.798,266.47,86.8,828.0,1.93,0.69,78.18,59.16,55.56,243.5,281.12,55.87,55.57,243.93,281.48,1.0
2018-09-10 19:40:00,88.6548,45.77308,921.806,266.47,86.8,827.9,1.7,0.59,78.19,57.0,55.42,244.64,280.55,56.22,55.73,243.86,281.4,1.0
2018-09-10 19:40:00,88.6548,45.77308,921.795,266.47,86.8,828.0,1.69,0.58,78.17,57.92,55.77,244.64,281.19,56.66,55.88,243.83,281.29,1.0
2018-09-10 19:40:00,88.6548,45.77308,921.822,266.47,86.8,827.8,1.58,0.45,78.18,57.2,55.63,244.33,281.7,57.14,56.02,243.83,281.24,1.0
2018-09-10 19:40:00,88.6548,45.77308,921.826,266.48,86.8,827.8,1.09,-0.25,78.18,57.53,55.7,244.34,281.69,57.6,56.11,243.98,281.14,1.0
2018-09-10 19:40:00,88.6548,45.77308,921.823,266.48,86.8,827.8,0.58,-0.43,78.22,58.12,55.77,244.16,281.76,58.0,56.16,244.12,281.13,1.0
2018-09-10 19:40:00,88.6548,45.77308,921.816,266.47,86.8,827.9,0.15,-0.47,78.22,57.53,55.77,244.54,281.23,58.31,56.15,244.24,281.24,1.0
2018-09-10 19:40:00,88.6548,45.77308,921.809,266.47,86.8,827.9,-0.25,-0.76,78.19,57.33,55.7,244.26,280.85,58.52,56.08,244.34,281.4,1.0
2018-09-10 19:40:00,88.6548,45.77307,921.815,266.47,86.8,827.9,-1.0,-0.42,78.24,57.4,55.77,244.35,281.32,58.6,55.97,244.37,281.44,1.0
2018-09-10 19:40:00,88.6548,45.77306,921.829,266.47,86.8,827.8,-0.22,-0.36,78.1,57.33,55.84,244.15,281.12,58.58,55.83,244.4,281.44,1.0
2018-09-10 19:40:00,88.6548,45.77305,921.831,266.47,86.8,827.7,-0.51,-0.55,78.12,57.98,55.77,243.57,281.75,58.48,55.67,244.36,281.47,1.0
2018-09-10 19:40:00,88.6548,45.77304,921.832,266.47,86.8,827.7,-0.77,-0.75,78.13,58.18,55.63,243.92,282.02,58.3,55.51,244.3,281.49,1.0
2018-09-10 19:40:00,88.6548,45.77303,921.838,266.47,86.9,827.7,-0.57,-0.84,78.07,57.85,55.7,244.6,281.11,58.09,55.38,244.26,281.51,1.0
2018-09-10 19:40:00,88.6548,45.77302,921.818,266.46,86.8,827.8,-0.69,-0.96,78.09,58.18,55.77,244.25,280.37,57.87,55.27,244.2,281.54,1.0
2018-09-10 19:40:00,88.6548,45.77301,921.842,266.47,86.8,827.7,-1.06,-0.67,78.07,57.07,55.84,244.15,280.28,57.65,55.2,244.14,281.52,1.0
2018-09-10 19:40:00,88.6548,45.773,921.852,266.46,86.8,827.6,-1.07,-0.6,78.03,57.98,55.77,243.88,280.82,57.48,55.18,244.08,281.47,1.0
2018-09-10 19:40:00,88.6548,45.773,921.864,266.46,86.8,827.5,-1.32,-0.59,78.04,57.53,55.63,243.53,281.27,57.36,55.2,244.11,281.36,1.0
2018-09-10 19:40:00,88.6548,45.77299,921.875,266.46,86.8,827.4,-1.54,-0.68,78.08,58.38,55.63,244.07,281.14,57.31,55.25,244.12,281.24,1.0
2018-09-10 19:40:00,88.6548,45.77299,921.862,266.47,86.8,827.5,-1.3,-0.86,78.05,56.94,55.56,244.34,281.14,57.36,55.34,244.08,281.17,1.0
2018-09-10 19:40:00,88.6548,45.77298,921.886,266.46,86.8,827.3,-1.53,-0.84,78.09,58.57,55.63,244.35,281.23,57.49,55.44,244.11,281.2,1.0
2018-09-10 19:40:00,88.6548,45.77298,921.881,266.46,86.8,827.3,-1.42,-0.76,78.11,57.79,55.63,244.36,281.42,57.71,55.55,244.14,281.17,1.0
2018-09-10 19:40:00,88.6548,45.77297,921.894,266.46,86.8,827.2,-1.31,-0.87,78.15,57.13,55.7,244.35,281.23,58.01,55.65,244.23,281.11,1.0
2018-09-10 19:40:00,88.6548,45.77297,921.908,266.47,86.8,827.1,-1.39,-0.94,78.2,57.4,55.63,244.35,281.04,58.35,55.74,244.35,281.03,1.0
2018-09-10 19:40:00,88.6548,45.77296,921.898,266.47,86.8,827.2,-1.59,-0.84,78.25,56.61,55.63,244.16,281.23,58.7,55.81,244.45,280.97,1.0
2018-09-10 19:40:00,88.6548,45.77296,921.876,266.46,86.8,827.4,-1.36,-0.81,78.22,58.77,55.56,244.34,281.3,59.01,55.85,244.43,280.91,1.0
2018-09-10 19:40:00,88.6548,45.77295,921.865,266.46,86.8,827.5,-1.68,-0.79,78.26,58.64,55.7,244.11,280.57,59.25,55.86,244.39,280.88,1.0
2018-09-10 19:40:00,88.6548,45.77295,921.869,266.46,86.8,827.4,-1.52,-0.6,78.23,57.59,55.77,244.43,280.61,59.37,55.84,244.33,280.88,1.0
2018-09-10 19:40:00,88.6548,45.77294,921.874,266.46,86.8,827.4,-1.27,-0.5,78.19,57.33,55.63,244.89,280.64,59.34,55.79,244.27,280.91,1.0
2018-09-10 19:40:00,88.6548,45.77294,921.881,266.46,86.8,827.3,-1.06,-0.34,78.17,57.33,55.56,245.31,280.52,59.16,55.71,244.21,280.93,1.0
2018-09-10 19:40:00,88.6548,45.77293,921.921,266.46,86.8,827.0,-0.71,0.25,78.16,58.57,55.77,244.47,280.57,58.82,55.62,244.18,280.95,1.0
2018-09-10 19:40:00,88.6548,45.77292,921.91,266.46,86.8,827.1,0.49,0.71,77.99,58.05,55.7,244.37,280.88,58.37,55.52,244.17,280.97,1.0
2018-09-10 19:40:00,88.6548,45.77292,921.906,266.46,86.8,827.1,0.72,0.67,78.03,57.72,55.63,244.26,281.01,57.85,55.43,244.27,281.0,1.0
2018-09-10 19:40:00,88.6548,45.77291,921.927,266.46,86.8,827.0,1.19,0.79,78.03,58.51,55.77,244.26,281.53,57.34,55.34,244.3,281.11,1.0
2018-09-10 19:40:00,88.6548,45.77291,921.949,266.46,86.8,826.8,1.78,0.88,77.98,58.9,55.63,244.17,281.23,56.89,55.28,244.25,281.16,1.0
2018-09-10 19:40:00,88.6548,45.7729,921.939,266.46,86.8,826.9,2.19,0.74,77.94,57.07,55.7,244.16,281.04,56.58,55.24,244.28,281.03,1.0
2018-09-10 19:40:00,88.6548,45.7729,921.936,266.46,86.8,826.9,2.52,0.9,77.91,57.33,55.63,244.17,281.34,56.43,55.23,244.39,280.95,1.0
2018-09-10 19:40:00,88.6548,45.77289,921.949,266.46,86.8,826.8,3.1,0.87,77.83,58.44,55.77,245.2,280.86,56.48,55.25,244.44,280.93,1.0
2018-09-10 19:40:00,88.6548,45.77289,921.968,266.46,86.8,826.6,3.19,0.99,77.81,57.72,55.42,244.21,281.54,56.71,55.3,244.46,280.87,1.0
2018-09-10 19:40:00,88.6548,45.77288,921.971,266.46,86.9,826.6,3.32,0.98,77.8,57.46,55.56,243.54,281.1,57.07,55.37,244.46,280.79,1.0
2018-09-10 19:40:00,88.6548,45.77288,921.943,266.46,86.8,826.8,3.7,0.74,77.76,58.7,55.42,244.82,279.72,57.52,55.46,244.44,280.74,1.0
2018-09-10 19:40:00,88.6548,45.77287,921.962,266.46,86.9,826.7,3.38,0.89,77.79,57.4,55.63,244.95,280.55,57.97,55.56,244.42,280.72,1.0
2018-09-10 19:40:00,88.6548,45.77286,921.99,266.46,86.9,826.4,4.04,0.89,77.75,57.2,55.7,244.34,281.64,58.36,55.66,244.39,280.74,1.0
2018-09-10 19:40:00,88.6548,45.77285,921.982,266.46,86.9,826.5,3.87,0.91,77.74,57.66,55.63,244.19,281.33,58.61,55.75,244.3,280.83,1.0
2018-09-10 19:40:00,88.6548,45.77285,921.985,266.46,86.9,826.5,3.71,0.87,77.73,57.2,55.56,244.06,281.32,58.69,55.83,244.32,280.86,1.0
2018-09-10 19:40:00,88.6548,45.77284,922.006,266.46,86.9,826.3,3.64,0.82,77.71,58.12,55.56,244.16,281.04,58.58,55.89,244.37,280.92,1.0
2018-09-10 19:40:00,88.6548,45.77283,922.009,266.46,86.9,826.3,3.41,0.86,77.72,58.25,55.7,244.27,281.33,58.29,55.93,244.35,281.1,1.0
2018-09-10 19:40:00,88.6548,45.77282,921.975,266.46,86.9,826.6,3.35,0.77,77.72,57.59,55.56,244.36,281.33,57.87,55.94,244.33,281.21,1.0
2018-09-10 19:40:00,88.6548,45.77282,921.964,266.46,86.9,826.7,3.36,0.78,77.72,57.13,55.56,244.36,281.23,57.37,55.94,244.46,281.33,1.0
2018-09-10 19:40:00,88.6548,45.77281,921.975,266.46,86.9,826.6,3.27,0.83,77.75,58.9,55.63,244.08,281.24,56.85,55.91,244.54,281.39,1.0
2018-09-10 19:40:00,88.6548,45.7728,921.982,266.46,86.9,826.5,3.27,0.87,77.76,58.51,55.77,244.54,280.85,56.38,55.86,244.57,281.39,1.0
2018-09-10 19:40:00,88.6548,45.7728,921.959,266.45,86.9,826.7,3.41,0.87,77.75,58.9,55.63,244.17,280.48,56.01,55.79,244.58,281.35,1.0
2018-09-10 19:40:00,88.6548,45.77279,921.951,266.46,86.9,826.8,3.34,0.9,77.76,57.53,55.56,244.36,280.26,55.77,55.7,244.54,281.27,1.0
2018-09-10 19:40:00,88.6548,45.77278,921.973,266.46,86.9,826.6,3.4,0.79,77.78,57.2,55.7,245.16,282.04,55.67,55.61,244.48,281.1,1.0
2018-09-10 19:40:00,88.6548,45.77278,922.004,266.46,86.9,826.3,3.29,0.69,77.81,57.0,55.7,244.54,281.24,55.68,55.52,244.39,280.97,1.0
2018-09-10 19:40:00,88.6548,45.77277,922.022,266.46,86.9,826.2,3.15,0.51,77.81,57.13,55.77,244.17,281.13,55.79,55.42,244.28,280.82,1.0
2018-09-10 19:40:00,88.6548,45.77276,922.03,266.46,86.9,826.1,3.18,0.41,77.77,56.94,55.63,244.27,281.23,55.94,55.33,244.17,280.69,1.0
2018-09-10 19:40:00,88.6548,45.77276,922.056,266.46,86.9,825.9,3.48,0.64,77.71,57.59,55.56,244.45,281.14,56.11,55.25,244.07,280.69,1.0
2018-09-10 19:40:00,88.65481,45.77275,922.047,266.46,86.9,826.0,3.49,0.31,77.68,57.33,55.56,244.17,280.45,56.26,55.19,244.0,280.72,1.0
2018-09-10 19:40:00,88.65481,45.77275,922.051,266.46,86.9,826.0,3.25,0.2,77.72,58.38,55.77,244.45,281.0,56.36,55.14,243.85,280.73,1.0
2018-09-10 19:40:00,88.65481,45.77274,922.048,266.46,86.9,826.0,3.6,0.23,77.7,58.18,55.63,244.24,280.63,56.43,55.11,243.82,280.73,1.0
2018-09-10 19:40:00,88.65481,45.77274,922.038,266.46,86.9,826.1,3.91,0.21,77.68,56.81,55.56,244.15,280.41,56.46,55.1,243.89,280.71,1.0
2018-09-10 19:40:00,88.65481,45.77273,922.032,266.46,86.9,826.1,3.54,0.05,77.74,56.94,55.56,244.18,281.44,56.48,55.11,243.96,280.7,1.0
2018-09-10 19:40:00,88.65481,45.77272,922.058,266.46,86.9,825.9,3.65,0.27,77.77,57.85,55.56,244.36,281.33,56.52,55.13,244.05,280.66,1.0
2018-09-10 19:40:00,88.65481,45.77272,922.054,266.46,86.9,825.9,3.29,0.26,77.8,57.53,55.56,243.78,282.23,56.59,55.15,244.15,280.63,1.0
2018-09-10 19:40:00,88.65481,45.77271,922.064,266.46,86.9,825.9,3.04,0.4,77.83,57.72,55.36,244.25,281.14,56.73,55.19,244.3,280.71,1.0
2018-09-10 19:40:00,88.65481,45.77271,922.085,266.46,86.9,825.7,3.01,0.25,77.84,56.61,55.56,244.26,280.39,56.94,55.22,244.42,280.86,1.0
2018-09-10 19:40:00,88.65481,45.7727,922.097,266.46,86.9,825.6,3.06,-0.07,77.84,56.15,55.56,244.18,280.65,57.2,55.26,244.48,280.96,1.0
2018-09-10 19:40:00,88.65481,45.7727,922.083,266.46,86.9,825.7,2.82,0.36,77.93,57.33,55.56,244.27,279.82,57.52,55.3,244.53,280.95,1.0
2018-09-10 19:40:00,88.65481,45.77269,922.081,266.46,86.9,825.7,3.45,-0.13,77.87,57.98,55.63,244.09,279.31,57.87,55.35,244.5,280.94,1.0
2018-09-10 19:40:00,88.65481,45.77268,922.085,266.46,86.9,825.7,2.95,0.01,77.97,57.46,55.63,244.84,281.23,58.22,55.39,244.48,280.84,1.0
2018-09-10 19:40:00,88.65481,45.77267,922.094,266.46,86.9,825.6,2.81,-0.02,78.05,56.35,55.42,244.35,281.76,58.55,55.44,244.41,280.84,1.0
2018-09-10 19:40:00,88.65481,45.77266,922.105,266.46,86.9,825.5,2.93,-0.2,78.1,58.05,55.29,244.17,281.09,58.86,55.49,244.28,280.95,1.0
2018-09-10 19:40:00,88.65481,45.77265,922.116,266.46,86.9,825.4,2.33,-0.04,78.2,57.0,55.42,244.68,280.71,59.11,55.54,244.14,281.11,1.0
2018-09-10 19:40:00,88.65481,45.77264,922.134,266.46,86.9,825.3,2.44,-0.25,78.22,58.38,55.56,244.32,280.92,59.3,55.59,244.15,281.24,1.0
2018-09-10 19:40:00,88.65481,45.77263,922.141,266.46,86.9,825.2,2.08,-0.12,78.29,57.66,55.63,244.37,281.12,59.43,55.63,244.15,281.37,1.0
2018-09-10 19:40:00,88.65481,45.77262,922.15,266.46,86.9,825.2,1.91,-0.2,78.35,57.2,55.56,244.19,281.79,59.49,55.67,244.11,281.4,1.0
2018-09-10 19:40:00,88.65481,45.77262,922.146,266.46,86.9,825.2,1.8,-0.23,78.42,56.87,55.42,243.94,281.9,59.46,55.69,244.05,281.35,1.0
2018-09-10 19:40:00,88.65481,45.77261,922.111,266.46,86.9,825.5,1.63,-0.04,78.5,56.81,55.49,243.44,282.46,59.34,55.7,243.97,281.34,1.0
2018-09-10 19:40:00,88.65481,45.7726,922.104,266.46,86.9,825.5,1.7,-0.28,78.6,58.7,55.49,244.86,282.13,59.13,55.69,243.91,281.55,1.0
2018-09-10 19:40:00,88.65481,45.77259,922.145,266.46,86.9,825.2,1.64,-0.03,78.74,57.92,55.63,244.53,281.24,58.81,55.67,243.89,281.75,1.0
2018-09-10 19:40:00,88.65481,45.77258,922.142,266.46,86.9,825.2,1.43,-0.19,78.87,57.59,55.56,244.18,281.88,58.4,55.63,243.94,281.85,1.0
2018-09-10 19:40:00,88.65481,45.77257,922.13,266.46,86.9,825.3,1.22,-0.27,79.0,57.72,55.56,243.66,281.4,57.89,55.58,243.98,281.88,1.0
2018-09-10 19:40:00,88.65481,45.77256,922.144,266.46,86.9,825.2,1.14,-0.15,79.1,57.85,55.42,242.84,280.95,57.32,55.52,244.01,281.89,1.0
2018-09-10 19:40:00,88.65481,45.77255,922.175,266.46,86.9,824.9,1.33,-0.11,79.18,58.12,55.49,243.03,282.73,56.73,55.46,243.99,281.89,1.0
2018-09-10 19:40:00,88.65481,45.77254,922.174,266.46,86.9,825.0,1.18,-0.08,79.3,58.31,55.7,243.31,282.8,56.15,55.41,243.82,281.76,1.0
2018-09-10 19:40:00,88.65481,45.77253,922.165,266.46,86.9,825.0,1.37,-0.09,79.39,57.53,55.56,243.88,281.67,55.65,55.36,243.78,281.77,1.0
2018-09-10 19:40:00,88.65481,45.77252,922.171,266.46,86.9,825.0,1.54,-0.04,79.48,57.13,55.49,244.29,281.12,55.27,55.33,243.66,281.73,1.0
2018-09-10 19:40:00,88.65481,45.77251,922.183,266.46,86.9,824.9,1.69,-0.01,79.57,57.46,55.56,243.92,281.99,55.06,55.3,243.55,281.69,1.0
2018-09-10 19:40:00,88.65481,45.7725,922.165,266.46,86.9,825.0,1.93,-0.06,79.67,57.92,55.49,243.33,282.29,55.04,55.29,243.53,281.65,1.0
2018-09-10 19:40:00,88.65481,45.7725,922.164,266.46,86.9,825.0,1.95,0.1,79.78,57.98,55.42,243.14,280.19,55.22,55.28,243.51,281.45,1.0
2018-09-10 19:40:00,88.65481,45.77249,922.179,266.46,86.9,824.9,2.15,0.13,79.86,56.48,55.49,244.38,281.15,55.59,55.27,243.55,281.25,1.0
2018-09-10 19:40:00,88.65481,45.77248,922.177,266.46,86.9,824.9,2.15,0.15,79.97,57.85,55.56,243.83,281.03,56.12,55.26,243.58,281.17,1.0
2018-09-10 19:40:00,88.65481,45.77247,922.165,266.46,86.9,825.0,2.13,0.16,80.08,57.0,55.42,243.3,280.93,56.75,55.26,243.63,281.15,1.0
2018-09-10 19:40:00,88.65481,45.77247,922.174,266.45,86.9,825.0,2.2,0.12,80.17,57.59,55.63,243.23,281.12,57.43,55.25,243.72,281.1,1.0
2018-09-10 19:40:00,88.65481,45.77246,922.204,266.46,86.9,824.7,2.05,0.02,80.28,56.61,55.49,243.38,281.33,58.12,55.25,243.87,281.04,1.0
2018-09-10 19:40:00,88.65481,45.77245,922.187,266.46,86.9,824.8,2.12,0.11,80.36,57.0,55.42,243.84,281.14,58.75,55.25,243.97,281.31,1.0
2018-09-10 19:40:00,88.65481,45.77244,922.191,266.45,86.9,824.8,2.13,0.1,80.45,56.22,55.42,243.89,281.42,59.31,55.26,243.92,281.48,1.0
2018-09-10 19:40:00,88.65481,45.77244,922.206,266.45,86.9,824.7,1.99,0.18,80.58,57.92,55.42,244.39,280.93,59.78,55.28,243.98,281.57,1.0
2018-09-10 19:40:00,88.65481,45.77243,922.216,266.46,86.9,824.6,1.88,0.25,80.73,57.4,55.49,244.11,281.22,60.15,55.32,244.12,281.62,1.0
2018-09-10 19:40:00,88.65481,45.77242,922.221,266.45,86.9,824.6,1.98,0.07,80.87,58.77,55.36,244.39,281.34,60.44,55.37,244.23,281.66,1.0
2018-09-10 19:40:00,88.65481,45.77242,922.205,266.45,86.9,824.7,1.56,0.19,81.04,57.4,55.7,243.54,282.72,60.65,55.42,244.31,281.69,1.0
2018-09-10 19:40:00,88.65481,45.77241,922.213,266.45,86.9,824.6,1.88,0.24,81.12,58.51,55.42,243.56,282.59,60.8,55.48,244.33,281.7,1.0
2018-09-10 19:40:00,88.65481,45.7724,922.222,266.45,86.9,824.6,1.83,0.27,81.23,57.33,55.42,243.55,282.03,60.88,55.54,244.3,281.7,1.0
2018-09-10 19:40:00,88.65481,45.77239,922.227,266.46,86.9,824.5,1.71,0.33,81.34,57.4,55.29,244.11,281.22,60.89,55.6,244.26,281.69,1.0
2018-09-10 19:40:00,88.65481,45.77239,922.233,266.45,86.9,824.5,1.93,0.4,81.39,57.59,55.42,244.2,281.13,60.81,55.63,244.2,281.67,1.0
2018-09-10 19:40:00,88.65481,45.77238,922.239,266.46,86.9,824.4,2.35,0.3,81.42,56.74,55.49,244.19,281.12,60.64,55.65,244.16,281.62,1.0
2018-09-10 19:40:00,88.65481,45.77237,922.241,266.46,86.9,824.4,2.41,0.4,81.48,58.97,55.56,244.38,281.03,60.35,55.65,244.18,281.43,1.0
2018-09-10 19:40:00,88.65481,45.77237,922.254,266.46,86.9,824.3,2.72,0.3,81.51,58.05,55.36,244.47,281.32,59.94,55.62,244.22,281.28,1.0
2018-09-10 19:40:00,88.65481,45.77236,922.275,266.46,86.9,824.1,2.76,0.24,81.56,58.7,55.56,244.38,281.33,59.43,55.58,244.26,281.26,1.0
2018-09-10 19:40:00,88.65481,45.77235,922.296,266.46,86.9,824.0,2.6,0.27,81.61,58.12,55.56,244.38,281.32,58.85,55.51,244.29,281.31,1.0
2018-09-10 19:40:00,88.65481,45.77235,922.304,266.45,86.9,823.9,2.97,0.21,81.61,58.44,55.36,244.38,281.22,58.26,55.44,244.28,281.26,1.0
2018-09-10 19:40:00,88.65481,45.77234,922.294,266.45,86.9,824.0,2.56,0.15,81.69,58.64,55.63,244.39,281.12,57.71,55.35,244.23,281.16,1.0
2018-09-10 19:40:00,88.65481,45.77233,922.276,266.45,86.9,824.1,2.38,0.16,81.76,58.9,55.49,244.11,281.67,57.28,55.27,244.32,281.18,1.0
2018-09-10 19:40:00,88.65481,45.77233,922.263,266.45,86.9,824.2,2.16,0.13,81.84,58.38,55.56,244.77,282.12,57.02,55.19,244.37,281.25,1.0
2018-09-10 19:40:00,88.65481,45.77232,922.262,266.45,86.9,824.2,1.87,0.06,81.9,57.79,55.29,244.91,282.18,56.98,55.13,244.37,281.33,1.0
2018-09-10 19:40:00,88.65481,45.77232,922.279,266.45,86.9,824.1,1.61,0.03,81.92,56.94,55.7,244.47,280.98,57.15,55.09,244.36,281.41,1.0
2018-09-10 19:40:00,88.65481,45.77231,922.291,266.46,86.9,824.0,1.46,0.17,81.95,57.92,55.29,243.7,280.38,57.51,55.07,244.29,281.49,1.0
2018-09-10 19:40:00,88.65481,45.7723,922.295,266.45,86.9,824.0,1.32,0.17,81.99,58.77,55.29,245.23,281.28,58.01,55.09,244.36,281.58,1.0
2018-09-10 19:40:00,88.65481,45.7723,922.294,266.45,86.9,824.0,1.3,0.12,82.01,57.72,55.42,244.94,282.02,58.56,55.13,244.31,281.54,1.0
2018-09-10 19:40:00,88.65481,45.7723,922.294,266.45,86.9,824.0,1.32,0.12,82.04,57.33,55.42,244.39,281.82,59.06,55.21,244.18,281.49,1.0
2018-09-10 19:40:00,88.65481,45.77229,922.3,266.45,86.9,823.9,1.32,0.16,82.06,58.38,55.63,243.99,281.86,59.41,55.31,244.04,281.51,1.0
2018-09-10 19:40:00,88.65481,45.77228,922.316,266.46,86.9,823.8,1.35,0.11,82.07,57.92,55.42,243.42,281.68,59.54,55.44,243.93,281.53,1.0
2018-09-10 19:40:00,88.65481,45.77228,922.337,266.46,86.9,823.6,1.46,0.21,82.08,59.1,55.36,244.92,281.73,59.4,55.58,243.86,281.6,1.0
2018-09-10 19:40:00,88.65481,45.77228,922.341,266.45,86.9,823.6,1.42,0.06,82.09,57.72,55.36,243.44,280.73,58.98,55.72,243.68,281.6,1.0
2018-09-10 19:40:00,88.65481,45.77227,922.334,266.45,86.9,823.7,1.35,0.05,82.1,58.64,55.29,243.0,281.08,58.32,55.84,243.55,281.53,1.0
2018-09-10 19:40:00,88.65481,45.77226,922.327,266.45,86.9,823.7,1.37,0.11,82.08,57.85,55.42,243.13,282.16,57.48,55.95,243.46,281.44,1.0
2018-09-10 19:41:00,88.65481,45.77226,922.334,266.45,86.9,823.7,1.55,-0.03,82.03,58.38,55.42,243.13,281.16,56.57,56.01,243.4,281.37,1.0
2018-09-10 19:41:00,88.65481,45.77226,922.322,266.45,86.9,823.8,1.37,0.04,82.04,58.84,55.56,243.15,281.09,55.71,56.03,243.42,281.31,1.0
2018-09-10 19:41:00,88.65481,45.77225,922.33,266.45,86.9,823.7,1.54,-0.12,82.01,58.57,55.36,243.57,281.67,55.0,56.0,243.33,281.27,1.0
2018-09-10 19:41:00,88.65481,45.77224,922.344,266.45,86.9,823.6,1.41,-0.1,82.01,57.59,55.49,243.54,281.41,54.53,55.93,243.39,281.33,1.0
2018-09-10 19:41:00,88.65481,45.77224,922.352,266.45,86.9,823.5,1.31,-0.06,81.99,57.59,55.56,243.28,281.39,54.37,55.81,243.52,281.35,1.0
2018-09-10 19:41:00,88.65481,45.77223,922.346,266.45,86.9,823.6,1.45,-0.13,81.92,59.29,55.63,243.41,281.23,54.53,55.67,243.65,281.31,1.0
2018-09-10 19:41:00,88.65481,45.77222,922.336,266.45,87.0,823.6,1.1,0.06,81.96,57.13,55.56,243.47,281.33,54.98,55.52,243.78,281.35,1.0
2018-09-10 19:41:00,88.65481,45.77222,922.343,266.45,86.9,823.6,1.46,0.27,81.86,56.35,55.42,243.64,281.13,55.68,55.37,243.89,281.38,1.0
2018-09-10 19:41:00,88.65481,45.77221,922.352,266.45,86.9,823.5,1.54,0.33,81.8,57.98,55.63,244.2,281.32,56.54,55.25,243.99,281.36,1.0
2018-09-10 19:41:00,88.65481,45.7722,922.371,266.45,86.9,823.4,1.64,0.29,81.74,57.72,55.56,244.39,281.14,57.44,55.16,244.09,281.35,1.0
2018-09-10 19:41:00,88.65481,45.7722,922.393,266.45,86.9,823.2,1.86,0.2,81.65,57.53,55.56,244.39,281.23,58.3,55.11,244.13,281.34,1.0
2018-09-10 19:41:00,88.65481,45.77219,922.365,266.44,86.9,823.4,2.04,0.09,81.54,57.46,55.36,244.19,281.04,59.03,55.11,244.04,281.27,1.0
2018-09-10 19:41:00,88.65481,45.77218,922.379,266.45,86.9,823.3,2.04,0.15,81.44,57.0,55.56,244.11,281.09,59.55,55.14,243.93,281.2,1.0
2018-09-10 19:41:00,88.65481,45.77218,922.416,266.45,86.9,823.0,1.98,-0.0,81.33,57.13,55.36,243.86,281.31,59.82,55.21,243.94,281.16,1.0
2018-09-10 19:41:00,88.65481,45.77217,922.426,266.45,86.9,822.9,1.65,0.02,81.25,58.77,55.42,244.49,281.04,59.85,55.29,243.94,281.12,1.0
2018-09-10 19:41:00,88.65481,45.77217,922.402,266.44,86.9,823.1,1.38,0.08,81.17,57.13,55.42,243.73,280.94,59.63,55.37,243.93,281.09,1.0
2018-09-10 19:41:00,88.65481,45.77216,922.379,266.45,86.9,823.3,1.51,-0.06,81.06,59.16,55.36,242.31,280.65,59.22,55.43,243.92,281.07,1.0
2018-09-10 19:41:00,88.65481,45.77216,922.384,266.45,86.9,823.2,1.14,-0.0,81.0,57.4,55.29,242.14,281.0,58.67,55.48,243.91,281.07,1.0
2018-09-10 19:41:00,88.65481,45.77215,922.398,266.45,86.9,823.1,1.28,-0.11,80.92,58.05,55.63,243.67,280.85,58.05,55.5,243.93,281.08,1.0
2018-09-10 19:41:00,88.65481,45.77214,922.417,266.45,86.9,823.0,1.12,0.01,80.83,58.97,55.63,244.4,281.33,57.43,55.48,243.88,281.2,1.0
2018-09-10 19:41:00,88.65481,45.77214,922.426,266.45,86.9,822.9,0.92,0.03,80.74,58.38,55.36,244.4,280.94,56.88,55.45,243.85,281.31,1.0
2018-09-10 19:41:00,88.65481,45.77213,922.419,266.45,86.9,823.0,0.84,-0.12,80.63,56.81,55.63,244.2,281.14,56.46,55.39,243.93,281.35,1.0
2018-09-10 19:41:00,88.65481,45.77213,922.42,266.45,86.9,823.0,0.56,0.13,80.53,57.13,55.42,244.39,281.33,56.2,55.33,244.13,281.43,1.0
2018-09-10 19:41:00,88.65481,45.77212,922.427,266.45,86.9,822.9,0.59,-0.07,80.4,58.18,55.49,244.3,281.23,56.14,55.27,244.33,281.48,1.0
