Date/Time,Latitude,Longitude,PPPP [hPa],TTT grad [K],RH [%],Height [m],Pitch [deg],Roll [deg],Yaw [deg],SWD [W/m**2] (raw),SWU [W/m**2] (raw),LWD [W/m**2] (raw),LWU [W/m**2] (raw),SWD [W/m**2] (corrected),SWU [W/m**2] (corrected),LWD [W/m**2] (corrected),LWU [W/m**2] (corrected),Flag
2018-09-10 19:17:00,88.65386,45.83564,1028.085,262.04,93.3,2.3,-0.34,-0.77,72.73,29.45,18.87,254.43,269.96,29.67,18.6,252.26,270.91,0.0
2018-09-10 19:17:00,88.65386,45.83564,1028.067,262.04,93.3,2.4,-0.53,-0.55,72.03,28.99,18.87,254.17,270.62,29.51,18.63,252.09,270.84,0.0
2018-09-10 19:17:00,88.65386,45.83564,1028.067,262.04,93.3,2.4,-0.52,-0.58,71.32,29.38,18.87,254.26,271.19,29.31,18.67,251.96,270.8,0.0
2018-09-10 19:17:00,88.65386,45.83564,1028.07,262.04,93.3,2.4,-0.45,-0.6,70.65,29.45,18.8,254.41,271.15,29.09,18.71,251.83,270.76,0.0
2018-09-10 19:17:00,88.65386,45.83564,1028.059,262.04,93.3,2.5,-0.61,-0.24,70.04,29.58,18.8,253.94,270.54,28.87,18.75,251.69,270.68,0.0
2018-09-10 19:17:00,88.65386,45.83564,1028.087,262.04,93.3,2.3,-0.45,-0.5,69.42,29.45,18.94,253.88,270.65,28.68,18.8,251.61,270.68,0.0
2018-09-10 19:17:00,88.65386,45.83564,1028.083,262.04,93.3,2.3,-0.17,-0.38,68.78,29.45,18.87,253.71,270.27,28.52,18.86,251.59,270.6,0.0
2018-09-10 19:17:00,88.65386,45.83564,1028.079,262.04,93.3,2.3,-0.19,-0.41,68.17,29.38,18.87,253.99,270.23,28.43,18.93,251.52,270.41,0.0
2018-09-10 19:17:00,88.65386,45.83564,1028.089,262.04,93.3,2.2,-0.29,-0.46,67.55,29.19,18.87,253.68,270.38,28.4,19.02,251.46,270.16,0.0
2018-09-10 19:17:00,88.65386,45.83564,1028.11,262.04,93.3,2.1,-0.28,-0.46,66.92,28.99,18.87,253.88,270.1,28.45,19.13,251.48,269.95,0.0
2018-09-10 19:17:00,88.65386,45.83564,1028.094,262.04,93.3,2.2,-0.22,-0.55,66.33,29.06,18.87,253.83,270.24,28.56,19.25,251.57,269.8,0.0
2018-09-10 19:17:00,88.65386,45.83565,1028.079,262.04,93.3,2.3,-0.34,-0.58,65.77,28.99,18.73,253.71,269.39,28.71,19.4,251.62,269.58,0.0
2018-09-10 19:17:00,88.65386,45.83565,1028.062,262.04,93.3,2.4,-0.41,-0.62,65.21,29.25,18.94,252.51,268.83,28.9,19.55,251.69,269.4,0.0
2018-09-10 19:17:00,88.65386,45.83565,1028.05,262.04,93.3,2.5,-0.51,-0.62,64.66,29.32,18.66,252.69,268.98,29.09,19.72,251.69,269.19,0.0
2018-09-10 19:17:00,88.65386,45.83565,1028.048,262.04,93.3,2.5,-0.62,-0.6,64.15,29.25,19.07,253.7,269.47,29.27,19.88,251.66,268.99,0.0
2018-09-10 19:17:00,88.65386,45.83565,1028.054,262.04,93.3,2.5,-0.64,-0.62,63.66,29.12,19.07,253.91,269.62,29.42,20.05,251.65,268.84,0.0
2018-09-10 19:17:00,88.65386,45.83565,1028.053,262.04,93.3,2.5,-0.69,-0.61,63.23,29.38,18.8,253.52,268.65,29.52,20.21,251.57,268.68,0.0
2018-09-10 19:17:00,88.65386,45.83565,1028.061,262.04,93.3,2.4,-0.77,-0.53,62.83,28.86,18.94,253.98,268.62,29.55,20.35,251.55,268.61,0.0
2018-09-10 19:17:00,88.65386,45.83566,1028.052,262.04,93.3,2.5,-0.77,-0.53,62.45,29.25,19.07,253.7,268.39,29.51,20.47,251.61,268.56,0.0
2018-09-10 19:17:00,88.65386,45.83566,1028.035,262.04,93.3,2.6,-0.81,-0.57,62.12,29.19,19.07,253.44,268.25,29.42,20.58,251.63,268.47,0.0
2018-09-10 19:17:00,88.65386,45.83566,1028.05,262.04,93.3,2.5,-0.96,-0.56,61.83,29.25,19.07,253.92,268.54,29.26,20.68,251.58,268.36,0.0
2018-09-10 19:17:00,88.65386,45.83566,1028.041,262.04,93.3,2.6,-0.89,-0.53,61.5,29.19,19.21,253.37,268.5,29.07,20.76,251.55,268.33,0.0
2018-09-10 19:17:00,88.65386,45.83566,1028.024,262.04,93.3,2.7,-1.02,-0.47,61.22,29.45,19.21,253.98,268.67,28.86,20.84,251.61,268.42,0.0
2018-09-10 19:17:00,88.65386,45.83566,1028.015,262.04,93.3,2.8,-1.03,-0.43,60.97,29.25,19.28,253.41,268.1,28.66,20.93,251.63,268.51,0.0
2018-09-10 19:17:00,88.65386,45.83566,1028.011,262.04,93.3,2.8,-0.95,-0.48,60.74,29.38,19.14,252.98,267.4,28.47,21.03,251.69,268.6,0.0
2018-09-10 19:17:00,88.65386,45.83566,1028.005,262.04,93.3,2.9,-0.81,-0.57,60.54,28.99,19.28,252.47,267.14,28.33,21.15,251.76,268.69,0.0
2018-09-10 19:17:00,88.65386,45.83566,1028.006,262.04,93.3,2.9,-0.48,-0.57,60.36,29.19,19.35,252.89,268.68,28.25,21.3,251.77,268.76,0.0
2018-09-10 19:17:00,88.65386,45.83566,1028.003,262.04,93.3,2.9,-0.58,-0.57,60.24,29.06,19.35,253.72,269.17,28.22,21.47,251.84,268.83,0.0
2018-09-10 19:17:00,88.65386,45.83566,1027.972,262.04,93.3,3.1,-0.66,-0.49,60.18,29.06,19.56,253.51,269.03,28.25,21.66,251.76,268.85,0.0
2018-09-10 19:17:00,88.65386,45.83566,1027.95,262.04,93.3,3.3,-0.59,-0.35,60.11,29.25,19.49,253.89,268.97,28.34,21.86,251.72,268.93,0.0
2018-09-10 19:17:00,88.65386,45.83566,1027.947,262.04,93.3,3.3,-0.5,-0.25,60.07,29.12,19.63,253.78,269.1,28.46,22.08,251.78,269.03,0.0
2018-09-10 19:17:00,88.65386,45.83566,1027.929,262.04,93.3,3.4,-0.56,-0.29,60.13,28.99,19.56,253.53,269.04,28.61,22.29,251.82,269.14,0.0
2018-09-10 19:17:00,88.65386,45.83566,1027.973,262.04,93.3,3.1,-0.23,-0.22,60.18,28.86,19.49,253.97,269.0,28.75,22.5,251.8,269.36,0.0
2018-09-10 19:17:00,88.65386,45.83566,1027.959,262.04,93.3,3.2,-0.35,-0.26,60.24,28.93,19.7,252.8,268.76,28.88,22.7,251.72,269.47,0.0
2018-09-10 19:17:00,88.65386,45.83566,1027.937,262.04,93.3,3.4,-0.19,-0.11,60.32,28.99,19.97,253.21,268.91,28.97,22.87,251.64,269.61,0.0
2018-09-10 19:17:00,88.65386,45.83566,1027.936,262.04,93.3,3.4,-0.03,0.03,60.43,29.19,19.83,253.93,268.88,29.02,23.02,251.56,269.75,0.0
2018-09-10 19:17:00,88.65386,45.83566,1027.963,262.04,93.3,3.2,-0.14,-0.04,60.6,28.99,20.04,253.61,269.02,29.03,23.16,251.5,269.9,0.0
2018-09-10 19:17:00,88.65386,45.83566,1027.917,262.03,93.2,3.5,0.19,0.09,60.74,28.93,20.11,253.39,271.35,29.0,23.28,251.46,270.05,0.0
2018-09-10 19:17:00,88.65386,45.83566,1027.908,262.04,93.2,3.6,0.14,0.2,60.91,29.19,20.11,252.89,270.82,28.93,23.39,251.34,270.15,0.0
2018-09-10 19:17:00,88.65386,45.83566,1027.888,262.04,93.2,3.7,0.38,0.24,61.08,28.99,20.18,252.4,270.86,28.85,23.49,251.34,270.33,0.0
2018-09-10 19:17:00,88.65386,45.83566,1027.873,262.04,93.2,3.8,0.56,0.37,61.3,28.99,20.39,252.51,271.11,28.76,23.59,251.27,270.48,0.0
2018-09-10 19:17:00,88.65386,45.83566,1027.874,262.04,93.2,3.8,0.54,0.47,61.55,29.32,20.39,252.58,270.8,28.68,23.69,251.15,270.59,0.0
2018-09-10 19:17:00,88.65386,45.83566,1027.87,262.03,93.2,3.9,0.44,0.3,61.77,28.93,20.52,252.47,270.8,28.64,23.79,251.06,270.68,0.0
2018-09-10 19:17:00,88.65386,45.83566,1027.856,262.03,93.2,4.0,0.57,0.25,62.08,28.99,20.46,251.92,269.97,28.62,23.9,250.95,270.45,0.0
2018-09-10 19:17:00,88.65386,45.83565,1027.858,262.02,93.2,4.0,0.13,0.2,62.47,28.93,20.52,251.99,270.34,28.64,24.0,250.86,270.42,0.0
2018-09-10 19:17:00,88.65386,45.83565,1027.865,262.02,93.2,3.9,0.17,0.11,62.86,29.06,20.73,251.93,270.48,28.7,24.1,250.79,270.33,0.0
2018-09-10 19:17:00,88.65386,45.83565,1027.855,262.03,93.2,4.0,0.29,0.05,63.25,28.73,20.8,251.96,269.96,28.77,24.19,250.75,270.22,0.0
2018-09-10 19:17:00,88.65386,45.83565,1027.822,262.02,93.2,4.2,0.03,0.05,63.64,29.06,20.8,252.47,269.97,28.87,24.28,250.75,270.12,0.0
2018-09-10 19:17:00,88.65386,45.83565,1027.83,262.02,93.2,4.2,0.51,0.06,63.97,28.99,21.08,251.67,269.04,28.97,24.35,250.74,269.96,0.0
2018-09-10 19:17:00,88.65386,45.83564,1027.84,262.02,93.2,4.1,0.47,0.16,64.37,29.06,21.15,251.72,270.69,29.06,24.42,250.79,269.87,0.0
2018-09-10 19:17:00,88.65386,45.83564,1027.827,262.02,93.2,4.2,0.56,0.16,64.82,28.47,21.08,251.95,270.33,29.14,24.49,250.83,269.7,0.0
2018-09-10 19:17:00,88.65386,45.83564,1027.811,262.01,93.2,4.3,0.68,0.13,65.31,29.19,21.28,252.19,270.02,29.19,24.56,250.89,269.55,0.0
2018-09-10 19:17:00,88.65386,45.83564,1027.82,262.02,93.2,4.2,0.69,0.15,65.8,29.19,21.28,252.39,270.35,29.22,24.63,250.94,269.45,0.0
2018-09-10 19:17:00,88.65386,45.83564,1027.779,262.02,93.2,4.5,0.71,0.19,66.3,28.86,21.28,252.26,269.66,29.21,24.7,250.93,269.33,0.0
2018-09-10 19:17:00,88.65386,45.83564,1027.774,262.02,93.2,4.6,1.01,0.31,66.81,29.12,21.36,252.45,269.57,29.19,24.78,251.0,269.32,0.0
2018-09-10 19:17:00,88.65386,45.83564,1027.754,262.02,93.2,4.7,1.19,0.59,67.32,28.99,21.7,252.48,269.43,29.14,24.86,251.02,269.08,0.0
2018-09-10 19:17:00,88.65386,45.83564,1027.762,262.02,93.2,4.7,1.22,0.52,67.85,29.06,21.49,252.66,269.56,29.07,24.94,251.03,268.93,0.0
2018-09-10 19:17:00,88.65386,45.83563,1027.78,262.01,93.2,4.5,1.09,0.35,68.4,28.99,21.7,252.4,269.48,28.98,25.01,250.99,268.85,0.0
2018-09-10 19:17:00,88.65386,45.83563,1027.736,262.0,93.2,4.9,0.87,0.47,68.99,28.99,21.91,251.99,269.41,28.89,25.07,250.93,268.76,0.0
2018-09-10 19:17:00,88.65386,45.83563,1027.729,262.0,93.2,4.9,1.09,0.25,69.56,28.86,21.84,252.64,269.38,28.79,25.12,250.94,268.82,0.0
2018-09-10 19:17:00,88.65386,45.83563,1027.703,261.99,93.1,5.1,1.02,0.37,70.24,28.99,22.05,252.2,268.41,28.69,25.15,250.93,268.82,0.0
2018-09-10 19:17:00,88.65386,45.83563,1027.707,261.99,93.1,5.1,1.28,0.12,70.85,29.06,21.98,252.11,269.01,28.59,25.18,250.95,268.86,0.0
2018-09-10 19:17:00,88.65386,45.83563,1027.733,262.0,93.1,4.9,1.26,-0.03,71.49,28.99,21.98,251.8,269.63,28.51,25.2,250.97,268.9,0.0
2018-09-10 19:17:00,88.65386,45.83562,1027.729,262.0,93.1,4.9,0.82,0.15,72.2,29.06,22.18,251.99,269.65,28.45,25.22,250.97,268.89,0.0
2018-09-10 19:17:00,88.65386,45.83562,1027.674,262.0,93.1,5.3,1.22,-0.07,72.82,28.8,22.32,252.64,270.21,28.42,25.25,250.97,268.82,0.0
2018-09-10 19:17:00,88.65386,45.83562,1027.682,262.0,93.1,5.3,0.15,-0.07,73.6,29.12,22.32,252.31,269.69,28.42,25.3,250.87,268.79,0.0
2018-09-10 19:17:00,88.65386,45.83562,1027.687,262.0,93.1,5.2,0.78,-0.09,74.23,28.86,22.53,252.74,270.12,28.45,25.37,250.85,268.85,0.0
2018-09-10 19:17:00,88.65386,45.83562,1027.685,262.0,93.1,5.2,0.92,-0.11,74.91,29.12,22.6,252.62,269.73,28.52,25.46,250.85,268.8,0.0
2018-09-10 19:17:00,88.65386,45.83561,1027.681,261.99,93.1,5.3,0.67,-0.09,75.62,28.86,22.39,252.15,269.17,28.61,25.57,250.73,268.67,0.0
2018-09-10 19:17:00,88.65386,45.83561,1027.686,261.99,93.1,5.2,1.75,-0.03,76.26,28.66,22.53,251.85,268.48,28.72,25.68,250.4,268.5,0.0
2018-09-10 19:17:00,88.65386,45.83561,1027.67,261.98,93.1,5.4,0.89,-0.1,77.04,28.93,22.53,250.96,269.08,28.83,25.79,250.1,268.3,0.0
2018-09-10 19:17:00,88.65386,45.83561,1027.63,261.98,93.1,5.7,1.06,-0.13,77.78,28.8,22.81,251.96,268.74,28.94,25.88,249.88,268.19,0.0
2018-09-10 19:17:00,88.65386,45.83561,1027.59,261.98,93.1,6.0,1.17,-0.15,78.56,28.99,22.94,252.07,268.58,29.01,25.93,249.64,268.1,0.0
2018-09-10 19:17:00,88.65386,45.8356,1027.574,261.97,93.1,6.1,1.07,-0.19,79.37,28.6,22.94,250.71,268.27,29.06,25.95,249.4,268.04,0.0
2018-09-10 19:17:00,88.65386,45.8356,1027.592,261.98,93.1,5.9,1.41,-0.24,80.17,28.8,23.01,248.7,268.15,29.05,25.93,249.2,268.05,0.0
2018-09-10 19:17:00,88.65386,45.8356,1027.611,261.97,93.1,5.8,1.57,-0.21,81.02,29.06,23.15,249.72,268.4,29.0,25.88,249.07,268.16,0.0
2018-09-10 19:17:00,88.65386,45.8356,1027.621,261.98,93.1,5.7,1.31,-0.29,81.91,28.99,23.15,250.06,268.95,28.91,25.79,249.04,268.22,0.0
2018-09-10 19:17:00,88.65386,45.83559,1027.606,261.98,93.1,5.8,1.47,-0.29,82.77,29.19,23.22,250.04,269.23,28.78,25.7,248.93,268.3,0.0
2018-09-10 19:17:00,88.65386,45.83559,1027.581,261.97,93.1,6.0,1.61,-0.23,83.68,28.99,23.15,249.72,269.16,28.63,25.62,248.81,268.4,0.0
2018-09-10 19:17:00,88.65386,45.83559,1027.59,261.98,93.1,6.0,1.11,-0.21,84.68,28.93,23.43,249.66,269.01,28.48,25.55,248.75,268.51,0.0
2018-09-10 19:17:00,88.65386,45.83559,1027.583,261.97,93.1,6.0,1.64,-0.34,85.66,28.73,23.36,250.04,268.77,28.34,25.53,248.8,268.62,0.0
2018-09-10 19:17:00,88.65386,45.83558,1027.577,261.97,93.1,6.0,0.89,-0.5,86.76,28.86,23.5,250.36,269.19,28.22,25.54,248.79,268.65,0.0
2018-09-10 19:17:00,88.65386,45.83558,1027.568,261.97,93.1,6.1,0.88,-0.53,87.84,28.73,23.7,250.18,268.96,28.15,25.6,248.74,268.65,0.0
2018-09-10 19:17:00,88.65386,45.83558,1027.567,261.98,93.1,6.1,0.92,-0.54,88.96,28.99,23.36,249.94,269.05,28.13,25.69,248.7,268.61,0.0
2018-09-10 19:17:00,88.65386,45.83558,1027.582,261.98,93.1,6.0,0.51,-0.58,90.09,28.8,23.64,250.0,268.77,28.15,25.8,248.68,268.53,0.0
2018-09-10 19:17:00,88.65386,45.83558,1027.564,261.98,93.1,6.1,1.09,-0.4,91.18,28.73,23.57,249.21,268.65,28.22,25.92,248.64,268.41,0.0
2018-09-10 19:17:00,88.65386,45.83557,1027.538,261.98,93.1,6.3,0.48,-0.6,92.38,28.8,23.57,249.63,268.68,28.32,26.01,248.62,268.29,0.0
2018-09-10 19:17:00,88.65386,45.83557,1027.527,261.98,93.1,6.4,0.65,-0.66,93.56,28.86,23.7,250.22,268.98,28.44,26.07,248.55,268.14,0.0
2018-09-10 19:17:00,88.65386,45.83557,1027.53,261.98,93.1,6.4,0.82,-0.65,94.78,28.53,23.84,250.5,269.13,28.57,26.09,248.56,268.02,0.0
2018-09-10 19:17:00,88.65386,45.83556,1027.53,261.98,93.1,6.4,0.93,-0.59,95.99,28.86,23.84,250.36,268.96,28.7,26.06,248.6,267.93,0.0
2018-09-10 19:17:00,88.65387,45.83556,1027.517,261.98,93.1,6.5,1.14,-0.46,97.24,28.86,23.91,250.18,268.56,28.8,26.0,248.69,267.87,0.0
2018-09-10 19:17:00,88.65387,45.83556,1027.521,261.97,93.1,6.5,1.6,-0.32,98.46,28.6,24.05,250.31,268.77,28.86,25.91,248.9,267.82,0.0
2018-09-10 19:17:00,88.65387,45.83555,1027.505,261.97,93.1,6.6,0.75,-0.61,99.8,28.86,24.05,250.1,268.59,28.89,25.8,248.95,267.66,0.0
2018-09-10 19:17:00,88.65387,45.83555,1027.514,261.97,93.1,6.5,0.86,-0.62,101.05,28.6,24.33,250.06,268.78,28.88,25.7,249.01,267.62,0.0
2018-09-10 19:17:00,88.65387,45.83555,1027.51,261.97,93.1,6.5,0.76,-0.65,102.39,28.86,24.05,250.49,268.71,28.82,25.63,249.02,267.62,0.0
2018-09-10 19:17:00,88.65387,45.83554,1027.473,261.96,93.1,6.8,0.37,-0.76,103.76,29.06,24.33,250.4,268.56,28.74,25.59,248.98,267.59,0.0
2018-09-10 19:17:00,88.65387,45.83554,1027.483,261.96,93.1,6.8,1.25,-0.68,105.01,28.53,24.19,250.83,268.48,28.64,25.6,248.93,267.59,0.0
2018-09-10 19:17:00,88.65387,45.83554,1027.443,261.96,93.0,7.0,0.25,-0.72,106.39,28.66,24.12,249.52,266.63,28.53,25.64,248.89,267.56,0.0
2018-09-10 19:17:00,88.65387,45.83553,1027.422,261.96,93.0,7.2,0.46,-1.0,107.67,28.86,24.05,249.93,268.19,28.43,25.73,248.93,267.64,0.0
2018-09-10 19:17:00,88.65387,45.83553,1027.419,261.96,93.1,7.2,0.56,-1.03,108.87,28.93,24.12,250.3,268.86,28.35,25.84,248.92,267.73,0.0
2018-09-10 19:17:00,88.65387,45.83552,1027.414,261.96,93.1,7.3,0.52,-0.95,110.09,28.66,24.33,249.75,267.93,28.31,25.97,248.85,267.82,0.0
2018-09-10 19:17:00,88.65387,45.83552,1027.384,261.96,93.1,7.5,0.98,-1.22,111.31,28.73,24.33,250.02,268.05,28.31,26.1,248.79,267.89,0.0
2018-09-10 19:17:00,88.65387,45.83552,1027.382,261.97,93.1,7.5,0.46,-0.87,112.57,28.6,24.4,250.36,268.04,28.34,26.22,248.79,267.99,0.0
2018-09-10 19:17:00,88.65387,45.83551,1027.372,261.97,93.1,7.6,0.46,-1.11,113.78,29.19,24.74,250.94,269.08,28.41,26.32,248.91,268.23,0.0
2018-09-10 19:17:00,88.65387,45.83551,1027.37,261.97,93.1,7.6,0.11,-0.98,115.01,28.53,24.46,250.38,269.3,28.5,26.4,249.08,268.25,0.0
2018-09-10 19:17:00,88.65387,45.83551,1027.386,261.97,93.1,7.5,-0.19,-0.91,116.23,28.53,24.53,249.6,269.29,28.59,26.45,249.29,268.25,0.0
2018-09-10 19:17:00,88.65387,45.8355,1027.411,261.97,93.1,7.3,-0.25,-1.03,117.41,28.53,24.46,249.27,269.0,28.68,26.48,249.52,268.32,0.0
2018-09-10 19:17:00,88.65387,45.8355,1027.409,261.98,93.1,7.3,-0.45,-0.74,118.6,28.6,24.53,249.9,269.08,28.74,26.49,249.7,268.36,0.0
2018-09-10 19:17:00,88.65387,45.8355,1027.356,261.97,93.1,7.7,-0.53,-0.81,119.7,28.8,24.81,250.3,269.61,28.78,26.48,249.77,268.39,0.0
2018-09-10 19:17:00,88.65387,45.83549,1027.347,261.97,93.1,7.8,-0.55,-0.59,120.76,28.86,24.95,250.97,268.76,28.77,26.45,249.78,268.37,0.0
2018-09-10 19:17:00,88.65387,45.83549,1027.344,261.97,93.1,7.8,-0.83,-0.57,121.76,28.6,24.81,251.5,268.79,28.73,26.41,249.78,268.29,0.0
2018-09-10 19:17:00,88.65387,45.83548,1027.316,261.97,93.0,8.0,-1.23,-0.61,122.7,28.53,24.6,251.33,269.16,28.67,26.37,249.82,268.23,0.0
2018-09-10 19:17:00,88.65387,45.83548,1027.275,261.97,93.0,8.3,-1.33,-0.27,123.47,28.73,24.67,251.08,268.69,28.58,26.32,249.87,268.25,0.0
2018-09-10 19:17:00,88.65387,45.83548,1027.3,261.97,93.0,8.1,-1.69,-0.48,124.14,28.99,24.95,250.63,268.4,28.5,26.28,249.82,268.28,0.0
2018-09-10 19:17:00,88.65387,45.83547,1027.295,261.96,93.0,8.1,-1.2,-0.36,124.69,28.8,25.09,250.64,268.93,28.43,26.24,249.8,268.34,0.0
2018-09-10 19:17:00,88.65387,45.83547,1027.311,261.96,93.0,8.0,-1.25,-0.27,125.19,28.86,24.95,250.41,268.42,28.38,26.21,249.74,268.46,0.0
2018-09-10 19:17:00,88.65387,45.83546,1027.316,261.96,93.0,8.0,-1.29,-0.24,125.61,28.4,24.88,250.32,268.23,28.36,26.19,249.67,268.58,0.0
2018-09-10 19:17:00,88.65387,45.83546,1027.267,261.95,93.0,8.4,-1.04,-0.17,125.93,28.66,25.02,250.48,268.91,28.37,26.2,249.63,268.69,0.0
2018-09-10 19:17:00,88.65387,45.83546,1027.306,261.95,93.0,8.1,-1.84,0.14,126.26,28.73,25.16,249.85,268.83,28.4,26.23,249.56,268.72,0.0
2018-09-10 19:17:00,88.65387,45.83545,1027.297,261.94,93.0,8.1,-1.31,0.17,126.39,28.8,25.16,250.51,269.08,28.44,26.29,249.51,268.78,0.0
2018-09-10 19:17:00,88.65387,45.83545,1027.272,261.94,93.0,8.3,-1.51,0.41,126.52,28.27,25.22,250.19,268.94,28.47,26.36,249.42,268.77,0.0
2018-09-10 19:17:00,88.65387,45.83544,1027.257,261.94,93.0,8.4,-1.53,0.45,126.6,28.53,25.16,250.41,269.2,28.48,26.45,249.34,268.75,0.0
2018-09-10 19:17:00,88.65387,45.83544,1027.256,261.94,93.0,8.4,-1.19,0.29,126.59,28.6,25.02,250.3,269.45,28.47,26.54,249.25,268.68,0.0
2018-09-10 19:17:00,88.65387,45.83543,1027.209,261.93,93.0,8.8,-1.4,0.64,126.39,28.66,24.95,249.59,268.38,28.44,26.63,249.12,268.49,0.0
2018-09-10 19:17:00,88.65387,45.83543,1027.201,261.94,93.0,8.8,-1.11,0.56,126.1,28.86,25.02,249.1,268.77,28.38,26.7,249.03,268.36,0.0
2018-09-10 19:17:00,88.65387,45.83542,1027.196,261.93,93.0,8.9,-1.32,0.77,125.77,28.8,25.29,249.05,268.72,28.32,26.74,248.84,268.21,0.0
2018-09-10 19:17:00,88.65387,45.83542,1027.188,261.93,93.0,8.9,-1.36,0.72,125.36,28.86,25.43,249.48,268.42,28.26,26.76,248.69,268.11,0.0
2018-09-10 19:17:00,88.65387,45.83541,1027.179,261.93,93.0,9.0,-1.23,0.66,124.88,28.47,25.43,249.4,268.12,28.23,26.75,248.53,268.02,0.0
2018-09-10 19:17:00,88.65387,45.8354,1027.168,261.93,93.0,9.1,-1.11,0.9,124.35,28.6,25.43,249.31,267.85,28.24,26.72,248.38,267.91,0.0
2018-09-10 19:17:00,88.65387,45.8354,1027.181,261.93,93.0,9.0,-0.84,0.62,123.75,28.34,25.57,249.42,268.08,28.3,26.67,248.38,267.91,0.0
2018-09-10 19:17:00,88.65387,45.83539,1027.149,261.93,93.0,9.2,-0.93,0.93,123.05,28.66,25.36,249.17,268.3,28.4,26.61,248.4,267.84,0.0
2018-09-10 19:17:00,88.65387,45.83538,1027.119,261.93,93.0,9.5,-1.07,0.92,122.29,28.4,25.64,249.5,268.28,28.53,26.56,248.47,267.8,0.0
2018-09-10 19:17:00,88.65387,45.83538,1027.108,261.93,93.0,9.5,-1.03,0.92,121.44,28.8,25.43,249.52,268.42,28.68,26.51,248.53,267.77,0.0
2018-09-10 19:17:00,88.65387,45.83537,1027.117,261.93,93.0,9.5,-0.89,1.06,120.53,28.53,25.43,249.52,268.18,28.83,26.47,248.56,267.76,0.0
2018-09-10 19:17:00,88.65387,45.83537,1027.103,261.93,93.0,9.6,-1.25,0.83,119.57,28.47,25.5,249.85,268.19,28.96,26.45,248.64,267.75,0.0
2018-09-10 19:17:00,88.65387,45.83536,1027.094,261.93,93.0,9.6,-0.5,0.88,118.48,28.6,25.43,249.77,267.58,29.04,26.43,248.65,267.6,0.0
2018-09-10 19:17:00,88.65387,45.83535,1027.076,261.93,93.0,9.8,-0.64,0.83,117.41,28.27,25.71,249.9,267.57,29.06,26.42,248.71,267.48,0.0
2018-09-10 19:17:00,88.65387,45.83535,1027.07,261.93,93.0,9.8,-0.57,0.78,116.29,28.66,25.57,249.85,267.55,29.02,26.4,248.72,267.31,0.0
2018-09-10 19:17:00,88.65387,45.83534,1027.077,261.94,93.0,9.8,-0.45,0.78,115.09,28.93,25.64,249.71,267.36,28.93,26.38,248.7,267.15,0.0
2018-09-10 19:17:00,88.65387,45.83533,1027.062,261.94,93.0,9.9,-1.02,0.79,113.9,28.8,25.71,249.92,267.49,28.79,26.35,248.7,267.03,0.0
2018-09-10 19:17:00,88.65387,45.83532,1027.029,261.94,93.0,10.1,-0.5,0.69,112.6,28.73,25.57,249.51,266.99,28.62,26.31,248.59,266.89,0.0
2018-09-10 19:17:00,88.65387,45.83532,1027.053,261.94,93.0,9.9,-0.94,0.86,111.3,28.66,25.78,249.78,267.67,28.45,26.27,248.56,266.84,0.0
2018-09-10 19:17:00,88.65387,45.83531,1027.064,261.94,93.0,9.9,-0.73,0.9,109.93,28.73,25.71,249.48,267.39,28.3,26.23,248.47,266.73,0.0
2018-09-10 19:17:00,88.65387,45.8353,1027.057,261.94,93.0,9.9,-0.69,0.87,108.51,28.27,25.85,249.45,267.47,28.17,26.2,248.43,266.66,0.0
2018-09-10 19:17:00,88.65387,45.8353,1027.059,261.94,93.0,9.9,-1.29,0.91,107.12,28.99,25.64,249.8,267.8,28.07,26.19,248.5,266.72,0.0
2018-09-10 19:17:00,88.65387,45.83529,1027.06,261.95,93.0,9.9,-0.43,1.0,105.54,28.34,25.78,249.39,267.57,28.0,26.21,248.52,266.83,0.0
2018-09-10 19:17:00,88.65387,45.83528,1027.045,261.95,93.0,10.0,-1.0,0.9,104.06,28.66,25.64,249.77,267.83,27.96,26.25,248.62,267.01,0.0
2018-09-10 19:17:00,88.65387,45.83527,1027.021,261.94,93.0,10.2,-0.89,0.89,102.53,28.4,25.85,249.11,267.01,27.94,26.31,248.7,267.09,0.0
2018-09-10 19:17:00,88.65387,45.83525,1026.99,261.94,93.0,10.4,-0.69,0.87,100.97,28.66,25.78,249.2,266.91,27.93,26.38,248.82,267.19,0.0
2018-09-10 19:17:00,88.65387,45.83523,1026.962,261.95,93.0,10.6,-0.68,0.82,99.43,28.53,25.64,250.24,268.05,27.92,26.46,248.94,267.31,0.0
2018-09-10 19:17:00,88.65387,45.83521,1026.966,261.95,93.0,10.6,-0.48,0.95,97.77,28.4,25.57,249.72,268.39,27.91,26.53,248.95,267.4,0.0
2018-09-10 19:17:00,88.65387,45.83519,1026.953,261.95,93.1,10.7,-0.07,0.63,96.07,28.66,25.78,250.15,267.91,27.9,26.59,249.05,267.54,0.0
2018-09-10 19:17:00,88.65387,45.83517,1026.947,261.95,93.0,10.7,-0.47,0.76,94.38,28.66,25.98,250.2,267.63,27.9,26.63,249.04,267.6,0.0
2018-09-10 19:17:00,88.65387,45.83515,1026.95,261.95,93.0,10.7,-0.29,0.75,92.66,28.6,25.98,250.58,267.56,27.91,26.65,249.08,267.73,0.0
2018-09-10 19:17:00,88.65387,45.83514,1026.949,261.95,93.0,10.7,0.09,0.74,90.89,28.34,25.92,250.34,267.85,27.94,26.65,249.08,267.83,0.0
2018-09-10 19:17:00,88.65387,45.83512,1026.912,261.95,93.0,11.0,-0.21,1.05,89.16,28.47,25.92,249.45,268.0,28.0,26.64,248.96,267.82,0.0
2018-09-10 19:17:00,88.65387,45.8351,1026.884,261.95,93.0,11.2,0.07,0.74,87.42,28.14,25.92,249.96,268.43,28.08,26.63,248.94,267.85,0.0
2018-09-10 19:17:00,88.65386,45.83508,1026.91,261.94,93.0,11.0,-0.12,1.09,85.76,28.27,25.92,249.25,267.97,28.18,26.62,248.89,267.91,0.0
2018-09-10 19:17:00,88.65386,45.83506,1026.904,261.94,93.0,11.1,0.03,1.25,84.06,28.66,25.98,249.39,267.9,28.29,26.62,248.81,268.0,0.0
2018-09-10 19:17:00,88.65386,45.83504,1026.878,261.93,93.0,11.3,0.32,1.34,82.39,28.47,25.85,248.98,267.95,28.39,26.64,248.66,268.04,0.0
2018-09-10 19:17:00,88.65386,45.83502,1026.873,261.93,93.0,11.3,0.46,1.47,80.78,28.4,25.98,248.69,268.03,28.46,26.67,248.49,268.05,0.0
2018-09-10 19:17:00,88.65386,45.835,1026.856,261.93,93.0,11.4,0.35,1.42,79.19,28.27,25.98,249.5,269.09,28.49,26.71,248.41,268.08,0.0
2018-09-10 19:17:00,88.65386,45.83498,1026.861,261.92,93.0,11.4,0.67,1.4,77.64,28.8,25.98,249.3,269.25,28.46,26.74,248.23,268.04,0.0
2018-09-10 19:17:00,88.65386,45.83495,1026.86,261.92,93.0,11.4,0.62,1.52,76.11,28.14,26.05,249.2,268.64,28.39,26.78,248.14,268.08,0.0
2018-09-10 19:17:00,88.65386,45.83492,1026.87,261.92,93.0,11.3,0.85,1.57,74.58,28.4,25.98,248.85,268.26,28.27,26.8,248.05,268.12,0.0
2018-09-10 19:17:00,88.65386,45.8349,1026.888,261.92,93.0,11.2,1.13,1.57,73.09,28.27,26.05,248.59,268.1,28.11,26.8,247.99,268.13,0.0
2018-09-10 19:17:00,88.65386,45.83487,1026.863,261.92,93.0,11.4,0.71,1.65,71.75,28.6,26.05,248.69,268.54,27.93,26.78,247.98,268.11,0.0
2018-09-10 19:17:00,88.65386,45.83484,1026.831,261.91,93.0,11.6,1.05,1.45,70.36,28.53,26.26,248.12,267.83,27.75,26.75,247.79,267.9,0.0
2018-09-10 19:17:00,88.65386,45.83482,1026.819,261.91,93.0,11.7,0.74,1.44,69.09,28.8,26.19,248.45,268.24,27.59,26.7,247.74,267.8,0.0
2018-09-10 19:17:00,88.65386,45.83479,1026.809,261.91,93.0,11.8,0.57,1.41,67.9,28.14,26.12,248.59,267.98,27.46,26.66,247.73,267.7,0.0
2018-09-10 19:17:00,88.65386,45.83476,1026.798,261.91,93.0,11.8,0.46,1.44,66.77,28.27,26.26,248.33,267.58,27.37,26.62,247.78,267.62,0.0
2018-09-10 19:17:00,88.65386,45.83474,1026.797,261.92,93.0,11.9,0.19,1.6,65.72,28.27,26.12,248.55,267.36,27.31,26.6,247.86,267.5,0.0
2018-09-10 19:17:00,88.65386,45.83473,1026.805,261.92,93.0,11.8,-0.37,1.58,64.79,28.21,25.98,247.18,266.18,27.29,26.6,247.83,267.29,0.0
2018-09-10 19:17:00,88.65386,45.83473,1026.787,261.92,93.0,11.9,-0.61,1.76,63.93,28.47,26.19,248.68,267.43,27.3,26.62,247.93,267.15,0.0
2018-09-10 19:17:00,88.65386,45.83474,1026.769,261.92,93.0,12.1,-0.82,1.69,63.18,28.14,26.19,248.72,267.67,27.32,26.66,247.95,266.99,0.0
2018-09-10 19:17:00,88.65386,45.83474,1026.764,261.92,93.0,12.1,-0.66,1.74,62.49,28.4,26.19,248.9,267.69,27.34,26.71,247.98,266.87,0.0
2018-09-10 19:17:00,88.65386,45.83475,1026.77,261.91,93.0,12.1,-0.22,1.93,61.83,27.88,26.19,248.82,267.12,27.36,26.77,248.0,266.79,0.0
2018-09-10 19:17:00,88.65386,45.83475,1026.777,261.91,93.0,12.0,-0.29,1.75,61.28,28.08,26.19,247.92,266.59,27.38,26.84,247.97,266.73,0.0
2018-09-10 19:17:00,88.65386,45.83476,1026.759,261.91,93.0,12.1,-0.25,1.66,60.75,28.4,26.26,248.95,267.03,27.4,26.89,248.09,266.81,0.0
2018-09-10 19:17:00,88.65386,45.83476,1026.746,261.92,93.0,12.2,-0.54,1.75,60.27,27.88,26.4,248.84,267.09,27.43,26.94,248.06,266.82,0.0
2018-09-10 19:17:00,88.65386,45.83477,1026.735,261.92,93.0,12.3,-0.56,1.76,59.87,28.34,26.26,248.82,267.12,27.46,26.97,248.05,266.86,0.0
2018-09-10 19:17:00,88.65386,45.83477,1026.736,261.92,93.0,12.3,-0.42,1.74,59.55,28.27,26.26,248.99,267.08,27.51,26.99,248.05,266.94,0.0
2018-09-10 19:17:00,88.65386,45.83478,1026.769,261.92,93.0,12.1,-0.5,1.86,59.3,28.27,26.19,248.64,266.94,27.57,27.0,248.06,267.05,0.0
2018-09-10 19:17:00,88.65386,45.83478,1026.769,261.92,93.0,12.1,-0.58,2.01,59.15,27.81,26.4,249.07,267.02,27.66,27.0,248.2,267.21,0.0
2018-09-10 19:17:00,88.65386,45.83478,1026.718,261.92,93.0,12.4,-1.04,1.95,59.09,28.08,26.4,248.61,267.62,27.75,26.99,248.25,267.25,0.0
2018-09-10 19:17:00,88.65386,45.83478,1026.683,261.92,93.0,12.7,-0.96,1.97,59.07,27.94,26.26,248.97,267.58,27.84,26.98,248.34,267.3,0.0
2018-09-10 19:17:00,88.65386,45.83478,1026.67,261.92,93.0,12.8,-0.8,2.08,59.1,28.08,26.4,249.33,267.92,27.92,26.96,248.41,267.33,0.0
2018-09-10 19:17:00,88.65386,45.83478,1026.655,261.92,93.0,12.9,-0.95,2.18,59.21,27.94,26.4,249.22,267.82,27.96,26.94,248.45,267.33,0.0
2018-09-10 19:17:00,88.65386,45.83478,1026.666,261.93,93.0,12.8,-1.03,2.13,59.4,27.88,26.4,249.6,267.63,27.97,26.91,248.54,267.35,0.0
2018-09-10 19:17:00,88.65386,45.83478,1026.641,261.93,93.0,13.0,-1.05,2.03,59.62,28.14,26.47,249.35,267.29,27.92,26.87,248.54,267.36,0.0
2018-09-10 19:17:00,88.65386,45.83478,1026.624,261.92,93.0,13.1,-1.04,2.05,59.91,28.08,26.47,249.38,267.54,27.84,26.82,248.58,267.32,0.0
2018-09-10 19:17:00,88.65386,45.83478,1026.618,261.92,93.0,13.2,-0.83,1.9,60.22,28.08,26.33,249.42,267.56,27.71,26.75,248.45,267.24,0.0
2018-09-10 19:17:00,88.65386,45.83478,1026.621,261.92,93.0,13.2,-0.63,1.73,60.55,28.21,26.54,249.13,267.69,27.55,26.67,248.26,267.18,0.0
2018-09-10 19:17:00,88.65386,45.83478,1026.64,261.93,93.0,13.0,-0.94,1.98,60.92,28.21,26.4,249.37,268.02,27.38,26.59,248.17,267.23,0.0
2018-09-10 19:17:00,88.65386,45.83478,1026.633,261.92,93.0,13.1,-1.16,1.7,61.41,28.01,26.54,249.21,267.69,27.22,26.51,247.99,267.3,0.0
2018-09-10 19:17:00,88.65386,45.83478,1026.614,261.92,93.0,13.2,-1.18,1.98,61.9,28.01,26.47,249.1,267.71,27.08,26.44,247.89,267.43,0.0
2018-09-10 19:17:00,88.65386,45.83478,1026.595,261.92,93.0,13.4,-1.46,2.1,62.44,28.14,26.47,247.92,267.24,26.98,26.39,247.76,267.53,0.0
2018-09-10 19:17:00,88.65386,45.83478,1026.575,261.92,93.0,13.5,-1.68,2.19,63.0,27.62,26.47,247.34,267.49,26.94,26.37,247.65,267.63,0.0
2018-09-10 19:17:00,88.65386,45.83477,1026.548,261.92,93.0,13.7,-1.57,2.5,63.55,27.94,26.47,248.77,268.25,26.94,26.38,247.61,267.73,0.0
2018-09-10 19:17:00,88.65386,45.83477,1026.544,261.92,93.0,13.7,-2.07,2.46,64.19,27.68,26.33,248.19,268.34,26.99,26.43,247.49,267.78,0.0
2018-09-10 19:17:00,88.65386,45.83476,1026.549,261.92,93.0,13.7,-1.43,2.51,64.81,28.01,26.47,248.67,268.34,27.07,26.5,247.44,267.86,0.0
2018-09-10 19:17:00,88.65386,45.83476,1026.541,261.92,93.0,13.8,-0.85,2.37,65.42,27.68,26.61,248.39,268.22,27.17,26.59,247.35,267.92,0.0
2018-09-10 19:17:00,88.65386,45.83475,1026.526,261.92,93.0,13.9,-0.48,2.14,66.07,27.81,26.26,248.19,268.2,27.27,26.7,247.37,267.99,0.0
2018-09-10 19:17:00,88.65386,45.83475,1026.531,261.91,93.1,13.8,-0.54,2.09,66.8,27.81,26.33,248.31,268.26,27.36,26.8,247.42,268.02,0.0
2018-09-10 19:17:00,88.65386,45.83474,1026.514,261.92,93.0,14.0,-0.55,2.55,67.54,28.01,26.54,247.84,268.07,27.44,26.9,247.29,267.89,0.0
2018-09-10 19:17:00,88.65386,45.83474,1026.477,261.93,93.1,14.2,-0.46,2.22,68.31,28.01,26.47,248.2,268.23,27.49,26.99,247.3,267.82,0.0
2018-09-10 19:17:00,88.65386,45.83474,1026.475,261.92,93.0,14.3,-0.66,2.41,69.15,27.68,26.47,247.76,268.3,27.52,27.05,247.21,267.79,0.0
2018-09-10 19:17:00,88.65386,45.83473,1026.472,261.92,93.0,14.3,-0.64,2.4,69.95,27.68,26.54,247.78,268.26,27.52,27.08,247.16,267.77,0.0
2018-09-10 19:17:00,88.65386,45.83472,1026.455,261.92,93.1,14.4,-0.56,2.23,70.75,27.62,26.61,247.48,267.91,27.52,27.09,247.13,267.74,0.0
2018-09-10 19:17:00,88.65386,45.83472,1026.453,261.93,93.1,14.4,-0.84,2.32,71.61,27.68,26.54,246.71,266.8,27.5,27.07,247.07,267.66,0.0
2018-09-10 19:17:00,88.65386,45.83472,1026.451,261.92,93.1,14.4,-0.29,2.25,72.39,27.81,26.54,247.76,267.51,27.49,27.03,247.1,267.61,0.0
2018-09-10 19:17:00,88.65386,45.83471,1026.451,261.92,93.1,14.4,-0.67,2.33,73.23,28.01,26.4,247.4,267.85,27.48,26.98,247.05,267.49,0.0
2018-09-10 19:17:00,88.65386,45.83471,1026.43,261.92,93.1,14.6,-0.82,2.37,74.08,27.62,26.54,247.55,267.62,27.48,26.92,247.06,267.37,0.0
2018-09-10 19:17:00,88.65386,45.8347,1026.405,261.93,93.1,14.8,-0.95,2.42,74.99,27.68,26.74,247.94,267.4,27.48,26.84,247.07,267.22,0.0
2018-09-10 19:17:00,88.65386,45.8347,1026.406,261.93,93.1,14.8,-1.28,2.52,75.94,27.68,26.61,248.17,267.0,27.47,26.76,247.08,267.07,0.0
2018-09-10 19:17:00,88.65386,45.8347,1026.412,261.93,93.1,14.7,-1.42,2.58,76.92,27.94,26.61,248.53,267.05,27.44,26.67,247.2,266.97,0.0
2018-09-10 19:17:00,88.65386,45.83469,1026.4,261.92,93.1,14.8,-1.23,2.73,77.89,27.62,26.61,248.02,266.9,27.39,26.58,247.15,266.79,0.0
2018-09-10 19:17:00,88.65386,45.83469,1026.405,261.93,93.1,14.8,-0.95,2.9,78.88,27.81,26.68,248.28,266.96,27.3,26.48,247.21,266.63,0.0
2018-09-10 19:17:00,88.65386,45.83468,1026.408,261.93,93.1,14.7,-0.67,2.97,79.86,27.68,26.47,248.36,267.07,27.18,26.37,247.25,266.5,0.0
2018-09-10 19:17:00,88.65386,45.83468,1026.394,261.93,93.1,14.9,-0.57,2.91,80.81,27.81,26.68,248.04,266.84,27.03,26.27,247.25,266.45,0.0
2018-09-10 19:17:00,88.65386,45.83467,1026.384,261.92,93.1,14.9,-0.92,2.82,81.83,27.62,26.47,248.28,266.9,26.86,26.18,247.3,266.52,0.0
2018-09-10 19:17:00,88.65386,45.83467,1026.37,261.93,93.1,15.0,-0.42,2.75,82.64,27.68,26.61,247.3,266.61,26.68,26.11,247.29,266.73,1.0
2018-09-10 19:17:00,88.65386,45.83466,1026.377,261.92,93.1,15.0,-0.92,2.64,83.58,27.49,26.54,248.0,266.85,26.51,26.07,247.29,266.98,1.0
2018-09-10 19:17:00,88.65386,45.83466,1026.387,261.92,93.1,14.9,-0.9,2.69,84.43,27.49,26.61,247.96,267.05,26.38,26.07,247.2,267.22,1.0
2018-09-10 19:17:00,88.65386,45.83465,1026.377,261.92,93.1,15.0,-0.76,2.73,85.26,27.55,26.61,247.79,267.12,26.29,26.11,247.06,267.4,1.0
2018-09-10 19:17:00,88.65386,45.83465,1026.329,261.92,93.1,15.3,-1.13,2.62,86.11,27.88,26.47,248.18,267.46,26.26,26.2,246.95,267.54,1.0
2018-09-10 19:17:00,88.65386,45.83464,1026.315,261.91,93.1,15.4,-0.42,2.85,86.85,27.88,26.61,248.06,269.08,26.3,26.32,246.9,267.75,1.0
2018-09-10 19:17:00,88.65386,45.83464,1026.329,261.92,93.1,15.3,-0.95,2.69,87.65,27.49,26.4,247.55,268.84,26.39,26.47,247.0,267.86,1.0
2018-09-10 19:17:00,88.65386,45.83463,1026.302,261.92,93.1,15.5,-0.95,2.69,88.41,27.22,26.4,246.66,268.65,26.54,26.64,246.95,267.84,1.0
2018-09-10 19:17:00,88.65386,45.83462,1026.26,261.92,93.1,15.8,-0.82,2.75,89.15,27.16,26.33,246.3,267.86,26.73,26.81,246.9,267.78,1.0
2018-09-10 19:17:00,88.65386,45.83462,1026.258,261.92,93.1,15.9,-0.91,2.77,89.88,27.09,26.47,246.5,267.4,26.93,26.96,246.92,267.75,1.0
2018-09-10 19:17:00,88.65386,45.83461,1026.276,261.91,93.1,15.7,-0.48,2.7,90.52,27.62,26.61,247.82,268.48,27.13,27.08,246.93,267.71,1.0
2018-09-10 19:17:00,88.65386,45.8346,1026.265,261.92,93.1,15.8,-1.04,2.82,91.12,27.49,26.61,248.75,267.78,27.3,27.15,246.92,267.54,1.0
2018-09-10 19:17:00,88.65386,45.8346,1026.273,261.92,93.1,15.8,-0.85,2.86,91.6,27.09,26.61,247.73,266.92,27.44,27.17,246.99,267.46,1.0
2018-09-10 19:17:00,88.65386,45.83459,1026.291,261.92,93.1,15.6,-0.62,2.88,92.05,27.42,26.54,247.74,267.03,27.53,27.15,247.12,267.45,1.0
2018-09-10 19:17:00,88.65386,45.83459,1026.299,261.92,93.1,15.6,-0.57,2.89,92.5,27.29,26.54,247.96,267.77,27.57,27.1,247.29,267.54,1.0
2018-09-10 19:17:00,88.65386,45.83458,1026.277,261.92,93.1,15.7,-0.52,2.89,92.9,27.68,26.61,248.0,268.28,27.56,27.02,247.47,267.72,1.0
2018-09-10 19:17:00,88.65386,45.83458,1026.261,261.91,93.1,15.8,-0.46,2.99,93.17,27.62,26.61,247.47,267.83,27.51,26.93,247.5,267.82,1.0
2018-09-10 19:17:00,88.65386,45.83457,1026.241,261.91,93.1,16.0,-0.56,2.74,93.48,27.29,26.68,247.62,268.47,27.44,26.86,247.47,267.98,1.0
2018-09-10 19:17:00,88.65386,45.83457,1026.24,261.91,93.1,16.0,-0.45,2.61,93.74,27.42,26.68,247.7,268.27,27.35,26.8,247.47,268.19,1.0
2018-09-10 19:17:00,88.65386,45.83456,1026.25,261.91,93.1,15.9,-0.43,2.54,93.97,27.36,26.68,247.48,268.44,27.26,26.78,247.44,268.34,1.0
2018-09-10 19:17:00,88.65386,45.83456,1026.246,261.91,93.1,16.0,-0.69,2.47,94.17,27.49,26.61,247.97,268.48,27.17,26.78,247.33,268.4,1.0
2018-09-10 19:17:00,88.65386,45.83455,1026.22,261.91,93.1,16.1,-0.65,2.55,94.25,27.42,26.68,247.27,268.23,27.1,26.81,247.16,268.34,1.0
2018-09-10 19:17:00,88.65386,45.83455,1026.184,261.9,93.1,16.4,-1.46,2.57,94.37,27.55,26.61,247.96,268.2,27.04,26.85,247.07,268.28,1.0
2018-09-10 19:17:00,88.65386,45.83454,1026.172,261.9,93.1,16.5,-1.9,2.55,94.33,27.09,26.74,247.57,267.77,26.99,26.89,246.95,268.1,1.0
2018-09-10 19:17:00,88.65386,45.83454,1026.171,261.9,93.1,16.5,-2.31,2.56,94.26,27.16,26.47,247.47,267.86,26.95,26.92,246.85,267.9,1.0
2018-09-10 19:17:00,88.65386,45.83453,1026.168,261.9,93.1,16.5,-2.67,2.61,94.18,27.42,26.54,247.2,267.86,26.93,26.93,246.77,267.71,1.0
2018-09-10 19:17:00,88.65386,45.83452,1026.184,261.9,93.1,16.4,-2.37,2.64,93.98,27.49,26.61,246.7,267.91,26.91,26.91,246.68,267.52,1.0
2018-09-10 19:17:00,88.65386,45.83451,1026.183,261.89,93.1,16.4,-2.41,2.71,93.75,27.62,26.61,247.22,268.1,26.89,26.87,246.7,267.4,1.0
2018-09-10 19:17:00,88.65386,45.83451,1026.188,261.89,93.1,16.4,-2.47,2.75,93.5,27.22,26.81,246.84,267.76,26.88,26.8,246.65,267.33,1.0
2018-09-10 19:17:00,88.65386,45.8345,1026.17,261.89,93.1,16.5,-2.68,2.8,93.23,27.29,26.81,246.9,267.49,26.88,26.73,246.67,267.31,1.0
2018-09-10 19:17:00,88.65386,45.83449,1026.136,261.88,93.1,16.8,-2.88,2.82,92.89,27.16,26.81,247.09,267.57,26.88,26.65,246.68,267.32,1.0
2018-09-10 19:17:00,88.65386,45.83448,1026.121,261.88,93.1,16.9,-2.9,2.81,92.49,27.49,26.61,246.78,267.56,26.88,26.59,246.63,267.33,1.0
2018-09-10 19:17:00,88.65386,45.83447,1026.11,261.88,93.1,17.0,-3.21,2.86,92.09,27.29,26.81,247.15,267.68,26.9,26.55,246.69,267.38,1.0
2018-09-10 19:17:00,88.65386,45.83447,1026.108,261.88,93.1,17.0,-2.81,2.82,91.6,27.36,26.68,246.93,267.74,26.91,26.53,246.67,267.37,1.0
2018-09-10 19:17:00,88.65386,45.83446,1026.106,261.88,93.1,17.0,-2.51,2.8,91.08,27.09,26.54,247.28,267.53,26.93,26.53,246.68,267.4,1.0
2018-09-10 19:17:00,88.65386,45.83445,1026.093,261.88,93.1,17.1,-2.41,2.8,90.52,27.16,26.61,246.96,267.34,26.95,26.56,246.69,267.4,1.0
2018-09-10 19:17:00,88.65386,45.83444,1026.061,261.88,93.1,17.3,-2.49,2.78,89.93,27.09,26.61,246.45,266.98,26.96,26.6,246.67,267.35,1.0
2018-09-10 19:17:00,88.65386,45.83443,1026.047,261.88,93.1,17.4,-2.68,2.7,89.34,27.29,26.68,247.3,266.81,26.96,26.64,246.7,267.3,1.0
2018-09-10 19:17:00,88.65386,45.83443,1026.068,261.88,93.1,17.3,-2.41,2.84,88.63,27.36,26.61,247.27,266.7,26.96,26.68,246.67,267.18,1.0
2018-09-10 19:17:00,88.65386,45.83442,1026.072,261.88,93.1,17.3,-2.38,2.8,87.97,27.42,26.61,247.54,267.2,26.96,26.7,246.71,267.09,1.0
2018-09-10 19:17:00,88.65386,45.83442,1026.072,261.88,93.1,17.3,-2.33,2.73,87.33,27.36,26.68,247.63,267.02,26.95,26.72,246.72,267.02,1.0
2018-09-10 19:17:00,88.65386,45.83441,1026.08,261.87,93.1,17.2,-2.28,2.78,86.68,27.09,26.68,247.32,266.73,26.94,26.71,246.74,266.96,1.0
2018-09-10 19:17:00,88.65386,45.83441,1026.081,261.88,93.1,17.2,-2.35,2.98,86.0,27.09,26.68,247.22,267.06,26.92,26.69,246.85,266.9,1.0
2018-09-10 19:17:00,88.65386,45.8344,1026.08,261.87,93.1,17.2,-1.78,2.65,85.43,27.03,26.81,247.35,266.68,26.9,26.66,246.84,266.78,1.0
2018-09-10 19:17:00,88.65386,45.83439,1026.05,261.87,93.1,17.4,-1.75,2.99,84.88,27.22,26.74,247.53,266.97,26.87,26.63,246.72,266.63,1.0
2018-09-10 19:17:00,88.65386,45.83439,1026.018,261.87,93.1,17.7,-1.55,3.1,84.27,27.49,26.68,247.37,267.54,26.82,26.58,246.59,266.53,1.0
2018-09-10 19:17:00,88.65386,45.83438,1026.008,261.87,93.2,17.7,-1.36,3.06,83.64,27.03,26.68,247.59,267.31,26.76,26.52,246.5,266.51,1.0
2018-09-10 19:17:00,88.65386,45.83438,1026.029,261.87,93.2,17.6,-1.41,3.13,83.04,27.29,26.61,247.88,267.45,26.68,26.45,246.44,266.53,1.0
2018-09-10 19:17:00,88.65386,45.83437,1026.015,261.87,93.2,17.7,-1.22,3.12,82.44,27.22,26.68,247.8,266.73,26.58,26.38,246.34,266.51,1.0
2018-09-10 19:17:00,88.65386,45.83437,1026.022,261.87,93.2,17.6,-0.96,3.01,81.9,27.03,26.4,246.68,266.13,26.47,26.29,246.31,266.56,1.0
2018-09-10 19:17:00,88.65386,45.83436,1025.984,261.87,93.2,17.9,-0.52,3.01,81.36,27.03,26.61,247.04,266.71,26.35,26.18,246.26,266.65,1.0
2018-09-10 19:17:00,88.65386,45.83436,1025.947,261.87,93.2,18.2,-0.42,3.02,80.87,27.03,26.68,247.83,267.7,26.24,26.08,246.27,266.72,1.0
2018-09-10 19:17:00,88.65386,45.83436,1025.953,261.87,93.2,18.1,-0.61,3.02,80.43,27.09,26.68,248.14,267.81,26.14,25.98,246.3,266.78,1.0
2018-09-10 19:17:00,88.65386,45.83436,1025.948,261.87,93.2,18.2,-0.4,3.13,79.96,27.09,26.74,247.56,267.64,26.09,25.9,246.31,266.87,1.0
2018-09-10 19:17:00,88.65386,45.83435,1025.954,261.87,93.2,18.1,-0.69,3.07,79.56,27.36,26.61,247.81,267.45,26.08,25.85,246.42,267.04,1.0
2018-09-10 19:17:00,88.65386,45.83435,1025.939,261.87,93.2,18.2,-0.6,3.11,79.15,27.22,26.68,247.52,268.2,26.13,25.85,246.68,267.2,1.0
2018-09-10 19:17:00,88.65386,45.83435,1025.914,261.87,93.2,18.4,-0.8,3.14,78.81,26.9,26.54,247.44,267.97,26.24,25.91,246.85,267.27,1.0
2018-09-10 19:17:00,88.65386,45.83435,1025.899,261.87,93.2,18.5,-1.18,3.17,78.52,26.83,26.54,246.93,267.49,26.4,26.04,246.88,267.29,1.0
2018-09-10 19:17:00,88.65386,45.83434,1025.923,261.87,93.2,18.4,-1.36,3.24,78.26,26.7,26.4,246.37,267.24,26.59,26.21,246.83,267.29,1.0
2018-09-10 19:17:00,88.65386,45.83434,1025.886,261.87,93.2,18.6,-1.86,3.26,78.12,27.03,26.61,247.15,267.48,26.8,26.44,246.8,267.33,1.0
2018-09-10 19:17:00,88.65386,45.83434,1025.894,261.87,93.2,18.6,-1.83,3.18,78.02,26.9,26.4,247.33,266.93,26.99,26.68,246.64,267.3,1.0
2018-09-10 19:17:00,88.65386,45.83434,1025.896,261.87,93.2,18.6,-1.67,3.06,77.97,26.64,26.26,247.08,266.68,27.15,26.93,246.48,267.19,1.0
2018-09-10 19:17:00,88.65386,45.83433,1025.879,261.86,93.2,18.7,-1.66,2.95,77.96,26.96,26.26,246.26,267.16,27.24,27.15,246.32,267.08,1.0
2018-09-10 19:17:00,88.65386,45.83433,1025.858,261.87,93.2,18.8,-1.84,2.88,78.01,26.83,26.47,246.12,267.58,27.27,27.31,246.17,267.0,1.0
2018-09-10 19:17:00,88.65386,45.83433,1025.844,261.87,93.2,19.0,-1.7,2.81,78.04,27.22,26.61,246.73,268.0,27.22,27.41,246.13,266.97,1.0
2018-09-10 19:17:00,88.65386,45.83432,1025.837,261.87,93.2,19.0,-1.7,3.0,78.12,27.22,26.68,246.06,267.66,27.11,27.44,246.01,266.97,1.0
2018-09-10 19:17:00,88.65386,45.83432,1025.834,261.87,93.2,19.0,-1.53,2.82,78.27,26.83,26.88,246.14,267.59,26.94,27.39,245.96,267.07,1.0
2018-09-10 19:17:00,88.65385,45.83431,1025.823,261.87,93.2,19.1,-1.61,2.92,78.45,27.22,26.61,246.3,267.26,26.75,27.28,245.98,267.18,1.0
2018-09-10 19:17:00,88.65385,45.8343,1025.811,261.87,93.2,19.2,-1.9,3.2,78.67,26.9,26.74,246.25,267.45,26.56,27.13,246.05,267.21,1.0
2018-09-10 19:17:00,88.65385,45.8343,1025.835,261.87,93.3,19.0,-2.07,3.06,78.91,27.03,26.61,246.83,267.41,26.39,26.96,246.17,267.19,1.0
2018-09-10 19:17:00,88.65385,45.83429,1025.799,261.87,93.3,19.3,-2.53,3.28,79.2,27.09,26.68,246.14,267.28,26.25,26.8,246.27,267.21,1.0
2018-09-10 19:17:00,88.65385,45.83429,1025.813,261.87,93.3,19.2,-2.12,3.18,79.55,26.83,26.74,246.64,267.23,26.16,26.67,246.46,267.25,1.0
2018-09-10 19:17:00,88.65385,45.83428,1025.811,261.87,93.3,19.2,-1.91,3.15,79.93,27.03,26.68,246.5,266.89,26.11,26.57,246.58,267.24,1.0
2018-09-10 19:17:00,88.65385,45.83428,1025.772,261.87,93.3,19.5,-1.72,3.21,80.32,26.5,26.54,246.43,266.31,26.1,26.52,246.64,267.18,1.0
2018-09-10 19:17:00,88.65385,45.83427,1025.729,261.86,93.3,19.8,-1.27,3.22,80.68,26.64,26.47,246.38,265.85,26.11,26.51,246.67,267.11,1.0
2018-09-10 19:17:00,88.65385,45.83427,1025.722,261.87,93.3,19.9,-1.92,3.31,81.1,27.03,26.68,246.68,266.71,26.13,26.52,246.6,266.98,1.0
2018-09-10 19:17:00,88.65385,45.83427,1025.747,261.87,93.3,19.7,-1.51,3.3,81.47,27.03,26.68,247.07,266.98,26.13,26.55,246.58,266.83,1.0
2018-09-10 19:17:00,88.65385,45.83426,1025.761,261.87,93.3,19.6,-1.35,3.53,81.87,26.9,26.81,247.1,266.63,26.12,26.57,246.47,266.69,1.0
2018-09-10 19:17:00,88.65385,45.83426,1025.751,261.87,93.3,19.6,-1.24,3.64,82.3,26.83,26.61,246.54,266.5,26.08,26.58,246.38,266.57,1.0
2018-09-10 19:17:00,88.65385,45.83426,1025.721,261.87,93.4,19.9,-1.07,3.57,82.72,26.77,26.61,246.75,266.53,26.02,26.57,246.34,266.51,1.0
2018-09-10 19:17:00,88.65385,45.83425,1025.704,261.87,93.4,20.0,-1.08,3.75,83.11,26.64,26.61,246.56,266.42,25.95,26.54,246.28,266.45,1.0
2018-09-10 19:17:00,88.65385,45.83425,1025.708,261.87,93.4,20.0,-0.83,3.4,83.55,26.83,26.61,247.1,266.85,25.89,26.5,246.23,266.42,1.0
2018-09-10 19:17:00,88.65385,45.83425,1025.7,261.88,93.4,20.0,-0.6,3.8,83.95,26.7,26.68,246.79,266.66,25.85,26.44,246.21,266.42,1.0
2018-09-10 19:17:00,88.65385,45.83424,1025.691,261.88,93.4,20.1,-0.35,3.84,84.31,26.83,26.74,246.74,266.59,25.84,26.38,246.27,266.48,1.0
2018-09-10 19:17:00,88.65385,45.83424,1025.689,261.87,93.4,20.1,-0.33,3.68,84.67,26.5,26.68,247.09,266.4,25.87,26.34,246.32,266.56,1.0
2018-09-10 19:17:00,88.65385,45.83424,1025.704,261.87,93.4,20.0,-0.88,4.02,85.1,26.77,26.54,246.95,266.06,25.94,26.32,246.34,266.62,1.0
2018-09-10 19:17:00,88.65385,45.83423,1025.66,261.87,93.4,20.3,-1.0,3.78,85.5,26.83,26.61,246.97,266.86,26.03,26.32,246.42,266.7,1.0
2018-09-10 19:17:00,88.65385,45.83423,1025.653,261.87,93.4,20.4,-1.1,3.7,85.92,26.24,26.61,247.57,267.11,26.14,26.34,246.44,266.75,1.0
2018-09-10 19:17:00,88.65385,45.83423,1025.642,261.87,93.4,20.5,-1.04,3.74,86.29,26.64,26.61,247.81,267.16,26.25,26.37,246.54,266.8,1.0
2018-09-10 19:17:00,88.65385,45.83422,1025.63,261.87,93.4,20.5,-0.86,3.76,86.62,26.37,26.4,247.46,267.34,26.35,26.4,246.63,266.86,1.0
2018-09-10 19:17:00,88.65385,45.83422,1025.655,261.87,93.4,20.4,-0.68,3.71,86.89,26.7,26.54,247.2,267.2,26.42,26.44,246.69,266.93,1.0
2018-09-10 19:17:00,88.65385,45.83422,1025.596,261.88,93.4,20.8,-0.79,3.94,87.16,26.7,26.61,247.29,267.26,26.45,26.46,246.83,267.03,1.0
2018-09-10 19:17:00,88.65385,45.83421,1025.58,261.87,93.4,20.9,-1.01,3.86,87.39,26.83,26.68,247.02,267.25,26.44,26.46,246.9,267.01,1.0
2018-09-10 19:17:00,88.65385,45.83421,1025.591,261.87,93.5,20.8,-1.31,3.77,87.63,26.37,26.68,247.34,267.13,26.39,26.46,246.92,267.01,1.0
2018-09-10 19:17:00,88.65385,45.8342,1025.589,261.87,93.5,20.9,-1.23,3.64,87.81,26.64,26.61,247.52,267.21,26.32,26.44,246.86,267.02,1.0
2018-09-10 19:17:00,88.65385,45.8342,1025.559,261.87,93.5,21.1,-0.95,3.45,87.94,26.44,26.54,247.21,267.31,26.24,26.42,246.79,267.05,1.0
2018-09-10 19:17:00,88.65385,45.8342,1025.553,261.88,93.5,21.1,-1.21,3.15,88.09,26.9,26.54,247.75,266.98,26.15,26.4,246.76,267.11,1.0
2018-09-10 19:17:00,88.65385,45.83419,1025.518,261.87,93.5,21.4,-0.93,3.28,88.13,26.64,26.47,246.9,266.49,26.07,26.39,246.63,267.12,1.0
2018-09-10 19:17:00,88.65385,45.83419,1025.507,261.87,93.5,21.5,-0.85,3.25,88.16,26.31,26.61,247.04,267.1,26.0,26.39,246.56,267.14,1.0
2018-09-10 19:17:00,88.65385,45.83419,1025.512,261.87,93.5,21.4,-0.73,3.27,88.12,26.37,26.61,246.9,267.52,25.95,26.4,246.4,267.16,1.0
2018-09-10 19:17:00,88.65385,45.83418,1025.515,261.87,93.5,21.4,-0.72,3.3,88.04,26.5,26.54,246.34,267.62,25.91,26.41,246.23,267.18,1.0
2018-09-10 19:17:00,88.65385,45.83418,1025.506,261.87,93.5,21.5,-1.01,3.26,87.97,26.83,26.47,246.71,267.91,25.88,26.43,246.09,267.22,1.0
2018-09-10 19:17:00,88.65385,45.83418,1025.497,261.87,93.5,21.5,-1.3,3.28,87.89,26.24,26.47,246.15,267.62,25.85,26.44,245.87,267.28,1.0
2018-09-10 19:17:00,88.65385,45.83418,1025.513,261.87,93.5,21.4,-1.28,3.25,87.8,26.7,26.54,246.66,267.87,25.82,26.44,245.78,267.42,1.0
2018-09-10 19:17:00,88.65385,45.83418,1025.502,261.87,93.5,21.5,-1.1,3.39,87.7,26.37,26.61,246.3,267.74,25.8,26.42,245.68,267.47,1.0
2018-09-10 19:17:00,88.65385,45.83417,1025.483,261.88,93.6,21.6,-0.79,3.49,87.55,26.5,26.61,246.3,267.84,25.77,26.38,245.55,267.42,1.0
2018-09-10 19:17:00,88.65385,45.83417,1025.48,261.88,93.6,21.7,-0.46,3.47,87.33,26.31,26.54,246.35,267.62,25.75,26.33,245.4,267.31,1.0
2018-09-10 19:17:00,88.65385,45.83417,1025.444,261.87,93.6,21.9,-0.34,3.54,87.11,26.37,26.61,245.6,267.93,25.74,26.28,245.36,267.28,1.0
2018-09-10 19:17:00,88.65385,45.83416,1025.437,261.88,93.6,22.0,-0.2,3.56,86.81,26.5,26.47,246.35,267.82,25.74,26.23,245.42,267.3,1.0
2018-09-10 19:17:00,88.65385,45.83416,1025.446,261.88,93.6,21.9,-0.02,3.64,86.46,26.31,26.47,246.19,267.09,25.77,26.19,245.42,267.26,1.0
2018-09-10 19:17:00,88.65385,45.83416,1025.456,261.88,93.6,21.8,0.14,3.66,86.08,26.44,26.4,244.91,266.44,25.82,26.17,245.44,267.18,1.0
2018-09-10 19:17:00,88.65385,45.83416,1025.451,261.88,93.6,21.9,0.17,3.63,85.68,25.98,26.54,243.93,265.56,25.89,26.17,245.46,267.07,1.0
2018-09-10 19:17:00,88.65385,45.83415,1025.423,261.88,93.6,22.1,0.05,3.64,85.26,26.64,26.61,245.58,266.99,25.96,26.2,245.43,266.91,1.0
2018-09-10 19:17:00,88.65385,45.83415,1025.406,261.88,93.6,22.2,0.44,3.71,84.78,26.44,26.61,246.13,267.35,26.03,26.24,245.45,266.7,1.0
2018-09-10 19:17:00,88.65385,45.83415,1025.414,261.88,93.6,22.2,0.35,3.73,84.26,26.31,26.26,246.0,267.17,26.08,26.29,245.39,266.5,1.0
2018-09-10 19:17:00,88.65385,45.83414,1025.408,261.88,93.6,22.2,0.15,3.72,83.76,26.18,26.47,246.27,266.95,26.11,26.33,245.36,266.35,1.0
2018-09-10 19:17:00,88.65385,45.83414,1025.396,261.88,93.6,22.3,-0.01,3.72,83.24,26.31,26.47,246.12,266.87,26.1,26.36,245.45,266.3,1.0
2018-09-10 19:17:00,88.65385,45.83414,1025.406,261.88,93.6,22.2,-0.09,3.76,82.7,26.05,26.47,246.26,266.7,26.06,26.36,245.59,266.28,1.0
2018-09-10 19:17:00,88.65385,45.83413,1025.354,261.88,93.6,22.6,-0.19,3.66,82.29,26.18,26.4,246.33,266.18,25.99,26.34,245.63,266.21,1.0
2018-09-10 19:17:00,88.65385,45.83413,1025.389,261.88,93.7,22.3,-0.21,4.12,81.76,26.64,26.4,246.24,266.5,25.9,26.29,245.63,266.16,1.0
2018-09-10 19:17:00,88.65385,45.83413,1025.396,261.88,93.7,22.3,0.28,4.32,81.12,26.44,26.54,246.67,266.5,25.8,26.22,245.67,266.18,1.0
2018-09-10 19:17:00,88.65385,45.83412,1025.386,261.88,93.7,22.4,0.55,4.35,80.47,26.24,26.47,246.7,266.25,25.71,26.14,245.69,266.23,1.0
2018-09-10 19:17:00,88.65385,45.83412,1025.386,261.88,93.7,22.4,0.36,4.32,79.89,26.11,26.54,246.43,266.07,25.64,26.06,245.72,266.34,1.0
2018-09-10 19:17:00,88.65385,45.83412,1025.374,261.88,93.7,22.5,0.37,4.26,79.3,26.44,26.54,246.05,266.18,25.61,25.99,245.79,266.53,1.0
2018-09-10 19:17:00,88.65385,45.83412,1025.356,261.88,93.7,22.6,0.27,4.22,78.65,26.24,26.33,246.26,265.93,25.61,25.95,245.8,266.73,1.0
2018-09-10 19:17:00,88.65385,45.83411,1025.37,261.88,93.7,22.5,0.65,4.31,77.93,26.18,26.4,246.14,266.35,25.66,25.94,245.76,266.89,1.0
2018-09-10 19:17:00,88.65385,45.8341,1025.377,261.88,93.7,22.4,0.6,4.36,77.25,26.18,26.47,245.92,266.44,25.74,25.96,245.7,266.99,1.0
2018-09-10 19:17:00,88.65385,45.83409,1025.357,261.89,93.7,22.6,0.08,4.37,76.59,26.11,26.47,246.12,267.17,25.84,26.01,245.66,267.08,1.0
2018-09-10 19:17:00,88.65385,45.83408,1025.319,261.88,93.7,22.9,-0.45,4.39,75.93,25.98,26.19,246.54,268.46,25.95,26.09,245.65,267.21,1.0
2018-09-10 19:17:00,88.65385,45.83408,1025.302,261.88,93.7,23.0,-0.68,4.04,75.26,26.11,26.26,245.98,268.32,26.06,26.17,245.66,267.22,1.0
2018-09-10 19:17:00,88.65385,45.83407,1025.306,261.89,93.7,23.0,-0.93,4.36,74.63,26.24,26.26,245.36,268.25,26.16,26.25,245.58,267.11,1.0
2018-09-10 19:17:00,88.65385,45.83406,1025.316,261.89,93.7,22.9,-1.0,4.36,73.94,25.98,26.4,245.75,267.66,26.23,26.32,245.59,267.07,1.0
2018-09-10 19:17:00,88.65385,45.83405,1025.32,261.88,93.8,22.9,-1.06,4.22,73.25,26.18,26.4,246.01,267.98,26.28,26.36,245.62,267.11,1.0
2018-09-10 19:17:00,88.65385,45.83404,1025.309,261.88,93.8,22.9,-1.29,4.17,72.61,26.5,26.61,246.44,268.32,26.31,26.38,245.64,267.15,1.0
2018-09-10 19:17:00,88.65385,45.83404,1025.269,261.89,93.8,23.2,-1.69,4.11,71.96,26.18,26.19,246.6,267.45,26.3,26.37,245.69,267.14,1.0
2018-09-10 19:17:00,88.65385,45.83403,1025.252,261.88,93.8,23.4,-1.51,3.95,71.39,26.24,26.26,245.51,265.7,26.28,26.33,245.71,267.13,1.0
2018-09-10 19:17:00,88.65385,45.83402,1025.256,261.89,93.8,23.3,-1.22,4.09,70.82,26.05,26.47,246.48,266.46,26.24,26.28,245.83,267.14,1.0
2018-09-10 19:17:00,88.65385,45.83401,1025.252,261.89,93.8,23.4,-1.18,4.19,70.32,26.11,26.4,246.67,267.34,26.18,26.22,245.91,267.21,1.0
2018-09-10 19:17:00,88.65385,45.834,1025.239,261.89,93.8,23.5,-1.26,4.04,69.87,26.18,26.4,246.14,267.4,26.1,26.16,245.94,267.28,1.0
2018-09-10 19:17:00,88.65385,45.834,1025.246,261.89,93.8,23.4,-1.18,3.63,69.48,26.31,26.47,246.7,267.53,26.01,26.12,245.96,267.3,1.0
2018-09-10 19:17:00,88.65385,45.83399,1025.214,261.89,93.8,23.6,-1.5,3.97,69.21,26.31,26.26,245.85,267.14,25.91,26.1,245.89,267.38,1.0
2018-09-10 19:17:00,88.65385,45.83398,1025.208,261.89,93.8,23.7,-1.07,3.87,68.81,25.85,26.19,246.07,267.26,25.79,26.1,245.93,267.55,1.0
2018-09-10 19:17:00,88.65385,45.83398,1025.209,261.89,93.8,23.7,-1.19,3.67,68.49,26.11,26.33,246.18,267.38,25.67,26.13,245.83,267.61,1.0
2018-09-10 19:17:00,88.65385,45.83397,1025.202,261.89,93.8,23.7,-1.71,3.59,68.24,26.24,26.4,245.94,267.91,25.56,26.19,245.72,267.56,1.0
2018-09-10 19:17:00,88.65385,45.83396,1025.184,261.89,93.8,23.9,-1.65,3.69,67.96,26.18,26.33,246.35,267.97,25.44,26.28,245.66,267.46,1.0
2018-09-10 19:17:00,88.65385,45.83395,1025.195,261.89,93.8,23.8,-1.57,3.64,67.7,26.31,26.19,245.76,267.83,25.35,26.38,245.54,267.38,1.0
2018-09-10 19:17:00,88.65385,45.83394,1025.176,261.89,93.9,23.9,-1.22,3.92,67.42,26.31,26.4,245.85,267.89,25.28,26.5,245.51,267.33,1.0
2018-09-10 19:17:00,88.65385,45.83394,1025.143,261.89,93.9,24.2,-0.99,3.82,67.23,25.92,26.47,245.28,268.0,25.24,26.62,245.45,267.25,1.0
2018-09-10 19:17:00,88.65385,45.83394,1025.119,261.89,93.9,24.4,-0.75,3.76,67.07,26.05,26.26,245.43,267.33,25.22,26.74,245.4,267.17,1.0
2018-09-10 19:17:00,88.65385,45.83395,1025.123,261.89,93.9,24.3,-0.43,3.9,66.93,26.05,26.19,245.74,267.03,25.23,26.83,245.36,267.12,1.0
2018-09-10 19:17:00,88.65385,45.83396,1025.147,261.89,93.9,24.1,-0.09,3.83,66.87,25.92,26.26,245.38,267.26,25.26,26.9,245.29,267.07,1.0
2018-09-10 19:17:00,88.65385,45.83397,1025.152,261.89,93.9,24.1,0.09,3.81,66.93,25.92,26.47,245.79,266.99,25.29,26.94,245.32,267.04,1.0
2018-09-10 19:17:00,88.65385,45.83398,1025.102,261.89,93.9,24.5,0.48,3.95,67.03,25.98,26.4,245.48,266.82,25.32,26.93,245.25,266.99,1.0
2018-09-10 19:17:00,88.65385,45.83399,1025.074,261.89,93.9,24.7,0.94,3.83,67.14,25.92,26.26,245.53,266.75,25.34,26.88,245.24,266.91,1.0
2018-09-10 19:17:00,88.65385,45.834,1025.094,261.89,93.9,24.5,1.29,3.72,67.28,25.78,26.61,245.44,266.82,25.33,26.79,245.25,266.82,1.0
2018-09-10 19:17:00,88.65385,45.83401,1025.119,261.9,93.9,24.4,1.36,3.97,67.48,26.05,26.4,245.76,267.03,25.3,26.66,245.22,266.71,1.0
2018-09-10 19:17:00,88.65385,45.83402,1025.094,261.9,93.9,24.5,1.13,3.64,67.65,26.11,26.61,245.96,267.19,25.25,26.5,245.29,266.58,1.0
2018-09-10 19:17:00,88.65385,45.83403,1025.053,261.89,94.0,24.8,0.91,3.75,67.92,26.11,26.26,245.23,267.06,25.19,26.33,245.28,266.47,1.0
2018-09-10 19:17:00,88.65385,45.83404,1025.034,261.89,94.0,25.0,0.79,3.7,68.22,25.65,26.61,245.62,266.76,25.14,26.16,245.33,266.38,1.0
2018-09-10 19:17:00,88.65385,45.83405,1025.037,261.89,94.0,25.0,0.7,3.6,68.55,25.85,26.4,245.74,266.63,25.1,25.99,245.4,266.27,1.0
2018-09-10 19:17:00,88.65385,45.83406,1025.042,261.9,94.0,24.9,0.5,3.63,68.92,25.85,26.33,245.83,266.25,25.09,25.86,245.46,266.16,1.0
2018-09-10 19:17:00,88.65385,45.83405,1025.053,261.9,94.0,24.8,0.05,3.66,69.36,25.78,26.47,246.33,266.36,25.12,25.76,245.56,266.11,1.0
2018-09-10 19:17:00,88.65385,45.83404,1025.02,261.9,94.0,25.1,-0.11,3.51,69.81,26.05,26.4,245.75,266.43,25.18,25.7,245.52,266.09,1.0
2018-09-10 19:17:00,88.65385,45.83403,1025.014,261.9,94.0,25.1,-0.14,3.52,70.28,25.65,26.4,246.25,266.32,25.27,25.69,245.61,266.14,1.0
2018-09-10 19:17:00,88.65385,45.83402,1025.005,261.9,94.0,25.2,0.01,3.46,70.75,25.72,26.33,246.32,266.11,25.37,25.72,245.64,266.22,1.0
2018-09-10 19:17:00,88.65385,45.83401,1024.981,261.9,94.0,25.4,0.17,3.38,71.23,25.65,26.4,245.94,265.94,25.47,25.77,245.61,266.31,1.0
2018-09-10 19:17:00,88.65385,45.834,1024.994,261.9,94.0,25.3,0.04,3.5,71.77,25.78,26.26,246.03,266.45,25.55,25.84,245.62,266.4,1.0
2018-09-10 19:17:00,88.65385,45.834,1024.974,261.91,94.0,25.4,-0.25,3.34,72.26,25.59,26.26,245.63,266.63,25.58,25.9,245.57,266.53,1.0
2018-09-10 19:17:00,88.65385,45.83399,1024.955,261.9,94.0,25.6,-0.36,3.49,72.8,25.78,26.05,245.95,267.04,25.57,25.94,245.59,266.56,1.0
2018-09-10 19:17:00,88.65385,45.83398,1024.938,261.9,94.0,25.7,-0.12,3.3,73.42,25.92,26.4,246.13,267.09,25.51,25.96,245.55,266.57,1.0
2018-09-10 19:17:00,88.65385,45.83397,1024.936,261.91,94.1,25.7,0.14,3.32,74.1,25.78,26.26,245.52,267.19,25.41,25.95,245.53,266.61,1.0
2018-09-10 19:17:00,88.65385,45.83396,1024.969,261.91,94.1,25.5,0.14,4.07,74.77,25.72,26.26,246.54,267.02,25.28,25.91,245.57,266.63,1.0
2018-09-10 19:17:00,88.65385,45.83395,1024.929,261.91,94.1,25.8,0.84,3.35,75.32,25.65,26.4,246.46,267.63,25.15,25.86,245.57,266.6,1.0
2018-09-10 19:17:00,88.65385,45.83395,1024.939,261.91,94.1,25.7,0.47,3.72,75.97,25.85,26.26,246.78,266.99,25.03,25.8,245.68,266.61,1.0
2018-09-10 19:17:00,88.65385,45.83395,1024.943,261.92,94.1,25.7,0.56,3.6,76.46,25.72,26.26,246.37,267.05,24.95,25.75,245.71,266.62,1.0
2018-09-10 19:17:00,88.65385,45.83394,1024.927,261.92,94.1,25.8,0.74,3.43,76.88,25.85,26.19,246.69,266.95,24.92,25.73,245.75,266.66,1.0
2018-09-10 19:17:00,88.65385,45.83394,1024.898,261.91,94.1,26.0,0.62,3.3,77.31,25.65,26.26,246.89,266.6,24.94,25.75,245.8,266.75,1.0
2018-09-10 19:17:00,88.65385,45.83394,1024.874,261.91,94.1,26.2,0.07,2.41,77.89,25.72,26.26,246.25,266.57,25.02,25.81,245.75,266.86,1.0
2018-09-10 19:17:00,88.65385,45.83393,1024.883,261.91,94.1,26.1,0.13,2.73,78.35,25.33,26.26,246.51,266.9,25.14,25.91,245.69,266.92,1.0
2018-09-10 19:17:00,88.65385,45.83393,1024.875,261.92,94.1,26.2,-0.18,2.61,78.81,25.46,26.05,245.79,266.94,25.28,26.04,245.53,266.99,1.0
2018-09-10 19:17:00,88.65385,45.83393,1024.87,261.92,94.1,26.2,-1.12,2.65,79.38,25.59,26.05,245.43,267.31,25.41,26.17,245.4,267.04,1.0
2018-09-10 19:17:00,88.65385,45.83392,1024.874,261.91,94.2,26.2,-1.99,2.81,80.01,25.46,26.12,245.3,267.23,25.53,26.31,245.24,267.1,1.0
2018-09-10 19:17:00,88.65385,45.83392,1024.865,261.92,94.2,26.2,-1.8,2.8,80.64,25.59,26.05,244.99,267.28,25.61,26.41,245.0,267.17,1.0
2018-09-10 19:17:00,88.65385,45.83392,1024.83,261.91,94.2,26.5,-1.63,2.86,81.22,25.65,26.26,245.36,267.42,25.65,26.48,244.86,267.2,1.0
2018-09-10 19:17:00,88.65385,45.83391,1024.819,261.92,94.2,26.6,-1.38,2.69,81.77,25.85,26.19,245.21,267.27,25.63,26.49,244.67,267.14,1.0
2018-09-10 19:17:00,88.65384,45.83391,1024.83,261.92,94.2,26.5,-1.07,2.78,82.25,25.59,26.33,245.49,267.1,25.58,26.44,244.57,267.1,1.0
2018-09-10 19:17:00,88.65384,45.83391,1024.837,261.92,94.2,26.5,-0.83,2.9,82.73,25.72,26.19,245.46,267.72,25.5,26.36,244.5,267.06,1.0
2018-09-10 19:17:00,88.65384,45.8339,1024.813,261.92,94.2,26.6,-0.58,2.84,83.19,25.52,26.26,244.95,267.42,25.42,26.24,244.44,267.02,1.0
2018-09-10 19:17:00,88.65384,45.83389,1024.793,261.93,94.2,26.8,0.28,2.96,83.57,25.59,26.19,245.31,267.34,25.34,26.1,244.36,267.07,1.0
2018-09-10 19:17:00,88.65384,45.83388,1024.786,261.93,94.2,26.8,0.54,2.91,83.97,25.46,26.33,245.06,266.64,25.28,25.98,244.24,267.17,1.0
2018-09-10 19:17:00,88.65384,45.83387,1024.78,261.93,94.2,26.9,0.32,2.87,84.36,25.59,26.33,244.9,266.95,25.26,25.88,244.13,267.28,1.0
2018-09-10 19:17:00,88.65384,45.83386,1024.771,261.93,94.3,26.9,0.0,2.98,84.75,25.85,26.19,244.82,267.24,25.27,25.82,244.07,267.29,1.0
2018-09-10 19:17:00,88.65384,45.83386,1024.753,261.93,94.3,27.1,-0.04,3.12,85.1,25.46,26.19,244.5,267.09,25.32,25.81,244.1,267.2,1.0
2018-09-10 19:17:00,88.65384,45.83385,1024.713,261.92,94.3,27.4,0.45,2.94,85.42,25.52,26.12,243.73,267.8,25.39,25.84,244.18,267.1,1.0
2018-09-10 19:17:00,88.65384,45.83384,1024.715,261.93,94.3,27.4,0.56,2.98,85.73,25.2,25.98,243.19,268.28,25.48,25.91,244.14,267.03,1.0
2018-09-10 19:17:00,88.65384,45.83383,1024.718,261.93,94.3,27.3,1.04,3.08,85.92,25.52,26.19,242.91,268.03,25.56,26.0,244.17,266.98,1.0
2018-09-10 19:17:00,88.65384,45.83382,1024.712,261.93,94.3,27.4,1.24,3.14,86.05,25.78,26.19,244.0,266.85,25.64,26.1,244.16,266.87,1.0
2018-09-10 19:17:00,88.65384,45.83381,1024.696,261.93,94.3,27.5,1.06,3.1,86.15,25.59,26.05,245.27,266.11,25.69,26.18,244.17,266.76,1.0
2018-09-10 19:17:00,88.65384,45.83381,1024.677,261.93,94.3,27.6,0.97,2.98,86.21,25.65,26.19,245.76,266.32,25.72,26.25,244.24,266.66,1.0
2018-09-10 19:17:00,88.65384,45.8338,1024.674,261.93,94.3,27.7,0.84,3.07,86.23,25.39,26.19,245.26,266.33,25.72,26.3,244.35,266.52,1.0
2018-09-10 19:17:00,88.65384,45.83379,1024.667,261.94,94.4,27.7,0.8,2.92,86.21,25.92,26.12,245.94,266.25,25.7,26.31,244.56,266.37,1.0
2018-09-10 19:17:00,88.65384,45.83378,1024.666,261.94,94.4,27.7,0.94,2.84,86.16,25.26,26.26,245.54,265.97,25.65,26.31,244.77,266.28,1.0
2018-09-10 19:17:00,88.65384,45.83378,1024.665,261.93,94.4,27.7,1.05,2.77,86.12,25.52,26.12,245.52,266.08,25.59,26.28,244.9,266.28,1.0
2018-09-10 19:17:00,88.65384,45.83377,1024.661,261.93,94.4,27.8,0.91,2.73,86.09,25.52,26.26,245.48,266.43,25.53,26.24,244.9,266.34,1.0
2018-09-10 19:17:00,88.65384,45.83376,1024.686,261.94,94.4,27.6,0.26,2.88,86.03,25.52,26.26,245.06,266.47,25.46,26.2,244.81,266.38,1.0
2018-09-10 19:17:00,88.65384,45.83376,1024.652,261.94,94.4,27.8,0.13,2.72,85.9,25.78,26.12,245.61,266.43,25.39,26.16,244.9,266.41,1.0
2018-09-10 19:17:00,88.65384,45.83375,1024.642,261.94,94.4,27.9,0.34,2.87,85.71,25.72,26.12,245.16,266.56,25.33,26.12,244.95,266.42,1.0
2018-09-10 19:17:00,88.65384,45.83374,1024.636,261.94,94.4,28.0,0.7,2.88,85.45,25.59,26.19,245.13,266.38,25.27,26.07,244.99,266.44,1.0
2018-09-10 19:17:00,88.65384,45.83374,1024.623,261.94,94.4,28.1,0.79,2.77,85.17,25.46,26.19,244.85,266.43,25.22,26.02,244.98,266.45,1.0
2018-09-10 19:17:00,88.65384,45.83373,1024.633,261.94,94.4,28.0,0.24,2.9,84.91,25.26,26.05,244.55,266.43,25.19,25.96,244.93,266.42,1.0
2018-09-10 19:17:00,88.65384,45.83372,1024.621,261.95,94.5,28.1,0.4,2.95,84.54,25.59,26.26,246.17,266.68,25.16,25.88,244.98,266.43,1.0
2018-09-10 19:17:00,88.65384,45.83372,1024.605,261.95,94.5,28.2,0.12,2.98,84.17,25.72,26.19,246.47,266.53,25.14,25.79,244.96,266.44,1.0
2018-09-10 19:17:00,88.65384,45.83371,1024.603,261.95,94.5,28.2,0.21,3.03,83.76,25.59,26.12,246.28,266.59,25.13,25.7,245.03,266.5,1.0
2018-09-10 19:17:00,88.65384,45.83371,1024.598,261.95,94.5,28.2,0.44,3.16,83.35,25.59,26.12,245.83,266.9,25.13,25.6,245.11,266.59,1.0
2018-09-10 19:17:00,88.65384,45.8337,1024.57,261.95,94.5,28.4,0.54,3.32,82.99,25.2,26.19,245.93,266.57,25.14,25.53,245.18,266.7,1.0
2018-09-10 19:17:00,88.65384,45.83369,1024.568,261.95,94.5,28.5,0.81,3.14,82.59,25.52,26.12,246.17,267.15,25.16,25.48,245.32,266.82,1.0
2018-09-10 19:17:00,88.65384,45.83369,1024.562,261.96,94.5,28.5,0.75,3.32,82.2,25.46,26.12,245.6,266.96,25.17,25.46,245.27,266.84,1.0
2018-09-10 19:17:00,88.65384,45.83368,1024.55,261.96,94.5,28.6,0.98,3.29,81.81,25.39,26.26,245.91,267.33,25.18,25.48,245.21,266.94,1.0
2018-09-10 19:17:00,88.65384,45.83368,1024.546,261.96,94.5,28.6,1.42,3.32,81.41,25.78,26.05,245.85,267.18,25.19,25.54,245.12,267.06,1.0
2018-09-10 19:17:00,88.65384,45.83367,1024.55,261.95,94.6,28.6,1.8,3.43,81.01,25.52,26.05,245.12,267.18,25.19,25.63,245.02,267.15,1.0
