Date/Time,Latitude,Longitude,PPPP [hPa],TTT grad [K],RH [%],Height [m],Pitch [deg],Roll [deg],Yaw [deg],SWD [W/m**2] (raw),SWU [W/m**2] (raw),LWD [W/m**2] (raw),LWU [W/m**2] (raw),SWD [W/m**2] (corrected),SWU [W/m**2] (corrected),LWD [W/m**2] (corrected),LWU [W/m**2] (corrected),Flag
2018-09-10 20:10:00,88.65413,45.80614,1028.179,261.97,92.1,1.5,-5.03,-1.2,-169.91,27.16,16.24,225.41,269.88,27.48,16.46,225.4,269.54,0.0
2018-09-10 20:10:00,88.65413,45.80614,1028.209,261.97,92.1,1.3,-4.23,-1.63,-170.17,25.98,16.38,225.06,270.7,27.43,16.43,225.32,269.52,0.0
2018-09-10 20:10:00,88.65413,45.80613,1028.206,261.97,92.1,1.3,-4.86,-1.03,-170.18,27.03,16.24,225.19,270.23,27.3,16.42,225.28,269.52,0.0
2018-09-10 20:10:00,88.65413,45.80613,1028.22,261.97,92.1,1.2,-3.63,-1.39,-170.6,27.36,16.45,225.58,270.61,27.1,16.43,225.25,269.54,0.0
2018-09-10 20:10:00,88.65413,45.80613,1028.201,261.97,92.1,1.4,-3.35,-1.12,-170.91,27.62,16.38,225.39,269.77,26.86,16.46,225.23,269.57,0.0
2018-09-10 20:10:00,88.65413,45.80612,1028.174,261.97,92.1,1.6,-3.66,-0.97,-171.16,26.31,16.45,225.38,269.55,26.64,16.52,225.24,269.62,0.0
2018-09-10 20:10:00,88.65413,45.80612,1028.17,261.97,92.1,1.6,-3.96,-1.0,-171.47,27.55,16.24,225.38,269.16,26.46,16.59,225.25,269.61,0.0
2018-09-10 20:10:00,88.65413,45.80612,1028.203,261.97,92.1,1.4,-3.77,-0.82,-171.94,27.42,16.31,225.38,269.44,26.37,16.69,225.28,269.53,0.0
2018-09-10 20:10:00,88.65413,45.80612,1028.153,261.97,92.1,1.7,-4.35,-1.07,-172.4,27.22,16.45,225.38,269.45,26.4,16.81,225.31,269.47,0.0
2018-09-10 20:10:00,88.65413,45.80611,1028.138,261.97,92.1,1.9,-4.17,-1.05,-173.01,26.24,16.38,225.2,269.25,26.55,16.94,225.38,269.38,0.0
2018-09-10 20:10:00,88.65413,45.80611,1028.14,261.97,92.1,1.8,-4.24,-1.22,-173.55,26.77,16.31,225.28,269.36,26.8,17.08,225.42,269.35,0.0
2018-09-10 20:10:00,88.65413,45.80611,1028.141,261.97,92.1,1.8,-4.35,-1.38,-174.1,27.49,16.17,225.46,269.27,27.13,17.23,225.43,269.33,0.0
2018-09-10 20:10:00,88.65413,45.8061,1028.126,261.97,92.1,1.9,-4.14,-1.3,-174.74,25.98,16.59,225.09,269.16,27.48,17.36,225.43,269.31,0.0
2018-09-10 20:10:00,88.65413,45.8061,1028.134,261.97,92.1,1.9,-4.59,-1.61,-175.14,26.7,16.45,225.27,269.25,27.78,17.49,225.41,269.29,0.0
2018-09-10 20:10:00,88.65413,45.8061,1028.17,261.97,92.2,1.6,-4.1,-1.4,-175.85,26.9,16.66,225.78,269.24,27.97,17.6,225.38,269.27,0.0
2018-09-10 20:10:00,88.65413,45.80609,1028.186,261.97,92.2,1.5,-3.92,-1.53,-176.43,26.96,16.45,225.57,269.24,28.01,17.68,225.34,269.25,0.0
2018-09-10 20:10:00,88.65413,45.80609,1028.168,261.97,92.2,1.6,-3.74,-1.68,-176.9,26.9,16.45,225.29,269.15,27.86,17.74,225.3,269.23,0.0
2018-09-10 20:10:00,88.65413,45.80609,1028.13,261.97,92.2,1.9,-3.51,-1.75,-177.32,27.49,16.45,225.19,269.72,27.53,17.76,225.24,269.21,0.0
2018-09-10 20:10:00,88.65413,45.80608,1028.139,261.96,92.2,1.8,-3.62,-2.02,-177.75,28.08,16.59,225.18,269.14,27.02,17.77,225.19,269.18,0.0
2018-09-10 20:10:00,88.65413,45.80608,1028.118,261.97,92.2,2.0,-3.56,-1.9,-178.31,26.7,16.66,225.28,269.44,26.41,17.75,225.14,269.15,0.0
2018-09-10 20:10:00,88.65413,45.80607,1028.131,261.97,92.2,1.9,-3.36,-1.91,-178.82,27.09,16.79,225.18,269.15,25.74,17.72,225.06,269.1,0.0
2018-09-10 20:10:00,88.65413,45.80607,1028.132,261.97,92.2,1.9,-3.25,-1.82,-179.37,27.29,16.72,225.37,269.43,25.11,17.68,225.01,269.05,0.0
2018-09-10 20:10:00,88.65413,45.80607,1028.115,261.96,92.2,2.0,-3.29,-1.73,-78.15,26.83,16.66,225.18,269.24,24.59,17.64,224.99,268.95,0.0
2018-09-10 20:10:00,88.65413,45.80606,1028.124,261.96,92.2,2.0,-3.49,-1.84,179.44,27.09,16.86,225.28,269.53,24.25,17.61,225.0,268.8,0.0
2018-09-10 20:10:00,88.65413,45.80606,1028.093,261.96,92.2,2.2,-3.94,-1.8,178.92,26.64,16.66,225.36,269.44,24.12,17.6,225.03,268.76,0.0
2018-09-10 20:10:00,88.65413,45.80605,1028.085,261.95,92.2,2.2,-3.82,-1.95,178.37,26.31,16.79,225.35,269.24,24.24,17.6,225.1,268.88,0.0
2018-09-10 20:10:00,88.65413,45.80605,1028.08,261.95,92.2,2.3,-3.88,-1.95,177.82,26.7,16.66,225.36,269.63,24.58,17.63,225.18,268.95,0.0
2018-09-10 20:10:00,88.65413,45.80605,1028.07,261.96,92.2,2.4,-4.0,-1.86,177.31,26.96,16.86,225.26,269.0,25.1,17.69,225.28,268.98,0.0
2018-09-10 20:10:00,88.65413,45.80604,1028.054,261.95,92.2,2.5,-3.96,-1.79,176.9,26.5,16.93,225.16,268.24,25.74,17.77,225.38,269.02,0.0
2018-09-10 20:10:00,88.65413,45.80604,1028.052,261.95,92.2,2.5,-3.84,-1.67,176.65,26.5,16.86,225.44,269.17,26.42,17.88,225.47,269.07,0.0
2018-09-10 20:10:00,88.65413,45.80603,1028.049,261.95,92.2,2.5,-4.01,-1.55,176.28,27.22,16.79,225.35,271.02,27.04,18.02,225.47,269.11,0.0
2018-09-10 20:10:00,88.65413,45.80603,1028.043,261.95,92.2,2.6,-3.79,-1.41,175.79,25.39,16.86,225.26,270.03,27.52,18.17,225.6,269.11,0.0
2018-09-10 20:10:00,88.65413,45.80602,1028.016,261.95,92.2,2.8,-3.78,-1.25,175.36,26.24,16.79,225.19,269.27,27.81,18.35,225.73,269.06,0.0
2018-09-10 20:10:00,88.65413,45.80602,1027.977,261.95,92.2,3.0,-3.87,-1.11,174.99,26.18,16.86,225.18,269.23,27.85,18.53,225.79,269.03,0.0
2018-09-10 20:10:00,88.65413,45.80601,1027.997,261.95,92.2,2.9,-3.56,-1.08,174.61,27.36,17.21,225.14,269.12,27.65,18.72,225.77,269.06,0.0
2018-09-10 20:10:00,88.65413,45.80601,1027.995,261.94,92.2,2.9,-3.95,-0.91,174.29,26.7,17.28,224.4,269.19,27.21,18.91,225.72,268.97,0.0
2018-09-10 20:10:00,88.65413,45.806,1028.005,261.95,92.2,2.8,-3.72,-0.87,173.86,28.27,17.07,225.64,268.74,26.58,19.1,225.65,268.73,0.0
2018-09-10 20:10:00,88.65413,45.806,1028.002,261.95,92.2,2.9,-3.82,-0.81,173.57,26.64,17.0,226.05,267.91,25.84,19.26,225.59,268.56,0.0
2018-09-10 20:10:00,88.65413,45.80599,1027.975,261.95,92.2,3.1,-4.02,-0.77,173.39,25.52,16.79,225.6,268.44,25.06,19.4,225.54,268.47,0.0
2018-09-10 20:10:00,88.65413,45.80599,1027.927,261.95,92.2,3.4,-3.84,-0.83,173.12,27.09,17.35,225.36,269.01,24.34,19.52,225.53,268.43,0.0
2018-09-10 20:10:00,88.65413,45.80599,1027.934,261.94,92.2,3.4,-4.2,-0.88,172.76,26.11,17.42,225.36,269.11,23.75,19.61,225.55,268.49,0.0
2018-09-10 20:10:00,88.65413,45.80599,1027.939,261.94,92.2,3.3,-3.83,-1.03,172.43,27.49,17.42,225.44,269.11,23.35,19.67,225.68,268.51,0.0
2018-09-10 20:10:00,88.65413,45.80599,1027.947,261.95,92.2,3.3,-3.7,-0.99,172.06,26.9,17.62,225.08,269.3,23.18,19.71,225.69,268.63,0.0
2018-09-10 20:10:00,88.65413,45.80599,1027.952,261.95,92.2,3.2,-3.78,-0.97,171.78,26.24,17.28,225.63,269.11,23.25,19.73,225.68,268.8,0.0
2018-09-10 20:10:00,88.65413,45.80599,1027.943,261.95,92.2,3.3,-3.86,-1.1,171.59,26.44,17.55,225.44,269.44,23.55,19.75,225.71,268.93,0.0
2018-09-10 20:10:00,88.65413,45.80599,1027.911,261.94,92.3,3.5,-3.62,-1.31,171.37,25.78,17.62,225.44,269.95,24.03,19.76,225.78,268.97,0.0
2018-09-10 20:10:00,88.65413,45.80599,1027.926,261.94,92.3,3.4,-3.73,-1.04,171.03,25.46,17.69,225.54,269.48,24.62,19.77,225.82,268.99,0.0
2018-09-10 20:10:00,88.65413,45.80599,1027.92,261.94,92.3,3.5,-3.58,-1.11,170.75,26.7,17.76,225.34,269.68,25.25,19.79,225.82,268.97,0.0
2018-09-10 20:10:00,88.65413,45.80599,1027.902,261.94,92.3,3.6,-3.64,-1.2,170.52,24.87,17.69,225.53,269.79,25.85,19.81,225.77,268.91,0.0
2018-09-10 20:10:00,88.65413,45.80599,1027.882,261.94,92.3,3.7,-3.7,-1.27,170.37,26.64,17.76,225.44,269.32,26.36,19.83,225.64,268.81,0.0
2018-09-10 20:10:00,88.65413,45.80599,1027.871,261.94,92.3,3.8,-3.37,-1.36,170.35,25.2,17.83,225.44,268.99,26.74,19.85,225.42,268.66,0.0
2018-09-10 20:10:00,88.65413,45.80599,1027.875,261.94,92.3,3.8,-3.45,-1.32,170.44,26.5,17.9,225.34,268.8,26.95,19.85,225.29,268.45,0.0
2018-09-10 20:10:00,88.65413,45.80599,1027.866,261.94,92.3,3.9,-3.3,-1.36,170.42,26.24,17.97,225.42,268.91,27.0,19.84,225.17,268.31,0.0
2018-09-10 20:10:00,88.65413,45.80599,1027.861,261.94,92.3,3.9,-3.33,-1.41,170.4,26.64,18.04,225.06,269.09,26.91,19.8,225.06,268.15,0.0
2018-09-10 20:10:00,88.65413,45.80599,1027.848,261.94,92.3,4.0,-3.44,-1.45,170.41,26.83,18.04,224.72,269.18,26.72,19.75,224.95,268.0,0.0
2018-09-10 20:10:00,88.65413,45.806,1027.816,261.94,92.3,4.2,-3.47,-1.48,170.44,26.44,18.04,224.34,268.99,26.46,19.67,224.87,267.91,0.0
2018-09-10 20:10:00,88.65413,45.806,1027.805,261.94,92.3,4.3,-3.33,-1.61,170.4,26.05,18.11,225.35,268.91,26.2,19.58,224.84,267.87,0.0
2018-09-10 20:10:00,88.65413,45.806,1027.826,261.94,92.3,4.2,-3.75,-1.71,170.51,25.2,18.18,225.61,268.7,25.98,19.5,224.84,267.86,0.0
2018-09-10 20:10:00,88.65413,45.806,1027.817,261.95,92.3,4.2,-3.78,-1.86,170.54,26.24,18.31,225.34,268.79,25.82,19.42,224.79,267.85,0.0
2018-09-10 20:10:00,88.65413,45.806,1027.797,261.95,92.3,4.4,-3.79,-1.93,170.59,26.57,18.31,225.14,268.8,25.75,19.36,224.77,267.85,0.0
2018-09-10 20:10:00,88.65413,45.806,1027.781,261.94,92.3,4.5,-3.9,-1.98,170.75,26.24,18.24,225.13,268.8,25.78,19.34,224.83,267.86,0.0
2018-09-10 20:10:00,88.65413,45.806,1027.755,261.94,92.3,4.7,-4.01,-2.19,171.06,26.9,18.24,225.24,268.79,25.88,19.35,224.94,267.86,0.0
2018-09-10 20:10:00,88.65413,45.806,1027.763,261.95,92.3,4.6,-4.04,-2.0,171.11,25.0,18.45,225.33,268.6,26.03,19.39,224.93,267.86,0.0
2018-09-10 20:10:00,88.65413,45.806,1027.776,261.95,92.3,4.5,-3.64,-2.14,171.2,25.78,18.11,224.48,268.68,26.21,19.46,224.9,267.85,0.0
2018-09-10 20:10:00,88.65413,45.806,1027.774,261.95,92.3,4.5,-3.8,-2.19,171.34,26.37,18.24,224.78,268.34,26.38,19.55,224.86,267.85,0.0
2018-09-10 20:10:00,88.65413,45.80599,1027.76,261.95,92.4,4.7,-3.95,-2.3,171.49,26.7,18.31,225.32,268.6,26.51,19.65,224.85,267.85,0.0
2018-09-10 20:10:00,88.65413,45.80599,1027.753,261.95,92.4,4.7,-3.54,-2.58,171.63,26.9,18.52,225.13,268.5,26.58,19.75,224.85,267.85,0.0
2018-09-10 20:10:00,88.65413,45.80599,1027.775,261.94,92.4,4.5,-3.56,-2.36,171.78,25.46,18.45,225.32,268.7,26.57,19.84,224.84,267.85,0.0
2018-09-10 20:10:00,88.65413,45.80599,1027.778,261.95,92.4,4.5,-3.24,-2.76,172.0,25.78,18.45,225.42,268.5,26.47,19.92,224.86,267.86,0.0
2018-09-10 20:10:00,88.65413,45.80599,1027.773,261.95,92.4,4.6,-3.52,-2.56,172.34,25.85,18.52,225.04,268.59,26.31,19.97,224.96,267.88,0.0
2018-09-10 20:10:00,88.65413,45.80599,1027.759,261.95,92.4,4.7,-3.51,-2.46,172.66,26.83,18.52,225.32,268.58,26.09,20.0,225.0,267.92,0.0
2018-09-10 20:10:00,88.65413,45.80599,1027.743,261.95,92.4,4.8,-3.09,-2.62,172.98,26.83,18.66,225.42,268.59,25.84,20.01,225.0,267.96,0.0
2018-09-10 20:10:00,88.65413,45.80599,1027.749,261.95,92.4,4.7,-3.1,-2.44,173.41,26.18,18.66,225.23,268.89,25.59,20.02,225.05,267.94,0.0
2018-09-10 20:10:00,88.65413,45.80599,1027.741,261.95,92.4,4.8,-3.29,-2.6,174.1,25.78,18.66,225.21,268.3,25.39,20.02,225.1,267.9,0.0
2018-09-10 20:10:00,88.65413,45.80598,1027.708,261.94,92.4,5.0,-2.85,-2.29,174.44,26.9,18.73,225.13,268.58,25.25,20.03,225.12,267.86,0.0
2018-09-10 20:10:00,88.65413,45.80598,1027.684,261.94,92.4,5.2,-2.65,-2.26,174.88,24.28,18.66,224.77,268.9,25.2,20.05,225.13,267.82,0.0
2018-09-10 20:10:00,88.65413,45.80598,1027.685,261.94,92.4,5.2,-2.77,-2.33,175.44,26.64,18.73,224.3,268.75,25.26,20.07,225.11,267.77,0.0
2018-09-10 20:10:00,88.65413,45.80598,1027.693,261.94,92.4,5.2,-2.83,-2.04,175.95,26.18,18.87,225.12,268.39,25.44,20.11,225.07,267.76,0.0
2018-09-10 20:10:00,88.65413,45.80597,1027.672,261.94,92.4,5.3,-2.7,-2.63,176.64,26.44,18.87,225.21,268.57,25.71,20.15,225.03,267.83,0.0
2018-09-10 20:10:00,88.65413,45.80597,1027.667,261.94,92.4,5.3,-2.9,-2.42,177.44,26.44,18.66,225.12,268.57,26.04,20.19,224.99,267.84,0.0
2018-09-10 20:10:00,88.65413,45.80597,1027.665,261.94,92.4,5.4,-3.49,-2.38,178.23,27.03,18.94,225.3,268.28,26.41,20.23,224.95,267.89,0.0
2018-09-10 20:10:00,88.65413,45.80596,1027.661,261.94,92.4,5.4,-3.74,-2.38,178.97,25.59,18.87,225.3,268.56,26.76,20.26,224.92,267.93,0.0
2018-09-10 20:10:00,88.65413,45.80596,1027.647,261.94,92.4,5.5,-3.37,-2.36,122.13,25.2,18.94,225.11,268.67,27.03,20.29,224.9,267.93,0.0
2018-09-10 20:10:00,88.65413,45.80596,1027.6,261.93,92.4,5.8,-3.13,-2.57,-172.19,25.59,19.07,225.29,269.47,27.18,20.31,224.91,267.94,0.0
2018-09-10 20:10:00,88.65413,45.80596,1027.597,261.94,92.4,5.9,-2.86,-2.2,-178.57,25.2,19.0,225.11,268.33,27.17,20.32,224.87,267.92,0.0
2018-09-10 20:10:00,88.65413,45.80595,1027.594,261.93,92.4,5.9,-2.46,-2.25,-177.77,26.24,19.21,225.2,268.58,26.99,20.32,224.8,267.88,0.0
2018-09-10 20:10:00,88.65413,45.80595,1027.582,261.93,92.4,6.0,-2.4,-2.21,-177.03,27.42,19.07,224.59,268.79,26.64,20.33,224.74,267.85,0.0
2018-09-10 20:10:00,88.65413,45.80594,1027.57,261.93,92.4,6.1,-2.77,-2.06,-176.32,25.92,19.07,224.2,268.59,26.16,20.34,224.67,267.82,0.0
2018-09-10 20:10:00,88.65413,45.80594,1027.595,261.93,92.4,5.9,-3.17,-2.2,-175.61,26.7,19.14,225.36,268.04,25.6,20.35,224.62,267.78,0.0
2018-09-10 20:10:00,88.65413,45.80594,1027.571,261.93,92.4,6.1,-2.93,-1.79,-174.87,27.09,19.14,224.07,267.85,25.03,20.37,224.66,267.68,0.0
2018-09-10 20:10:00,88.65413,45.80594,1027.57,261.93,92.4,6.1,-2.84,-1.84,-174.15,25.78,19.07,223.79,267.64,24.53,20.4,224.68,267.66,0.0
2018-09-10 20:10:00,88.65413,45.80593,1027.565,261.93,92.4,6.1,-2.8,-1.85,-173.51,26.05,19.14,223.67,267.82,24.19,20.43,224.7,267.64,0.0
2018-09-10 20:10:00,88.65413,45.80592,1027.536,261.93,92.4,6.3,-2.84,-1.79,-172.93,26.7,19.35,223.66,268.27,24.06,20.47,224.75,267.62,0.0
2018-09-10 20:10:00,88.65413,45.80591,1027.494,261.93,92.4,6.6,-3.01,-1.8,-172.31,25.33,19.42,224.14,268.08,24.18,20.51,224.82,267.63,0.0
2018-09-10 20:10:00,88.65413,45.80591,1027.534,261.93,92.4,6.3,-3.04,-1.63,-171.76,26.5,19.28,225.19,268.46,24.55,20.56,224.81,267.68,0.0
2018-09-10 20:10:00,88.65413,45.8059,1027.526,261.93,92.4,6.4,-2.75,-1.79,-171.17,25.13,19.35,225.09,268.17,25.14,20.6,224.9,267.74,0.0
2018-09-10 20:10:00,88.65413,45.80589,1027.502,261.92,92.4,6.6,-2.58,-1.78,-170.6,25.0,19.42,225.09,267.98,25.89,20.64,225.02,267.8,0.0
2018-09-10 20:10:00,88.65412,45.80589,1027.484,261.92,92.4,6.7,-2.58,-1.71,-170.07,26.44,19.42,225.03,268.08,26.71,20.68,225.17,267.81,0.0
2018-09-10 20:10:00,88.65412,45.80588,1027.478,261.92,92.5,6.7,-2.69,-1.69,-169.53,25.13,19.42,224.83,268.17,27.49,20.71,225.31,267.79,0.0
2018-09-10 20:10:00,88.65412,45.80587,1027.455,261.92,92.5,6.9,-2.72,-1.69,-169.0,25.98,19.49,224.94,268.07,28.13,20.73,225.44,267.74,0.0
2018-09-10 20:10:00,88.65412,45.80587,1027.491,261.92,92.5,6.7,-2.73,-1.59,-168.59,26.24,19.35,225.42,267.93,28.55,20.74,225.47,267.68,0.0
2018-09-10 20:10:00,88.65412,45.80586,1027.474,261.92,92.5,6.8,-2.73,-1.51,-168.14,26.5,19.56,225.08,268.15,28.7,20.73,225.5,267.61,0.0
2018-09-10 20:10:00,88.65412,45.80586,1027.446,261.92,92.5,7.0,-2.82,-1.51,-167.61,26.5,19.63,225.36,268.07,28.55,20.71,225.54,267.55,0.0
2018-09-10 20:10:00,88.65412,45.80585,1027.446,261.92,92.5,7.0,-2.94,-1.42,-167.0,26.18,19.63,225.27,268.06,28.12,20.67,225.59,267.5,0.0
2018-09-10 20:10:00,88.65412,45.80585,1027.47,261.92,92.5,6.8,-2.96,-1.11,-166.36,25.92,19.56,225.08,268.16,27.47,20.62,225.65,267.48,0.0
2018-09-10 20:10:00,88.65412,45.80584,1027.425,261.91,92.5,7.1,-3.16,-1.13,-165.85,26.83,19.76,225.36,268.35,26.7,20.55,225.7,267.47,0.0
2018-09-10 20:10:00,88.65412,45.80584,1027.411,261.92,92.5,7.2,-3.0,-0.87,-165.48,25.98,19.76,225.26,267.97,25.89,20.48,225.73,267.49,0.0
2018-09-10 20:10:00,88.65412,45.80584,1027.42,261.92,92.5,7.2,-2.77,-0.78,-165.12,26.11,19.63,225.26,267.87,25.17,20.4,225.75,267.52,0.0
2018-09-10 20:10:00,88.65412,45.80583,1027.426,261.92,92.5,7.1,-2.73,-0.76,-164.7,27.09,19.63,225.44,268.16,24.62,20.33,225.76,267.55,0.0
2018-09-10 20:10:00,88.65412,45.80583,1027.405,261.92,92.5,7.3,-2.9,-0.66,-164.23,26.31,19.76,225.53,268.16,24.3,20.27,225.77,267.56,0.0
2018-09-10 20:10:00,88.65412,45.80582,1027.406,261.92,92.5,7.3,-2.67,-0.71,-163.71,25.46,19.76,225.53,268.15,24.26,20.23,225.75,267.57,0.0
2018-09-10 20:10:00,88.65412,45.80582,1027.411,261.92,92.5,7.2,-2.78,-0.54,-163.31,26.64,19.7,225.34,267.95,24.46,20.22,225.64,267.66,0.0
2018-09-10 20:10:00,88.65412,45.80582,1027.365,261.92,92.5,7.6,-2.58,-0.62,-162.98,26.24,19.83,225.25,267.66,24.88,20.23,225.58,267.64,0.0
2018-09-10 20:10:00,88.65412,45.80581,1027.338,261.92,92.5,7.8,-2.51,-0.57,-162.65,26.5,19.76,225.16,267.85,25.44,20.26,225.56,267.58,0.0
2018-09-10 20:10:00,88.65412,45.80581,1027.367,261.92,92.5,7.6,-2.59,-0.42,-162.29,25.98,19.9,225.25,267.57,26.03,20.31,225.53,267.54,0.0
2018-09-10 20:10:00,88.65412,45.8058,1027.372,261.92,92.5,7.5,-2.36,-0.6,-161.9,25.52,19.76,225.43,267.8,26.57,20.37,225.51,267.58,0.0
2018-09-10 20:10:00,88.65412,45.8058,1027.329,261.92,92.5,7.9,-2.11,-0.56,-161.55,24.48,19.7,224.3,269.26,26.95,20.45,225.5,267.64,0.0
2018-09-10 20:10:00,88.65412,45.8058,1027.3,261.92,92.5,8.1,-2.15,-0.54,-161.19,25.59,19.56,224.9,268.19,27.13,20.52,225.49,267.7,0.0
2018-09-10 20:10:00,88.65412,45.80579,1027.289,261.92,92.5,8.2,-2.0,-0.59,-160.83,27.09,19.97,225.34,267.95,27.06,20.59,225.49,267.78,0.0
2018-09-10 20:10:00,88.65412,45.80579,1027.285,261.93,92.5,8.2,-1.86,-0.65,-160.49,25.92,19.83,225.44,268.38,26.76,20.65,225.5,267.87,0.0
2018-09-10 20:10:00,88.65412,45.80578,1027.269,261.93,92.5,8.3,-2.03,-0.61,-160.21,26.18,19.9,225.62,268.98,26.26,20.7,225.52,267.96,0.0
2018-09-10 20:10:00,88.65412,45.80578,1027.266,261.93,92.6,8.3,-1.59,-0.57,-159.98,27.36,20.04,225.43,269.09,25.64,20.73,225.54,268.01,0.0
2018-09-10 20:10:00,88.65412,45.80578,1027.262,261.93,92.5,8.4,-1.85,-0.79,-159.64,26.5,19.83,225.52,268.94,24.99,20.76,225.65,267.95,0.0
2018-09-10 20:10:00,88.65412,45.80577,1027.266,261.93,92.5,8.3,-1.7,-0.72,-159.51,25.98,20.04,225.24,268.42,24.43,20.78,225.68,267.95,0.0
2018-09-10 20:10:00,88.65412,45.80577,1027.265,261.92,92.5,8.3,-1.54,-0.66,-159.46,26.64,19.9,225.24,268.24,24.04,20.79,225.61,267.96,0.0
2018-09-10 20:10:00,88.65412,45.80577,1027.25,261.92,92.6,8.4,-1.66,-0.73,-159.38,26.05,19.97,225.32,267.84,23.9,20.79,225.47,267.91,0.0
2018-09-10 20:10:00,88.65412,45.80576,1027.258,261.93,92.6,8.4,-1.61,-0.48,-159.34,25.39,20.04,225.52,267.94,24.05,20.78,225.32,267.75,0.0
2018-09-10 20:10:00,88.65412,45.80576,1027.226,261.92,92.5,8.6,-1.7,-0.59,-159.26,25.06,19.97,225.42,267.64,24.48,20.76,225.18,267.57,0.0
2018-09-10 20:10:00,88.65412,45.80576,1027.232,261.92,92.6,8.6,-1.63,-0.4,-159.31,26.5,19.97,225.51,267.93,25.16,20.73,225.08,267.4,0.0
2018-09-10 20:10:00,88.65412,45.80576,1027.229,261.92,92.6,8.6,-1.58,-0.34,-159.28,25.0,20.04,224.61,267.83,25.99,20.68,225.05,267.25,0.0
2018-09-10 20:10:00,88.65412,45.80575,1027.206,261.92,92.6,8.8,-1.49,-0.34,-159.25,25.33,20.11,224.16,267.74,26.87,20.62,225.04,267.13,0.0
2018-09-10 20:10:00,88.65412,45.80575,1027.204,261.92,92.6,8.8,-1.25,-0.08,-159.37,26.11,20.04,224.07,267.64,27.66,20.55,225.01,267.05,0.0
2018-09-10 20:10:00,88.65412,45.80575,1027.182,261.92,92.6,8.9,-1.57,-0.11,-159.33,25.98,20.18,224.06,267.64,28.25,20.48,225.05,267.03,0.0
2018-09-10 20:10:00,88.65412,45.80575,1027.186,261.92,92.6,8.9,-1.45,-0.01,-159.5,25.92,20.25,224.27,267.64,28.53,20.42,225.11,267.04,0.0
2018-09-10 20:10:00,88.65412,45.80574,1027.18,261.92,92.6,9.0,-1.35,0.21,-159.77,26.83,20.11,225.26,267.64,28.44,20.37,225.16,267.07,0.0
2018-09-10 20:10:00,88.65412,45.80574,1027.159,261.92,92.6,9.1,-1.29,0.27,-160.04,25.65,20.11,225.02,267.89,27.96,20.36,225.28,267.11,0.0
2018-09-10 20:10:00,88.65412,45.80574,1027.132,261.92,92.6,9.3,-1.22,0.03,-160.28,26.7,20.11,224.95,267.46,27.12,20.37,225.41,267.13,0.0
2018-09-10 20:10:00,88.65412,45.80574,1027.129,261.91,92.6,9.3,-1.2,0.19,-160.67,25.39,20.11,225.25,267.26,26.03,20.43,225.43,267.11,0.0
2018-09-10 20:10:00,88.65412,45.80574,1027.122,261.91,92.6,9.4,-1.13,-0.1,-160.95,26.77,20.04,225.18,267.64,24.8,20.51,225.42,267.09,0.0
2018-09-10 20:10:00,88.65412,45.80573,1027.104,261.9,92.6,9.5,-1.0,0.06,-161.44,26.18,20.25,225.49,267.64,23.58,20.63,225.45,267.06,0.0
2018-09-10 20:10:00,88.65412,45.80573,1027.095,261.9,92.6,9.6,-0.86,0.09,-161.99,26.5,20.18,225.59,267.64,22.52,20.75,225.44,267.01,0.0
2018-09-10 20:10:00,88.65412,45.80573,1027.102,261.91,92.6,9.5,-0.78,-0.06,-162.52,26.5,20.11,225.03,267.51,21.76,20.87,225.41,266.95,0.0
2018-09-10 20:10:00,88.65412,45.80573,1027.074,261.9,92.6,9.8,-0.78,0.19,-163.12,26.31,19.97,224.15,267.05,21.38,20.97,225.42,266.89,0.0
2018-09-10 20:10:00,88.65412,45.80573,1027.065,261.9,92.6,9.8,-0.83,-0.05,-163.74,25.52,20.04,224.21,267.14,21.44,21.02,225.39,266.84,0.0
2018-09-10 20:10:00,88.65412,45.80573,1027.044,261.9,92.6,10.0,-0.77,0.13,-164.57,26.31,20.39,224.92,267.29,21.91,21.03,225.37,266.8,0.0
2018-09-10 20:10:00,88.65412,45.80572,1027.04,261.9,92.6,10.0,-0.74,0.22,-165.46,25.06,20.39,225.57,267.24,22.73,20.98,225.38,266.8,0.0
2018-09-10 20:10:00,88.65412,45.80572,1027.048,261.9,92.6,9.9,-0.66,0.19,-166.31,25.0,20.32,225.67,267.44,23.78,20.87,225.41,266.83,0.0
2018-09-10 20:10:00,88.65412,45.80572,1027.025,261.9,92.6,10.1,-0.46,0.21,-167.07,24.48,20.32,225.76,267.53,24.92,20.72,225.49,266.91,0.0
2018-09-10 20:10:00,88.65412,45.80572,1027.062,261.91,92.6,9.8,-0.6,0.04,-167.89,25.13,20.39,225.48,267.62,26.0,20.55,225.67,267.05,0.0
2018-09-10 20:10:00,88.65412,45.80572,1027.03,261.91,92.6,10.1,-0.47,0.0,-168.7,24.94,20.18,225.66,267.43,26.87,20.38,225.81,267.16,0.0
2018-09-10 20:10:00,88.65412,45.80572,1027.021,261.91,92.6,10.1,-0.56,-0.0,-169.52,25.46,20.46,225.66,267.43,27.46,20.23,225.87,267.27,0.0
2018-09-10 20:10:00,88.65412,45.80571,1027.035,261.9,92.6,10.0,-0.62,-0.04,-170.36,25.59,20.32,225.6,267.52,27.69,20.13,225.88,267.36,0.0
2018-09-10 20:10:00,88.65412,45.80571,1027.035,261.9,92.6,10.0,-0.54,-0.11,-171.14,26.37,20.32,225.63,267.51,27.57,20.09,225.87,267.42,0.0
2018-09-10 20:10:00,88.65412,45.80571,1027.013,261.91,92.6,10.2,-0.73,-0.15,-171.78,25.2,20.25,225.73,267.52,27.16,20.12,225.83,267.44,0.0
2018-09-10 20:10:00,88.65412,45.80571,1027.006,261.91,92.6,10.3,-0.63,-0.16,-172.52,25.98,20.32,225.38,267.26,26.53,20.21,225.78,267.43,0.0
2018-09-10 20:10:00,88.65413,45.80571,1026.996,261.9,92.6,10.3,-0.56,-0.27,-173.24,26.7,20.04,225.25,267.02,25.8,20.37,225.71,267.39,0.0
2018-09-10 20:10:00,88.65413,45.80571,1026.984,261.9,92.6,10.4,-0.54,-0.3,-173.92,26.7,20.18,225.45,267.13,25.09,20.55,225.64,267.32,0.0
2018-09-10 20:10:00,88.65413,45.8057,1026.971,261.9,92.6,10.5,-0.64,-0.26,-174.6,25.06,20.52,225.45,267.32,24.51,20.76,225.59,267.23,0.0
2018-09-10 20:10:00,88.65413,45.8057,1026.968,261.91,92.6,10.5,-0.88,-0.42,-175.26,25.06,20.39,225.75,267.74,24.13,20.95,225.55,267.16,0.0
2018-09-10 20:10:00,88.65413,45.8057,1026.965,261.9,92.6,10.6,-0.58,-0.2,-175.87,25.92,20.18,225.66,267.44,23.99,21.1,225.56,267.1,0.0
2018-09-10 20:10:00,88.65413,45.8057,1026.955,261.9,92.6,10.6,-0.68,-0.16,-176.36,24.61,20.18,225.46,267.24,24.09,21.21,225.62,267.07,0.0
2018-09-10 20:10:00,88.65413,45.8057,1026.945,261.9,92.6,10.7,-0.5,-0.1,-176.84,26.5,20.25,225.73,267.42,24.4,21.26,225.7,267.07,0.0
2018-09-10 20:10:00,88.65413,45.8057,1026.928,261.9,92.6,10.8,-0.3,-0.04,-177.26,25.26,20.46,225.35,267.21,24.84,21.25,225.78,267.1,0.0
2018-09-10 20:10:00,88.65413,45.8057,1026.889,261.9,92.7,11.1,-0.53,-0.1,-177.54,25.0,20.39,225.64,267.51,25.34,21.19,225.84,267.12,0.0
2018-09-10 20:10:00,88.65413,45.8057,1026.917,261.9,92.7,10.9,-0.16,-0.03,-177.87,25.52,20.52,225.46,267.51,25.81,21.1,225.78,267.07,0.0
2018-09-10 20:10:00,88.65413,45.8057,1026.91,261.9,92.7,11.0,-0.71,0.01,-177.98,25.2,20.52,225.83,267.61,26.18,20.99,225.82,267.11,0.0
2018-09-10 20:10:00,88.65413,45.8057,1026.892,261.9,92.7,11.1,-0.56,0.02,-178.13,26.11,20.52,225.55,267.31,26.39,20.89,225.86,267.16,0.0
2018-09-10 20:10:00,88.65413,45.80571,1026.876,261.89,92.7,11.2,-0.33,-0.05,-178.19,25.0,20.66,225.74,267.31,26.41,20.81,225.88,267.19,0.0
2018-09-10 20:10:00,88.65413,45.80571,1026.867,261.89,92.7,11.3,-0.52,-0.14,-178.13,25.98,20.39,225.25,267.37,26.25,20.76,225.88,267.19,0.0
2018-09-10 20:10:00,88.65413,45.80571,1026.861,261.9,92.7,11.3,-0.55,0.16,-178.12,25.39,20.32,223.9,266.01,25.92,20.75,225.86,267.17,0.0
2018-09-10 20:10:00,88.65413,45.80571,1026.869,261.89,92.7,11.3,-0.72,0.02,-177.93,25.39,20.52,225.16,267.09,25.47,20.77,225.83,267.13,0.0
2018-09-10 20:10:00,88.65413,45.80571,1026.868,261.89,92.7,11.3,-0.75,0.18,-177.77,25.85,20.46,225.55,267.21,24.95,20.82,225.81,267.08,0.0
2018-09-10 20:10:00,88.65413,45.80571,1026.868,261.89,92.7,11.3,-0.76,0.29,-177.6,26.44,20.59,225.63,267.31,24.41,20.87,225.81,267.03,0.0
2018-09-10 20:10:00,88.65413,45.80571,1026.884,261.9,92.7,11.2,-0.75,0.2,-177.35,25.59,20.39,225.71,267.31,23.93,20.93,225.82,266.97,0.0
2018-09-10 20:10:00,88.65413,45.8057,1026.9,261.9,92.7,11.0,-0.63,0.18,-177.04,26.11,20.39,225.72,267.4,23.54,20.97,225.88,266.95,0.0
2018-09-10 20:10:00,88.65413,45.80568,1026.872,261.9,92.7,11.2,-0.73,0.21,-176.7,25.0,20.52,225.81,267.11,23.29,20.99,226.06,267.02,0.0
2018-09-10 20:10:00,88.65413,45.80567,1026.875,261.89,92.7,11.2,-0.66,0.01,-176.3,24.61,20.66,225.9,267.4,23.21,20.98,226.14,267.01,0.0
2018-09-10 20:10:00,88.65413,45.80565,1026.868,261.89,92.7,11.3,-0.56,0.03,-175.96,24.87,20.59,225.63,267.21,23.31,20.94,226.2,266.98,0.0
2018-09-10 20:10:00,88.65413,45.80564,1026.863,261.89,92.7,11.3,-0.5,0.06,-175.57,25.46,20.59,225.82,267.3,23.6,20.88,226.27,266.95,0.0
2018-09-10 20:10:00,88.65413,45.80562,1026.876,261.89,92.8,11.2,-0.53,-0.03,-175.07,25.2,20.59,225.53,267.3,24.05,20.79,226.37,266.89,0.0
2018-09-10 20:10:00,88.65413,45.80561,1026.864,261.89,92.8,11.3,-0.55,-0.08,-174.53,25.78,20.59,225.98,267.12,24.64,20.7,226.49,266.76,0.0
2018-09-10 20:10:00,88.65413,45.8056,1026.844,261.89,92.8,11.5,-0.67,-0.18,-173.98,25.78,20.66,225.72,267.5,25.3,20.6,226.58,266.69,0.0
2018-09-10 20:10:00,88.65413,45.80558,1026.804,261.89,92.8,11.8,-0.8,-0.24,-173.42,25.06,20.52,225.71,267.21,25.98,20.51,226.68,266.66,0.0
2018-09-10 20:10:00,88.65413,45.80557,1026.773,261.89,92.8,12.0,-0.82,-0.16,-172.89,24.74,20.59,226.04,267.5,26.61,20.44,226.68,266.63,0.0
2018-09-10 20:10:00,88.65413,45.80555,1026.774,261.89,92.8,12.0,-0.74,-0.01,-172.36,24.67,20.59,226.72,266.96,27.12,20.38,226.63,266.59,0.0
2018-09-10 20:10:00,88.65413,45.80554,1026.774,261.89,92.8,12.0,-0.79,-0.06,-171.67,25.06,20.59,227.28,266.37,27.44,20.34,226.58,266.58,0.0
2018-09-10 20:10:00,88.65413,45.80553,1026.75,261.89,92.8,12.2,-1.06,-0.05,-171.01,25.0,20.52,227.08,267.11,27.52,20.33,226.55,266.59,0.0
2018-09-10 20:10:00,88.65413,45.80552,1026.745,261.89,92.8,12.2,-0.66,-0.21,-170.31,25.78,20.59,227.22,267.65,27.35,20.33,226.54,266.64,0.0
2018-09-10 20:10:00,88.65413,45.80552,1026.749,261.89,92.8,12.2,-0.78,-0.19,-169.57,26.05,20.32,226.64,267.43,26.93,20.36,226.56,266.72,0.0
2018-09-10 20:10:00,88.65413,45.80551,1026.752,261.89,92.8,12.1,-1.15,-0.11,-168.86,24.94,20.66,225.78,267.2,26.29,20.41,226.54,266.78,0.0
2018-09-10 20:10:00,88.65413,45.8055,1026.75,261.9,92.8,12.2,-1.2,-0.15,-168.22,25.65,20.59,225.58,267.3,25.52,20.48,226.48,266.86,0.0
2018-09-10 20:10:00,88.65413,45.80549,1026.741,261.9,92.8,12.2,-1.37,-0.1,-167.54,25.59,20.52,225.96,267.28,24.69,20.56,226.52,267.14,0.0
2018-09-10 20:10:00,88.65413,45.80549,1026.729,261.9,92.9,12.3,-1.38,-0.15,-166.88,26.64,20.59,225.97,267.2,23.93,20.65,226.45,267.21,0.0
2018-09-10 20:10:00,88.65413,45.80548,1026.709,261.9,92.9,12.5,-1.4,-0.23,-166.24,25.65,20.52,225.89,267.0,23.31,20.75,226.38,267.2,0.0
2018-09-10 20:10:00,88.65413,45.80547,1026.681,261.9,92.9,12.7,-1.41,-0.22,-165.62,25.85,20.66,225.25,266.64,22.94,20.85,226.34,267.16,0.0
2018-09-10 20:10:00,88.65413,45.80546,1026.649,261.9,92.9,12.9,-1.38,-0.15,-164.99,25.06,20.39,225.79,266.61,22.86,20.93,226.31,267.1,0.0
2018-09-10 20:10:00,88.65413,45.80546,1026.637,261.9,92.9,13.0,-1.27,-0.3,-164.32,25.2,20.52,227.14,268.11,23.07,21.0,226.28,267.03,0.0
2018-09-10 20:10:00,88.65413,45.80545,1026.624,261.9,92.9,13.1,-1.66,-0.22,-163.69,25.26,20.52,226.07,266.88,23.55,21.05,226.24,266.96,0.0
2018-09-10 20:10:00,88.65413,45.80544,1026.6,261.9,92.9,13.3,-1.74,-0.25,-163.1,24.15,20.59,226.44,266.98,24.22,21.06,226.2,266.9,0.0
2018-09-10 20:10:00,88.65413,45.80542,1026.602,261.9,92.9,13.3,-1.72,-0.35,-162.54,25.0,20.59,226.01,266.98,24.99,21.04,226.18,266.87,0.0
2018-09-10 20:10:00,88.65413,45.80541,1026.632,261.9,92.9,13.0,-1.8,-0.43,-162.03,24.94,20.59,226.06,267.08,25.74,21.0,226.21,266.91,0.0
2018-09-10 20:10:00,88.65413,45.80539,1026.638,261.9,93.0,13.0,-2.03,-0.43,-161.6,24.48,20.59,225.68,267.18,26.37,20.93,226.25,267.0,0.0
2018-09-10 20:10:00,88.65413,45.80538,1026.613,261.9,93.0,13.2,-2.05,-0.51,-161.11,26.11,20.73,225.96,266.99,26.79,20.84,226.17,266.97,0.0
2018-09-10 20:10:00,88.65413,45.80536,1026.582,261.9,93.0,13.4,-1.93,-0.4,-160.75,25.33,20.73,225.96,267.37,26.94,20.76,226.21,267.06,0.0
2018-09-10 20:10:00,88.65413,45.80535,1026.558,261.9,93.0,13.6,-2.02,-0.4,-160.38,24.15,20.66,225.96,267.07,26.82,20.68,226.21,267.17,0.0
2018-09-10 20:10:00,88.65413,45.80533,1026.547,261.91,93.0,13.7,-1.98,-0.42,-160.06,26.18,20.8,225.68,267.07,26.44,20.61,226.22,267.27,0.0
2018-09-10 20:10:00,88.65413,45.80532,1026.549,261.91,93.0,13.6,-1.71,-0.4,-159.84,25.85,20.59,226.06,267.36,25.89,20.57,226.22,267.32,0.0
2018-09-10 20:10:00,88.65413,45.8053,1026.533,261.91,93.0,13.8,-2.01,-0.45,-159.56,25.78,20.59,225.96,267.08,25.23,20.55,226.13,267.32,0.0
2018-09-10 20:10:00,88.65413,45.80529,1026.54,261.91,93.0,13.7,-1.83,-0.38,-159.47,26.18,20.52,225.96,267.37,24.57,20.54,226.06,267.29,0.0
2018-09-10 20:11:00,88.65413,45.80527,1026.542,261.91,93.0,13.7,-1.78,-0.35,-159.35,24.41,20.59,225.77,266.98,23.97,20.55,226.01,267.21,0.0
2018-09-10 20:11:00,88.65413,45.80526,1026.529,261.91,93.0,13.8,-1.74,-0.29,-159.3,25.72,20.59,225.86,267.28,23.51,20.56,225.96,267.1,0.0
2018-09-10 20:11:00,88.65413,45.80524,1026.512,261.92,93.0,13.9,-1.68,-0.25,-159.35,24.8,20.66,225.66,266.94,23.21,20.57,225.92,266.98,0.0
2018-09-10 20:11:00,88.65413,45.80523,1026.513,261.92,93.0,13.9,-1.72,-0.41,-159.42,25.0,20.59,224.76,266.92,23.06,20.57,225.89,266.86,0.0
2018-09-10 20:11:00,88.65413,45.80521,1026.517,261.92,93.1,13.9,-1.64,-0.21,-159.57,25.06,20.52,225.35,267.16,23.02,20.55,225.89,266.76,0.0
2018-09-10 20:11:00,88.65413,45.8052,1026.5,261.93,93.1,14.0,-1.51,-0.33,-159.83,26.05,20.8,225.62,266.98,23.04,20.51,225.91,266.68,0.0
2018-09-10 20:11:00,88.65413,45.80518,1026.481,261.93,93.1,14.2,-1.58,-0.33,-160.09,24.22,20.59,225.95,266.97,23.05,20.46,225.91,266.59,0.0
2018-09-10 20:11:00,88.65413,45.80517,1026.48,261.93,93.1,14.2,-1.79,-0.31,-160.27,24.8,20.73,226.04,266.96,23.0,20.41,225.94,266.52,0.0
2018-09-10 20:11:00,88.65413,45.80516,1026.503,261.93,93.1,14.0,-1.89,-0.39,-160.38,25.06,20.52,226.04,267.35,22.87,20.36,226.06,266.55,0.0
2018-09-10 20:11:00,88.65413,45.80514,1026.487,261.93,93.1,14.1,-1.39,-0.09,-160.78,25.06,20.73,225.96,267.25,22.63,20.33,226.22,266.57,0.0
2018-09-10 20:11:00,88.65413,45.80513,1026.445,261.93,93.1,14.4,-1.27,-0.23,-161.09,25.26,20.66,225.95,267.17,22.31,20.31,226.34,266.58,0.0
2018-09-10 20:11:00,88.65413,45.80511,1026.42,261.93,93.1,14.6,-1.36,-0.28,-161.5,25.26,20.73,225.63,266.43,21.97,20.32,226.45,266.58,0.0
2018-09-10 20:11:00,88.65412,45.8051,1026.415,261.92,93.1,14.6,-1.44,-0.28,-161.98,24.61,20.39,225.5,266.51,21.66,20.36,226.5,266.58,0.0
2018-09-10 20:11:00,88.65412,45.80509,1026.424,261.93,93.1,14.6,-1.34,-0.33,-162.5,23.89,20.11,226.11,266.92,21.44,20.42,226.5,266.58,0.0
2018-09-10 20:11:00,88.65412,45.8051,1026.424,261.93,93.2,14.6,-1.2,-0.38,-163.05,24.41,20.66,225.74,266.67,21.38,20.5,226.47,266.58,0.0
2018-09-10 20:11:00,88.65412,45.8051,1026.397,261.93,93.2,14.8,-1.22,-0.37,-163.61,25.39,20.73,225.65,267.06,21.52,20.58,226.43,266.6,0.0
2018-09-10 20:11:00,88.65412,45.80511,1026.4,261.93,93.2,14.8,-1.01,-0.46,-164.22,24.28,20.73,226.8,266.96,21.85,20.67,226.39,266.64,0.0
2018-09-10 20:11:00,88.65412,45.80512,1026.405,261.93,93.2,14.7,-0.81,-0.48,-164.83,25.46,20.52,226.46,267.15,22.36,20.75,226.41,266.75,0.0
2018-09-10 20:11:00,88.65412,45.80513,1026.392,261.93,93.2,14.8,-0.79,-0.42,-165.46,22.84,20.52,225.92,266.86,22.99,20.82,226.45,266.87,0.0
2018-09-10 20:11:00,88.65412,45.80514,1026.355,261.93,93.2,15.1,-1.13,-0.34,-166.11,22.97,20.59,226.02,266.96,23.68,20.86,226.44,266.94,0.0
2018-09-10 20:11:00,88.65412,45.80514,1026.381,261.93,93.2,14.9,-1.18,-0.28,-166.78,24.48,20.52,226.02,266.87,24.35,20.88,226.47,267.03,0.0
2018-09-10 20:11:00,88.65412,45.80515,1026.388,261.93,93.2,14.8,-1.23,-0.32,-167.48,24.67,20.73,226.21,267.05,24.92,20.88,226.51,267.1,0.0
2018-09-10 20:11:00,88.65412,45.80516,1026.404,261.93,93.2,14.7,-1.27,-0.31,-168.18,24.22,20.52,226.21,266.76,25.33,20.86,226.5,267.15,0.0
2018-09-10 20:11:00,88.65412,45.80517,1026.412,261.94,93.2,14.7,-1.11,-0.26,-168.9,24.02,20.59,226.21,266.86,25.53,20.81,226.49,267.15,0.0
2018-09-10 20:11:00,88.65412,45.80517,1026.371,261.93,93.2,15.0,-0.73,-0.24,-169.63,25.2,20.59,226.01,266.95,25.51,20.73,226.51,267.12,0.0
2018-09-10 20:11:00,88.65412,45.80518,1026.314,261.94,93.2,15.4,-0.65,-0.26,-170.34,24.48,20.66,226.12,266.96,25.29,20.64,226.51,267.04,0.0
2018-09-10 20:11:00,88.65412,45.80518,1026.309,261.94,93.2,15.4,-0.56,-0.23,-171.2,23.69,20.59,226.01,266.85,24.9,20.53,226.48,266.95,0.0
2018-09-10 20:11:00,88.65412,45.80516,1026.301,261.93,93.3,15.5,-0.57,-0.28,-171.9,24.48,20.66,226.02,266.66,24.39,20.41,226.44,266.85,0.0
2018-09-10 20:11:00,88.65412,45.80516,1026.29,261.93,93.3,15.6,-0.5,-0.32,-172.58,24.48,20.73,226.2,267.14,23.82,20.28,226.39,266.77,0.0
2018-09-10 20:11:00,88.65412,45.80515,1026.281,261.94,93.3,15.6,-0.35,-0.32,-173.3,24.54,20.59,226.2,266.94,23.26,20.15,226.34,266.71,0.0
2018-09-10 20:11:00,88.65412,45.80514,1026.272,261.93,93.3,15.7,-0.25,-0.37,-174.03,24.61,20.73,225.92,266.94,22.77,20.03,226.3,266.69,0.0
2018-09-10 20:11:00,88.65412,45.80513,1026.288,261.94,93.3,15.6,-0.42,-0.41,-174.71,24.61,20.46,226.29,267.03,22.39,19.93,226.27,266.71,0.0
2018-09-10 20:11:00,88.65412,45.80512,1026.287,261.94,93.3,15.6,-0.07,-0.51,-175.42,24.61,20.52,226.2,267.03,22.15,19.85,226.27,266.76,0.0
2018-09-10 20:11:00,88.65412,45.80511,1026.263,261.94,93.3,15.8,-0.26,-0.6,-176.07,24.28,20.59,226.2,267.03,22.07,19.81,226.22,266.79,0.0
2018-09-10 20:11:00,88.65412,45.8051,1026.234,261.94,93.3,16.0,-0.43,-0.62,-176.75,24.08,20.52,226.01,267.13,22.16,19.81,226.21,266.82,0.0
2018-09-10 20:11:00,88.65412,45.80509,1026.236,261.94,93.3,16.0,0.16,-0.56,-177.52,23.23,20.59,226.19,267.13,22.39,19.85,226.32,266.87,0.0
2018-09-10 20:11:00,88.65412,45.80508,1026.21,261.94,93.3,16.2,-0.56,-0.59,-178.07,23.76,20.46,226.1,267.12,22.75,19.92,226.37,266.89,0.0
2018-09-10 20:11:00,88.65412,45.80507,1026.21,261.94,93.4,16.2,-0.18,-0.63,-178.69,24.41,20.52,226.29,267.04,23.2,20.02,226.41,266.86,0.0
2018-09-10 20:11:00,88.65412,45.80507,1026.219,261.94,93.4,16.1,-0.22,-0.56,-179.31,24.61,20.32,225.46,266.74,23.69,20.14,226.44,266.8,0.0
2018-09-10 20:11:00,88.65412,45.80507,1026.218,261.94,93.4,16.1,-0.31,-0.58,-53.93,23.36,20.52,225.69,266.25,24.18,20.25,226.46,266.71,0.0
2018-09-10 20:11:00,88.65412,45.80508,1026.196,261.95,93.3,16.3,-0.17,-0.71,179.55,23.5,20.39,226.61,266.64,24.63,20.36,226.47,266.61,0.0
2018-09-10 20:11:00,88.65412,45.80508,1026.166,261.94,93.4,16.5,-0.49,-0.55,178.96,23.69,20.25,226.0,266.73,24.99,20.45,226.47,266.52,0.0
2018-09-10 20:11:00,88.65412,45.80508,1026.18,261.94,93.4,16.4,-0.3,-0.79,178.41,24.61,20.52,226.28,266.63,25.22,20.51,226.45,266.45,0.0
2018-09-10 20:11:00,88.65412,45.80509,1026.179,261.95,93.4,16.4,-0.05,-0.77,177.85,24.15,20.46,226.09,266.92,25.31,20.55,226.44,266.42,0.0
2018-09-10 20:11:00,88.65412,45.80509,1026.183,261.95,93.4,16.4,-0.24,-0.76,177.4,24.54,20.52,226.28,267.02,25.24,20.57,226.49,266.47,0.0
2018-09-10 20:11:00,88.65412,45.8051,1026.187,261.94,93.4,16.3,-0.61,-0.79,177.05,24.8,20.46,226.1,266.54,25.03,20.57,226.51,266.56,0.0
2018-09-10 20:11:00,88.65412,45.8051,1026.145,261.94,93.4,16.7,-0.48,-0.73,176.7,23.5,20.52,226.28,266.83,24.72,20.57,226.44,266.64,0.0
2018-09-10 20:11:00,88.65412,45.8051,1026.171,261.95,93.4,16.5,-0.39,-0.72,176.35,24.48,20.52,226.19,267.12,24.35,20.57,226.44,266.73,0.0
2018-09-10 20:11:00,88.65412,45.80511,1026.153,261.94,93.4,16.6,-0.74,-0.91,176.14,22.84,20.52,226.19,267.01,23.98,20.58,226.43,266.82,0.0
2018-09-10 20:11:00,88.65412,45.80511,1026.14,261.94,93.4,16.7,-0.56,-1.05,175.86,23.63,20.46,226.36,266.82,23.68,20.59,226.48,266.85,0.0
2018-09-10 20:11:00,88.65412,45.80512,1026.149,261.94,93.4,16.6,-0.34,-1.05,175.61,24.94,20.39,226.17,266.64,23.49,20.62,226.54,266.82,0.0
2018-09-10 20:11:00,88.65412,45.80512,1026.155,261.95,93.5,16.6,-0.71,-0.96,175.53,24.87,20.39,226.08,266.63,23.46,20.64,226.59,266.76,0.0
2018-09-10 20:11:00,88.65412,45.80512,1026.143,261.95,93.5,16.7,-0.21,-0.8,175.41,25.0,20.39,226.45,266.82,23.6,20.65,226.61,266.69,0.0
2018-09-10 20:11:00,88.65412,45.80512,1026.115,261.95,93.5,16.9,-0.24,-0.86,175.35,24.48,20.52,226.26,266.92,23.91,20.63,226.57,266.59,0.0
2018-09-10 20:11:00,88.65412,45.80513,1026.08,261.95,93.5,17.1,-0.7,-0.71,175.38,24.74,20.52,226.98,266.37,24.35,20.58,226.52,266.48,0.0
2018-09-10 20:11:00,88.65412,45.80513,1026.072,261.95,93.5,17.2,-0.74,-0.54,175.39,22.45,20.59,227.3,266.51,24.85,20.5,226.48,266.39,0.0
2018-09-10 20:11:00,88.65412,45.80513,1026.101,261.95,93.5,17.0,-0.41,-0.47,175.37,23.04,20.39,227.08,266.5,25.33,20.37,226.45,266.32,0.0
2018-09-10 20:11:00,88.65412,45.80514,1026.071,261.95,93.5,17.2,-0.9,-0.47,175.48,23.89,20.59,226.85,266.74,25.73,20.22,226.42,266.29,0.0
2018-09-10 20:11:00,88.65412,45.80514,1026.041,261.95,93.5,17.4,-0.35,-0.36,175.62,24.61,20.52,226.45,266.91,25.96,20.05,226.42,266.3,0.0
2018-09-10 20:11:00,88.65412,45.80514,1026.03,261.95,93.5,17.5,-0.44,-0.2,175.85,23.69,20.59,226.26,267.22,25.97,19.87,226.39,266.31,0.0
2018-09-10 20:11:00,88.65412,45.80514,1026.036,261.95,93.5,17.5,-0.55,-0.1,176.12,23.82,20.39,226.17,266.92,25.76,19.72,226.36,266.41,0.0
2018-09-10 20:11:00,88.65412,45.80514,1026.042,261.95,93.6,17.4,-0.35,-0.11,176.4,25.39,20.52,226.35,266.9,25.32,19.61,226.33,266.56,0.0
2018-09-10 20:11:00,88.65412,45.80515,1026.01,261.95,93.6,17.7,0.11,-0.2,176.69,25.33,20.46,225.96,266.91,24.7,19.55,226.28,266.67,0.0
2018-09-10 20:11:00,88.65412,45.80515,1026.003,261.96,93.6,17.7,-0.39,-0.23,177.06,24.54,20.39,226.34,266.8,23.98,19.55,226.24,266.72,0.0
2018-09-10 20:11:00,88.65412,45.80515,1025.978,261.95,93.6,17.9,-0.16,-0.22,177.41,25.65,20.39,225.85,266.39,23.23,19.62,226.41,266.77,0.0
2018-09-10 20:11:00,88.65412,45.80516,1025.974,261.95,93.6,17.9,-0.05,-0.37,177.77,23.82,20.18,226.26,266.46,22.54,19.75,226.52,266.85,0.0
2018-09-10 20:11:00,88.65412,45.80516,1025.979,261.96,93.6,17.9,-0.14,-0.4,178.18,23.04,20.39,226.52,266.59,21.99,19.93,226.53,266.88,0.0
2018-09-10 20:11:00,88.65412,45.80516,1025.957,261.95,93.6,18.0,-0.31,-0.21,178.61,24.54,20.39,225.97,266.75,21.63,20.14,226.56,266.86,0.0
2018-09-10 20:11:00,88.65411,45.80516,1025.949,261.96,93.6,18.1,-0.44,-0.37,179.05,23.63,20.11,226.09,266.37,21.48,20.36,226.67,266.89,0.0
2018-09-10 20:11:00,88.65411,45.80517,1025.973,261.96,93.6,17.9,0.24,-0.18,179.39,23.69,20.18,227.88,266.77,21.55,20.56,226.74,266.87,0.0
2018-09-10 20:11:00,88.65411,45.80517,1025.954,261.95,93.6,18.1,0.1,-0.21,-28.92,25.2,20.25,227.16,267.53,21.79,20.74,226.8,266.89,0.0
2018-09-10 20:11:00,88.65411,45.80517,1025.923,261.95,93.6,18.3,0.19,-0.19,-179.69,24.15,20.59,226.38,267.23,22.15,20.88,226.81,266.88,0.0
2018-09-10 20:11:00,88.65411,45.80518,1025.918,261.96,93.7,18.3,0.52,-0.08,-179.26,24.22,20.39,226.68,267.19,22.57,20.96,226.79,266.86,0.0
2018-09-10 20:11:00,88.65411,45.80518,1025.908,261.96,93.7,18.4,-0.1,-0.18,-178.73,22.32,20.32,227.64,267.7,23.0,20.99,226.81,266.9,0.0
2018-09-10 20:11:00,88.65411,45.80518,1025.885,261.96,93.7,18.6,0.45,-0.1,-178.26,24.02,20.39,226.91,267.08,23.38,20.97,226.82,266.97,0.0
2018-09-10 20:11:00,88.65411,45.80518,1025.891,261.96,93.7,18.5,0.38,-0.24,-177.82,24.02,20.39,226.35,266.62,23.69,20.9,226.66,267.01,0.0
2018-09-10 20:11:00,88.65411,45.80518,1025.888,261.96,93.7,18.6,0.25,-0.3,-177.37,24.22,20.46,226.31,266.88,23.9,20.81,226.56,266.98,0.0
2018-09-10 20:11:00,88.65411,45.80518,1025.874,261.96,93.7,18.7,0.12,-0.32,-176.87,23.89,20.32,226.4,266.88,24.03,20.69,226.54,266.95,0.0
2018-09-10 20:11:00,88.65411,45.80519,1025.875,261.96,93.7,18.7,-0.07,-0.36,-176.37,22.97,20.59,226.12,266.78,24.11,20.56,226.48,266.94,0.0
2018-09-10 20:11:00,88.65411,45.80519,1025.862,261.96,93.7,18.8,0.03,-0.13,-175.98,24.67,20.46,226.11,266.78,24.15,20.44,226.34,266.84,0.0
2018-09-10 20:11:00,88.65411,45.80519,1025.857,261.96,93.7,18.8,-0.17,-0.3,-175.43,23.17,20.46,226.12,266.59,24.2,20.34,226.23,266.78,0.0
2018-09-10 20:11:00,88.65411,45.80519,1025.855,261.96,93.7,18.8,-0.14,-0.33,-175.01,24.8,20.46,226.41,266.78,24.26,20.25,226.18,266.74,0.0
2018-09-10 20:11:00,88.65411,45.80519,1025.86,261.96,93.8,18.8,-0.27,-0.35,-174.6,23.43,20.39,226.41,266.87,24.35,20.2,226.16,266.62,0.0
2018-09-10 20:11:00,88.65411,45.80519,1025.87,261.96,93.8,18.7,-0.51,-0.42,-174.16,24.87,20.46,226.22,266.86,24.47,20.17,226.15,266.47,0.0
2018-09-10 20:11:00,88.65411,45.80519,1025.844,261.97,93.8,18.9,-0.11,-0.35,-173.79,23.36,20.39,226.31,266.86,24.6,20.17,226.15,266.43,0.0
2018-09-10 20:11:00,88.65411,45.80519,1025.822,261.97,93.8,19.1,-0.64,-0.41,-173.46,23.17,20.39,226.22,266.78,24.71,20.19,226.16,266.39,0.0
2018-09-10 20:11:00,88.65411,45.8052,1025.791,261.96,93.8,19.3,-0.43,-0.46,-173.0,24.61,20.46,226.11,266.78,24.79,20.23,226.25,266.43,0.0
2018-09-10 20:11:00,88.65411,45.8052,1025.787,261.96,93.8,19.3,-0.38,-0.48,-172.58,22.91,20.39,226.12,265.94,24.8,20.28,226.38,266.5,0.0
2018-09-10 20:11:00,88.65411,45.8052,1025.809,261.96,93.8,19.1,-0.39,-0.47,-172.26,24.54,20.32,226.31,265.52,24.74,20.34,226.51,266.53,0.0
2018-09-10 20:11:00,88.65411,45.8052,1025.794,261.97,93.8,19.3,0.12,-0.49,-172.0,23.23,20.39,226.12,266.57,24.58,20.39,226.63,266.47,0.0
2018-09-10 20:11:00,88.65411,45.8052,1025.748,261.98,93.8,19.6,-0.04,-0.58,-171.72,24.74,20.52,226.21,266.86,24.34,20.44,226.72,266.39,0.0
2018-09-10 20:11:00,88.65411,45.80521,1025.741,261.98,93.8,19.7,0.02,-0.55,-171.48,25.26,20.32,226.94,267.32,24.02,20.47,226.73,266.32,0.0
2018-09-10 20:11:00,88.65411,45.80521,1025.736,261.98,93.9,19.7,0.17,-0.52,-171.26,23.76,20.25,226.76,267.67,23.65,20.48,226.75,266.24,0.0
2018-09-10 20:11:00,88.65411,45.80521,1025.726,261.97,93.9,19.8,0.2,-0.45,-171.06,23.82,20.32,227.3,267.16,23.24,20.47,226.79,266.25,0.0
2018-09-10 20:11:00,88.65411,45.80521,1025.721,261.97,93.8,19.8,0.08,-0.32,-170.89,23.82,20.52,227.2,266.63,22.81,20.44,226.82,266.29,0.0
2018-09-10 20:11:00,88.65411,45.80522,1025.7,261.97,93.9,20.0,0.49,-0.31,-170.85,24.41,20.46,227.08,266.53,22.39,20.4,226.83,266.25,0.0
2018-09-10 20:11:00,88.65411,45.80522,1025.69,261.97,93.9,20.0,0.28,-0.16,-170.71,23.5,20.59,226.46,266.54,21.99,20.36,226.83,266.23,0.0
2018-09-10 20:11:00,88.65411,45.80522,1025.697,261.97,93.9,20.0,0.39,-0.12,-170.59,23.89,20.32,226.6,266.64,21.63,20.3,226.78,266.16,0.0
2018-09-10 20:11:00,88.65411,45.80522,1025.707,261.97,93.9,19.9,0.47,-0.07,-170.45,24.61,20.39,226.74,266.54,21.34,20.26,226.78,266.16,0.0
2018-09-10 20:11:00,88.65411,45.80522,1025.7,261.98,93.9,20.0,0.41,-0.02,-170.31,23.3,20.39,226.74,266.56,21.12,20.22,226.8,266.28,0.0
2018-09-10 20:11:00,88.65411,45.80522,1025.644,261.97,93.9,20.4,0.42,-0.2,-170.25,22.84,20.39,226.49,266.56,21.01,20.19,226.75,266.48,0.0
2018-09-10 20:11:00,88.65411,45.80522,1025.657,261.98,93.9,20.3,0.69,-0.12,-170.33,23.23,20.39,226.13,266.66,21.0,20.18,226.71,266.69,0.0
2018-09-10 20:11:00,88.65411,45.80522,1025.637,261.98,93.9,20.4,0.48,-0.22,-170.34,25.13,20.32,226.28,266.37,21.11,20.18,226.73,266.84,0.0
2018-09-10 20:11:00,88.65411,45.80522,1025.625,261.98,93.9,20.5,0.63,-0.28,-170.43,23.89,20.39,227.29,267.36,21.35,20.19,226.72,266.96,0.0
2018-09-10 20:11:00,88.65411,45.80522,1025.625,261.98,93.9,20.5,0.76,-0.31,-170.55,23.82,20.32,227.11,267.76,21.71,20.21,226.68,267.05,0.0
2018-09-10 20:11:00,88.65411,45.80522,1025.613,261.98,93.9,20.6,0.4,-0.33,-170.6,22.25,20.39,226.29,268.09,22.16,20.24,226.62,267.11,0.0
2018-09-10 20:11:00,88.65411,45.80522,1025.615,261.98,94.0,20.6,0.54,-0.33,-170.69,23.89,20.39,226.2,267.88,22.66,20.26,226.58,267.13,0.0
2018-09-10 20:11:00,88.65411,45.80522,1025.608,261.98,94.0,20.6,0.52,-0.41,-170.85,22.64,20.52,226.48,267.44,23.19,20.27,226.55,267.1,0.0
2018-09-10 20:11:00,88.65411,45.80522,1025.586,261.98,94.0,20.8,0.58,-0.37,-170.97,22.32,20.25,226.28,267.38,23.68,20.28,226.52,267.06,0.0
2018-09-10 20:11:00,88.65411,45.80522,1025.564,261.99,94.0,21.0,0.67,-0.37,-171.08,23.63,20.32,226.19,266.98,24.09,20.27,226.42,266.95,0.0
2018-09-10 20:11:00,88.65411,45.80522,1025.561,261.98,94.0,21.0,0.69,-0.49,-171.2,23.56,20.32,225.91,267.34,24.38,20.25,226.35,266.79,0.0
2018-09-10 20:11:00,88.65411,45.80522,1025.574,261.99,94.0,20.9,0.52,-0.43,-171.33,23.95,20.39,226.28,266.82,24.52,20.23,226.42,266.65,0.0
2018-09-10 20:11:00,88.65411,45.80522,1025.562,261.98,94.0,21.0,0.22,-0.46,-171.47,22.97,20.39,226.28,266.33,24.49,20.2,226.28,266.51,0.0
2018-09-10 20:11:00,88.65411,45.80522,1025.552,261.99,94.0,21.1,0.46,-0.43,-171.67,23.69,20.32,226.09,266.25,24.32,20.18,226.31,266.54,0.0
2018-09-10 20:11:00,88.65411,45.80522,1025.539,261.99,94.0,21.2,0.44,-0.45,-171.87,23.04,20.39,226.28,266.45,24.03,20.15,226.38,266.58,0.0
2018-09-10 20:11:00,88.65411,45.80522,1025.525,261.99,94.0,21.3,0.25,-0.5,-172.1,24.67,20.32,226.58,266.45,23.67,20.13,226.39,266.58,0.0
2018-09-10 20:11:00,88.65411,45.80522,1025.523,261.99,94.1,21.3,0.32,-0.53,-172.42,23.89,20.32,227.16,266.41,23.29,20.11,226.39,266.59,0.0
2018-09-10 20:11:00,88.65411,45.80522,1025.521,262.0,94.1,21.3,-0.14,-0.64,-172.69,23.63,20.39,224.5,266.45,22.93,20.1,226.39,266.61,0.0
2018-09-10 20:11:00,88.65411,45.80522,1025.52,261.99,94.1,21.3,-0.06,-0.62,-172.94,22.45,20.18,226.64,267.42,22.63,20.1,226.37,266.66,0.0
2018-09-10 20:11:00,88.65411,45.80521,1025.507,261.99,94.1,21.4,-0.07,-0.63,-173.17,23.36,20.52,226.44,266.94,22.42,20.09,226.35,266.71,0.0
2018-09-10 20:11:00,88.65411,45.80521,1025.494,262.0,94.1,21.5,-0.06,-0.65,-173.42,23.56,20.18,226.09,266.55,22.3,20.1,226.33,266.73,0.0
2018-09-10 20:11:00,88.65411,45.80521,1025.507,262.0,94.1,21.4,0.2,-0.6,-173.68,23.69,20.32,226.36,266.64,22.26,20.1,226.28,266.76,0.0
2018-09-10 20:11:00,88.65411,45.80521,1025.499,261.99,94.1,21.5,0.31,-0.46,-173.95,23.76,20.32,226.36,266.45,22.27,20.1,226.19,266.8,0.0
2018-09-10 20:11:00,88.65411,45.80521,1025.491,261.99,94.1,21.5,0.25,-0.54,-174.12,22.71,20.32,226.27,266.15,22.3,20.11,226.42,266.82,0.0
2018-09-10 20:11:00,88.65411,45.80521,1025.481,262.0,94.1,21.6,0.46,-0.44,-174.44,23.1,20.25,226.18,266.25,22.31,20.13,226.44,266.71,0.0
2018-09-10 20:11:00,88.65411,45.80521,1025.463,262.0,94.1,21.7,0.32,-0.43,-174.7,23.95,20.18,226.18,266.46,22.29,20.15,226.43,266.62,0.0
2018-09-10 20:11:00,88.65411,45.80521,1025.441,262.0,94.2,21.9,0.03,-0.54,-174.92,23.5,20.39,226.36,266.58,22.22,20.18,226.47,266.58,0.0
2018-09-10 20:11:00,88.65411,45.8052,1025.437,262.0,94.2,21.9,0.68,-0.5,-175.35,22.71,20.32,226.23,266.87,22.09,20.22,226.52,266.5,0.0
2018-09-10 20:11:00,88.65411,45.8052,1025.415,262.0,94.2,22.1,0.16,-0.48,-175.58,23.23,20.25,227.21,266.6,21.93,20.27,226.63,266.46,0.0
2018-09-10 20:11:00,88.65411,45.8052,1025.396,262.0,94.2,22.2,0.66,-0.4,-176.03,22.97,20.18,226.64,266.55,21.75,20.32,226.71,266.37,0.0
2018-09-10 20:11:00,88.65411,45.8052,1025.393,262.0,94.2,22.2,0.65,-0.34,-176.36,23.23,20.39,226.36,266.64,21.58,20.38,226.76,266.3,0.0
2018-09-10 20:11:00,88.65411,45.8052,1025.402,262.0,94.2,22.2,0.38,-0.32,-176.6,23.69,20.25,226.45,266.08,21.44,20.42,226.77,266.24,0.0
2018-09-10 20:11:00,88.65411,45.8052,1025.402,262.0,94.2,22.2,0.65,-0.34,-176.87,23.82,20.32,226.32,266.13,21.35,20.46,226.73,266.17,0.0
2018-09-10 20:11:00,88.65411,45.8052,1025.392,262.01,94.2,22.3,1.0,-0.44,-177.13,22.45,20.25,227.15,266.72,21.32,20.48,226.65,266.1,0.0
2018-09-10 20:11:00,88.65411,45.8052,1025.368,262.01,94.2,22.4,0.45,-0.42,-177.25,22.78,20.18,227.02,265.98,21.34,20.48,226.5,266.07,0.0
2018-09-10 20:11:00,88.65411,45.8052,1025.351,262.01,94.2,22.6,0.72,-0.48,-177.5,22.71,20.32,226.88,266.17,21.39,20.46,226.45,266.07,0.0
2018-09-10 20:11:00,88.65411,45.8052,1025.356,262.01,94.2,22.5,1.01,-0.56,-177.75,22.78,20.32,226.45,266.36,21.47,20.42,226.45,266.15,0.0
2018-09-10 20:11:00,88.65411,45.8052,1025.383,262.01,94.2,22.3,0.71,-0.58,-177.91,23.04,20.39,226.32,266.5,21.56,20.37,226.44,266.34,0.0
2018-09-10 20:11:00,88.65411,45.8052,1025.367,262.01,94.3,22.4,0.81,-0.54,-178.09,22.19,20.32,226.44,266.24,21.65,20.3,226.45,266.55,0.0
2018-09-10 20:11:00,88.65411,45.8052,1025.357,262.01,94.3,22.5,0.95,-0.68,-178.23,22.71,20.46,226.63,266.44,21.75,20.23,226.37,266.64,0.0
2018-09-10 20:11:00,88.65411,45.8052,1025.343,262.02,94.3,22.6,0.94,-0.59,-178.25,24.02,20.11,226.66,266.53,21.86,20.17,226.36,266.82,0.0
2018-09-10 20:11:00,88.65411,45.8052,1025.335,262.02,94.3,22.7,0.92,-0.54,-178.28,22.71,20.39,226.47,267.32,22.0,20.12,226.38,266.92,0.0
2018-09-10 20:11:00,88.65411,45.80519,1025.333,262.02,94.3,22.7,0.9,-0.56,-178.33,23.5,20.32,226.15,268.17,22.19,20.08,226.4,266.95,0.0
2018-09-10 20:11:00,88.65411,45.80519,1025.318,262.02,94.3,22.8,0.83,-0.54,-178.34,21.66,20.39,226.28,267.91,22.44,20.07,226.44,266.99,0.0
2018-09-10 20:11:00,88.65411,45.80519,1025.322,262.02,94.3,22.8,0.51,-0.43,-178.31,21.53,20.32,225.64,266.75,22.76,20.08,226.46,266.98,0.0
2018-09-10 20:11:00,88.65411,45.80519,1025.31,262.02,94.3,22.9,0.46,-0.48,-178.34,23.23,19.97,225.9,267.22,23.13,20.1,226.45,266.92,0.0
2018-09-10 20:11:00,88.65411,45.80519,1025.296,262.02,94.3,23.0,0.36,-0.46,-178.28,22.71,20.32,226.07,266.95,23.54,20.14,226.38,266.84,0.0
2018-09-10 20:11:00,88.65411,45.80519,1025.288,262.02,94.4,23.0,0.23,-0.46,-178.15,24.08,20.32,226.16,266.47,23.95,20.19,226.33,266.7,0.0
2018-09-10 20:11:00,88.65411,45.80519,1025.289,262.03,94.4,23.0,0.19,-0.57,-177.99,22.45,20.52,226.24,266.76,24.33,20.24,226.32,266.49,0.0
2018-09-10 20:11:00,88.65411,45.80518,1025.26,262.03,94.4,23.2,0.42,-0.68,-177.81,22.19,20.11,226.42,266.62,24.63,20.3,226.27,266.33,0.0
2018-09-10 20:11:00,88.65411,45.80518,1025.283,262.03,94.4,23.1,0.15,-0.68,-177.57,22.06,20.18,226.15,266.5,24.83,20.34,226.27,266.28,0.0
2018-09-10 20:11:00,88.65411,45.80518,1025.268,262.03,94.4,23.2,-0.02,-0.76,-177.32,23.04,20.32,226.06,266.42,24.92,20.38,226.26,266.21,0.0
2018-09-10 20:11:00,88.65411,45.80518,1025.248,262.03,94.4,23.3,-0.1,-0.7,-177.03,23.04,20.11,226.73,266.42,24.88,20.41,226.27,266.21,0.0
2018-09-10 20:11:00,88.65411,45.80518,1025.256,262.03,94.4,23.3,-0.19,-0.46,-176.72,22.91,20.32,226.9,266.33,24.74,20.43,226.3,266.27,0.0
2018-09-10 20:11:00,88.65411,45.80518,1025.231,262.04,94.4,23.4,-0.48,-0.37,-176.39,23.63,20.39,226.44,266.53,24.53,20.43,226.35,266.29,0.0
2018-09-10 20:11:00,88.65411,45.80518,1025.217,262.04,94.4,23.6,-0.09,-0.43,-176.06,23.36,20.39,226.33,266.52,24.29,20.41,226.41,266.32,0.0
2018-09-10 20:11:00,88.65411,45.80518,1025.219,262.04,94.4,23.5,-0.35,-0.39,-175.72,24.02,20.25,226.15,266.52,24.04,20.37,226.47,266.34,0.0
2018-09-10 20:11:00,88.65411,45.80518,1025.207,262.04,94.5,23.6,-0.38,-0.41,-175.41,23.04,20.32,226.34,266.43,23.82,20.32,226.51,266.35,0.0
2018-09-10 20:11:00,88.65411,45.80518,1025.179,262.04,94.5,23.8,-0.29,-0.47,-175.07,22.51,20.18,226.62,266.24,23.64,20.25,226.47,266.34,0.0
2018-09-10 20:11:00,88.65411,45.80517,1025.168,262.04,94.5,23.9,-0.51,-0.47,-174.65,23.43,20.32,226.15,266.24,23.48,20.16,226.4,266.29,0.0
2018-09-10 20:11:00,88.65411,45.80517,1025.156,262.04,94.5,24.0,-0.52,-0.42,-174.44,21.73,20.39,226.25,266.41,23.32,20.06,226.42,266.22,0.0
2018-09-10 20:11:00,88.65411,45.80517,1025.153,262.05,94.5,24.0,-0.5,-0.57,-174.0,24.08,20.25,226.37,266.13,23.13,19.95,226.36,266.14,0.0
2018-09-10 20:11:00,88.65411,45.80517,1025.154,262.05,94.5,24.0,-0.56,-0.57,-173.53,23.04,20.32,226.46,266.27,22.87,19.84,226.28,266.07,0.0
2018-09-10 20:11:00,88.65411,45.80517,1025.168,262.05,94.5,23.9,-0.68,-0.53,-173.05,23.82,20.25,226.14,266.23,22.5,19.75,226.21,266.0,0.0
2018-09-10 20:11:00,88.65411,45.80517,1025.192,262.05,94.5,23.7,-0.79,-0.57,-172.57,23.04,20.25,226.35,266.32,22.01,19.67,226.19,265.98,0.0
2018-09-10 20:11:00,88.65411,45.80516,1025.179,262.06,94.5,23.8,-0.8,-0.6,-172.12,23.23,20.18,227.08,266.22,21.43,19.63,226.29,266.04,0.0
2018-09-10 20:11:00,88.65411,45.80516,1025.156,262.06,94.6,24.0,-1.05,-0.56,-171.65,22.45,20.32,226.5,266.22,20.78,19.63,226.38,266.14,0.0
2018-09-10 20:11:00,88.65411,45.80516,1025.153,262.06,94.6,24.0,-1.0,-0.53,-171.16,24.35,20.25,226.14,266.41,20.13,19.67,226.46,266.18,0.0
2018-09-10 20:11:00,88.65411,45.80516,1025.145,262.06,94.6,24.1,-1.04,-0.54,-170.69,22.32,20.25,226.14,266.32,19.57,19.74,226.56,266.2,0.0
2018-09-10 20:11:00,88.65411,45.80516,1025.118,262.06,94.6,24.3,-1.16,-0.53,-170.28,23.3,20.18,226.78,266.64,19.17,19.84,226.66,266.21,0.0
2018-09-10 20:11:00,88.65411,45.80515,1025.104,262.06,94.6,24.4,-1.07,-0.39,-169.91,23.5,20.18,227.79,267.0,19.02,19.96,226.71,266.25,0.0
2018-09-10 20:11:00,88.65411,45.80515,1025.11,262.06,94.6,24.3,-1.19,-0.56,-169.44,22.25,19.97,227.14,267.13,19.19,20.08,226.68,266.27,0.0
2018-09-10 20:11:00,88.65411,45.80515,1025.097,262.06,94.6,24.4,-1.04,-0.5,-169.13,22.45,20.11,226.77,266.17,19.68,20.19,226.78,266.29,0.0
2018-09-10 20:11:00,88.65411,45.80515,1025.086,262.06,94.6,24.5,-1.17,-0.43,-168.86,22.32,20.11,226.43,266.01,20.5,20.28,226.82,266.29,0.0
2018-09-10 20:11:00,88.65411,45.80515,1025.081,262.06,94.6,24.6,-1.32,-0.44,-168.55,21.92,19.97,226.35,266.09,21.58,20.33,226.8,266.29,0.0
2018-09-10 20:11:00,88.65411,45.80514,1025.055,262.07,94.6,24.8,-1.06,-0.46,-168.25,21.99,20.32,226.13,266.12,22.83,20.35,226.73,266.3,0.0
2018-09-10 20:11:00,88.65411,45.80514,1025.024,262.07,94.6,25.0,-0.95,-0.39,-168.06,22.78,20.18,226.13,266.13,24.12,20.33,226.55,266.35,0.0
2018-09-10 20:11:00,88.65411,45.80514,1025.032,262.07,94.7,24.9,-1.0,-0.4,-167.85,22.06,20.39,227.5,266.22,25.32,20.28,226.4,266.38,0.0
2018-09-10 20:11:00,88.65411,45.80514,1025.008,262.07,94.7,25.1,-0.87,-0.52,-167.72,22.84,20.32,226.57,266.4,26.3,20.2,226.26,266.46,0.0
2018-09-10 20:11:00,88.65411,45.80513,1024.98,262.07,94.7,25.3,-0.89,-0.5,-167.61,22.45,20.11,226.31,266.3,26.94,20.11,226.19,266.56,0.0
2018-09-10 20:11:00,88.65411,45.80513,1024.979,262.07,94.7,25.3,-1.03,-0.33,-167.51,22.32,20.18,225.93,266.57,27.17,20.01,226.17,266.63,0.0
2018-09-10 20:11:00,88.65411,45.80513,1024.945,262.07,94.7,25.6,-0.78,-0.44,-167.46,22.38,20.18,226.3,267.51,26.96,19.92,226.13,266.66,0.0
2018-09-10 20:11:00,88.65411,45.80512,1024.961,262.08,94.7,25.5,-0.51,-0.41,-167.53,22.45,20.18,226.03,267.87,26.32,19.83,226.12,266.67,0.0
2018-09-10 20:11:00,88.65411,45.80512,1024.951,262.07,94.7,25.5,-0.8,-0.51,-167.55,24.02,20.04,226.41,267.53,25.33,19.75,226.03,266.64,0.0
2018-09-10 20:11:00,88.65411,45.80512,1024.936,262.07,94.7,25.6,-0.89,-0.61,-167.65,24.08,20.25,226.67,266.91,24.11,19.68,226.01,266.61,0.0
2018-09-10 20:11:00,88.65411,45.80512,1024.94,262.07,94.7,25.6,-0.8,-0.63,-167.79,24.02,20.04,226.96,266.84,22.77,19.61,226.03,266.56,0.0
2018-09-10 20:11:00,88.65411,45.80511,1024.968,262.08,94.8,25.4,-1.04,-0.6,-167.9,23.82,20.18,226.31,266.76,21.48,19.55,226.04,266.46,0.0
2018-09-10 20:11:00,88.65411,45.80511,1024.95,262.08,94.8,25.5,-0.67,-0.68,-168.16,23.17,20.11,226.41,266.7,20.37,19.5,225.96,266.17,0.0
2018-09-10 20:11:00,88.65411,45.80511,1024.941,262.08,94.8,25.6,-0.73,-0.71,-168.35,22.45,20.11,226.21,266.21,19.56,19.46,226.04,266.04,0.0
2018-09-10 20:11:00,88.65411,45.80511,1024.927,262.08,94.8,25.7,-0.73,-0.74,-168.57,22.91,20.39,226.13,266.47,19.11,19.43,226.11,265.97,0.0
2018-09-10 20:11:00,88.65411,45.80511,1024.916,262.08,94.8,25.8,-0.73,-0.76,-168.87,22.64,19.97,226.0,266.06,19.06,19.43,226.09,265.94,0.0
2018-09-10 20:11:00,88.65411,45.8051,1024.921,262.09,94.8,25.8,-0.81,-0.75,-169.25,22.38,19.83,225.57,265.62,19.37,19.46,226.05,265.9,0.0
2018-09-10 20:11:00,88.65411,45.8051,1024.924,262.09,94.8,25.7,-0.83,-0.66,-169.64,22.45,19.97,224.61,264.42,19.99,19.53,226.19,265.79,0.0
2018-09-10 20:11:00,88.65411,45.8051,1024.904,262.09,94.8,25.9,-0.77,-0.72,-170.06,22.84,20.11,226.22,265.77,20.81,19.64,226.21,265.74,0.0
2018-09-10 20:11:00,88.65411,45.8051,1024.903,262.09,94.8,25.9,-0.72,-0.76,-170.53,22.71,20.11,226.45,266.1,21.7,19.78,226.21,265.73,0.0
2018-09-10 20:11:00,88.65412,45.8051,1024.902,262.09,94.8,25.9,-0.88,-0.8,-170.98,22.38,20.11,226.02,266.16,22.55,19.94,226.2,265.72,0.0
2018-09-10 20:11:00,88.65412,45.8051,1024.881,262.1,94.8,26.1,-1.13,-0.83,-171.4,21.99,19.83,225.68,265.94,23.24,20.11,226.18,265.7,0.0
2018-09-10 20:11:00,88.65412,45.8051,1024.861,262.09,94.9,26.2,-1.0,-0.76,-171.81,22.91,19.83,226.94,264.88,23.71,20.27,226.18,265.7,0.0
2018-09-10 20:11:00,88.65412,45.80509,1024.864,262.1,94.9,26.2,-1.01,-0.78,-172.39,21.66,19.97,225.85,265.06,23.91,20.41,226.28,265.81,0.0
2018-09-10 20:11:00,88.65412,45.80509,1024.868,262.1,94.9,26.2,-1.12,-0.77,-172.95,22.91,19.97,226.0,265.89,23.86,20.5,226.24,265.8,0.0
2018-09-10 20:11:00,88.65412,45.80509,1024.856,262.1,94.9,26.2,-1.01,-0.76,-173.55,22.45,20.11,226.16,266.18,23.59,20.54,226.22,265.79,0.0
2018-09-10 20:11:00,88.65412,45.80509,1024.832,262.1,94.9,26.4,-0.82,-0.77,-174.16,22.78,20.11,226.16,266.18,23.19,20.53,226.27,265.81,0.0
2018-09-10 20:11:00,88.65412,45.80509,1024.812,262.11,94.9,26.6,-0.78,-0.78,-174.71,23.82,19.9,226.13,266.09,22.73,20.47,226.34,265.89,0.0
2018-09-10 20:11:00,88.65412,45.80509,1024.795,262.1,94.9,26.7,-0.7,-0.85,-175.24,22.84,20.18,226.23,266.29,22.3,20.38,226.28,266.06,0.0
2018-09-10 20:11:00,88.65412,45.80509,1024.778,262.11,94.9,26.8,-0.71,-0.85,-175.95,23.17,20.25,226.51,266.28,21.98,20.27,226.34,266.19,0.0
2018-09-10 20:11:00,88.65412,45.80508,1024.788,262.11,94.9,26.7,-0.8,-0.89,-176.63,21.79,20.11,226.32,266.09,21.82,20.16,226.35,266.27,0.0
2018-09-10 20:11:00,88.65412,45.80508,1024.799,262.11,95.0,26.7,-0.85,-0.94,-177.26,22.84,20.11,226.42,266.09,21.81,20.06,226.34,266.33,0.0
2018-09-10 20:11:00,88.65412,45.80508,1024.781,262.11,95.0,26.8,-0.79,-0.98,-177.89,22.32,20.11,226.32,266.27,21.96,19.99,226.35,266.36,0.0
2018-09-10 20:11:00,88.65412,45.80508,1024.752,262.11,95.0,27.0,-0.63,-1.01,-178.56,22.19,20.11,226.32,266.18,22.21,19.95,226.33,266.35,0.0
2018-09-10 20:11:00,88.65412,45.80508,1024.738,262.11,95.0,27.1,-0.74,-1.0,-179.19,22.71,20.11,226.32,266.19,22.5,19.94,226.28,266.3,0.0
2018-09-10 20:11:00,88.65412,45.80508,1024.735,262.12,95.0,27.1,-0.7,-1.02,43.36,23.3,19.9,225.62,266.12,22.78,19.94,226.2,266.22,0.0
2018-09-10 20:11:00,88.65412,45.80508,1024.734,262.12,95.0,27.1,-0.54,-0.99,179.51,21.92,20.04,225.93,265.94,22.99,19.96,226.12,266.12,0.0
2018-09-10 20:11:00,88.65412,45.80507,1024.733,262.12,95.0,27.2,-0.42,-0.95,178.85,22.51,20.11,226.31,266.18,23.1,19.96,226.03,266.02,0.0
2018-09-10 20:11:00,88.65412,45.80507,1024.738,262.12,95.0,27.1,-0.51,-0.99,178.19,22.78,19.97,226.03,265.99,23.11,19.95,225.95,265.93,0.0
2018-09-10 20:11:00,88.65412,45.80507,1024.722,262.12,95.0,27.2,-0.53,-1.07,177.53,22.51,20.11,226.31,266.08,23.04,19.91,225.89,265.88,0.0
2018-09-10 20:11:00,88.65412,45.80507,1024.7,262.12,95.0,27.4,-0.49,-1.05,176.78,22.45,19.97,225.84,266.18,22.91,19.84,225.87,265.87,0.0
2018-09-10 20:11:00,88.65412,45.80506,1024.705,262.12,95.0,27.4,-0.35,-0.92,176.03,22.91,20.25,226.31,266.08,22.78,19.75,225.92,265.89,0.0
2018-09-10 20:11:00,88.65412,45.80506,1024.718,262.12,95.1,27.3,-0.33,-0.84,175.37,22.32,19.97,226.31,266.47,22.68,19.65,225.94,265.96,0.0
2018-09-10 20:11:00,88.65412,45.80506,1024.702,262.12,95.1,27.4,-0.46,-0.87,174.84,22.64,20.11,226.31,266.18,22.66,19.56,225.92,266.0,0.0
2018-09-10 20:11:00,88.65412,45.80506,1024.688,262.12,95.1,27.5,-0.26,-0.66,174.13,24.08,20.25,226.12,266.37,22.72,19.5,225.94,265.86,0.0
2018-09-10 20:11:00,88.65412,45.80505,1024.694,262.12,95.1,27.4,-0.22,-0.69,173.64,23.1,19.9,226.12,265.98,22.86,19.48,225.98,265.92,0.0
2018-09-10 20:11:00,88.65412,45.80505,1024.686,262.12,95.1,27.5,-0.19,-0.64,173.12,22.38,20.11,225.84,266.17,23.04,19.5,226.01,265.97,0.0
2018-09-10 20:11:00,88.65412,45.80505,1024.664,262.13,95.1,27.7,-0.13,-0.59,172.55,21.66,19.97,225.8,266.17,23.21,19.57,226.02,265.96,0.0
2018-09-10 20:11:00,88.65412,45.80505,1024.638,262.13,95.1,27.9,-0.01,-0.58,171.97,21.79,19.9,225.26,265.67,23.32,19.69,226.01,265.9,0.0
