Date/Time,Latitude,Longitude,PPPP [hPa],TTT grad [K],RH [%],Height [m],Pitch [deg],Roll [deg],Yaw [deg],SWD [W/m**2] (raw),SWU [W/m**2] (raw),LWD [W/m**2] (raw),LWU [W/m**2] (raw),SWD [W/m**2] (corrected),SWU [W/m**2] (corrected),LWD [W/m**2] (corrected),LWU [W/m**2] (corrected),Flag
2018-09-11 07:30:00,88.64476,45.33126,1029.229,266.54,96.2,2.3,1.04,-1.42,-9.69,39.92,29.51,285.74,293.76,39.64,29.64,285.4,294.82,0.0
2018-09-11 07:30:00,88.64476,45.33125,1029.213,266.54,96.2,2.4,1.1,-1.35,-8.75,39.14,29.58,285.6,293.84,39.71,29.6,285.35,294.82,0.0
2018-09-11 07:30:00,88.64476,45.33125,1029.195,266.53,96.2,2.6,1.27,-1.44,-7.89,39.59,29.44,285.86,293.55,39.8,29.6,285.33,294.82,0.0
2018-09-11 07:30:00,88.64476,45.33125,1029.197,266.54,96.2,2.6,1.38,-1.16,-7.15,40.58,29.58,285.7,293.86,39.88,29.62,285.28,294.79,0.0
2018-09-11 07:30:00,88.64476,45.33124,1029.168,266.54,96.2,2.8,1.67,-1.27,-6.47,40.05,29.23,285.58,293.67,39.95,29.68,285.22,294.78,0.0
2018-09-11 07:30:00,88.64476,45.33124,1029.178,266.54,96.2,2.7,1.71,-1.1,-5.98,39.99,29.44,285.75,293.6,40.0,29.75,285.22,294.76,0.0
2018-09-11 07:30:00,88.64476,45.33124,1029.195,266.54,96.2,2.6,1.68,-0.97,-5.54,39.86,29.44,285.65,293.78,40.01,29.83,285.22,294.68,0.0
2018-09-11 07:30:00,88.64476,45.33123,1029.181,266.54,96.2,2.7,1.65,-0.92,-5.13,40.12,29.51,285.54,293.52,40.01,29.91,285.21,294.57,0.0
2018-09-11 07:30:00,88.64476,45.33123,1029.166,266.54,96.2,2.8,1.41,-0.56,-4.77,39.92,29.58,285.46,293.36,40.0,29.99,285.23,294.47,0.0
2018-09-11 07:30:00,88.64476,45.33123,1029.175,266.54,96.2,2.7,1.71,-0.72,-4.42,39.92,29.51,285.67,293.41,40.01,30.06,285.27,294.34,0.0
2018-09-11 07:30:00,88.64476,45.33122,1029.147,266.54,96.2,3.0,1.5,-0.52,-4.19,39.53,29.58,285.84,293.81,40.04,30.13,285.37,294.28,0.0
2018-09-11 07:30:00,88.64476,45.33122,1029.146,266.54,96.2,3.0,1.34,-0.53,-3.97,40.05,29.58,285.82,293.44,40.11,30.21,285.47,294.18,0.0
2018-09-11 07:30:00,88.64476,45.33122,1029.177,266.54,96.2,2.7,1.33,-0.67,-3.82,40.31,29.58,286.07,293.24,40.21,30.31,285.56,294.02,0.0
2018-09-11 07:30:00,88.64476,45.33122,1029.159,266.54,96.2,2.9,1.34,-0.67,-3.83,39.72,29.65,286.07,293.03,40.33,30.43,285.67,293.86,0.0
2018-09-11 07:30:00,88.64476,45.33121,1029.177,266.54,96.2,2.7,1.29,-0.99,-3.93,40.25,29.58,286.02,293.07,40.44,30.58,285.77,293.71,0.0
2018-09-11 07:30:00,88.64476,45.33121,1029.17,266.54,96.2,2.8,0.95,-0.95,-4.06,39.92,29.58,286.32,294.1,40.52,30.74,285.83,293.53,0.0
2018-09-11 07:30:00,88.64476,45.33121,1029.167,266.54,96.2,2.8,0.79,-1.02,-4.23,39.33,29.51,286.14,293.54,40.55,30.93,285.86,293.37,0.0
2018-09-11 07:30:00,88.64476,45.33121,1029.176,266.53,96.2,2.7,0.7,-1.13,-4.45,39.79,29.58,285.7,293.16,40.51,31.11,285.88,293.24,0.0
2018-09-11 07:30:00,88.64476,45.3312,1029.186,266.54,96.2,2.7,0.47,-1.12,-4.69,40.84,29.58,285.79,293.14,40.38,31.29,285.88,293.12,0.0
2018-09-11 07:30:00,88.64476,45.3312,1029.17,266.54,96.2,2.8,0.26,-1.18,-4.97,39.53,29.99,286.1,293.38,40.18,31.45,285.83,293.02,0.0
2018-09-11 07:30:00,88.64476,45.3312,1029.151,266.53,96.2,2.9,0.31,-1.29,-5.25,39.79,29.72,285.75,293.27,39.93,31.58,285.81,292.95,0.0
2018-09-11 07:30:00,88.64476,45.3312,1029.136,266.53,96.2,3.0,0.51,-1.31,-5.57,40.58,29.86,286.22,293.22,39.66,31.68,285.74,292.82,0.0
2018-09-11 07:30:00,88.64476,45.3312,1029.128,266.53,96.2,3.1,0.77,-1.35,-5.96,39.99,29.92,286.15,293.91,39.4,31.74,285.72,292.73,0.0
2018-09-11 07:30:00,88.64476,45.33119,1029.125,266.54,96.2,3.1,1.04,-1.4,-6.41,40.71,29.99,286.18,293.61,39.18,31.78,285.7,292.7,0.0
2018-09-11 07:30:00,88.64476,45.33119,1029.119,266.54,96.2,3.2,1.29,-1.31,-6.84,40.31,30.06,286.14,293.77,39.03,31.79,285.62,292.65,0.0
2018-09-11 07:30:00,88.64476,45.33119,1029.102,266.54,96.2,3.3,1.33,-1.12,-7.22,39.66,29.99,286.39,293.63,38.96,31.81,285.69,292.64,0.0
2018-09-11 07:30:00,88.64476,45.33119,1029.094,266.54,96.2,3.3,1.64,-1.16,-7.86,38.94,29.99,286.31,293.47,38.96,31.83,285.82,292.55,0.0
2018-09-11 07:30:00,88.64476,45.33118,1029.099,266.54,96.2,3.3,1.82,-1.16,-8.57,40.18,30.06,286.62,293.46,39.02,31.88,285.94,292.46,0.0
2018-09-11 07:30:00,88.64476,45.33118,1029.095,266.53,96.2,3.3,1.97,-1.04,-9.32,39.79,30.34,286.03,293.4,39.12,31.96,285.98,292.37,0.0
2018-09-11 07:30:00,88.64476,45.33118,1029.056,266.53,96.2,3.6,2.25,-0.84,-10.07,39.66,30.06,284.65,293.15,39.2,32.07,285.91,292.3,0.0
2018-09-11 07:30:00,88.64476,45.33118,1029.088,266.53,96.2,3.4,2.25,-0.77,-10.88,40.31,30.27,286.24,293.64,39.25,32.22,285.79,292.26,0.0
2018-09-11 07:30:00,88.64476,45.33118,1029.082,266.54,96.2,3.4,2.02,-0.34,-11.52,39.59,30.2,286.43,292.7,39.24,32.4,285.62,292.14,0.0
2018-09-11 07:30:00,88.64475,45.33118,1029.078,266.54,96.2,3.5,2.13,-0.19,-12.5,39.79,30.48,286.39,292.5,39.16,32.6,285.42,292.04,0.0
2018-09-11 07:30:00,88.64475,45.33118,1029.08,266.54,96.2,3.5,2.12,-0.21,-13.68,40.18,30.34,285.93,292.9,39.01,32.81,285.23,291.96,0.0
2018-09-11 07:30:00,88.64475,45.33118,1029.084,266.54,96.2,3.4,1.88,-0.17,-14.88,39.66,30.34,284.64,292.87,38.81,33.03,285.13,291.89,0.0
2018-09-11 07:30:00,88.64475,45.33118,1029.079,266.54,96.2,3.5,1.9,0.2,-16.15,39.53,30.48,284.26,293.31,38.61,33.25,285.11,291.85,0.0
2018-09-11 07:30:00,88.64475,45.33118,1029.026,266.54,96.2,3.9,2.09,0.08,-17.43,39.79,30.62,284.62,292.31,38.42,33.46,284.98,291.77,0.0
2018-09-11 07:30:00,88.64475,45.33118,1029.011,266.53,96.2,4.0,1.98,0.38,-18.86,40.18,30.68,284.35,292.52,38.3,33.67,284.85,291.77,0.0
2018-09-11 07:30:00,88.64475,45.33118,1029.024,266.53,96.2,3.9,2.11,0.64,-20.34,39.92,30.68,284.95,292.99,38.28,33.86,284.74,291.69,0.0
2018-09-11 07:30:00,88.64475,45.33118,1029.034,266.54,96.2,3.8,2.22,0.89,-21.9,39.99,30.82,285.36,292.63,38.37,34.03,284.7,291.58,0.0
2018-09-11 07:30:00,88.64475,45.33118,1029.013,266.54,96.2,4.0,1.87,1.25,-23.54,38.87,30.89,285.43,292.85,38.57,34.19,284.81,291.54,0.0
2018-09-11 07:30:00,88.64475,45.33118,1028.972,266.54,96.2,4.3,2.03,0.9,-25.32,39.2,31.03,285.48,292.26,38.87,34.34,284.98,291.46,0.0
2018-09-11 07:30:00,88.64475,45.33118,1028.976,266.54,96.2,4.2,1.69,1.3,-27.14,38.68,31.03,285.43,292.22,39.23,34.47,285.19,291.52,0.0
2018-09-11 07:30:00,88.64475,45.33118,1028.98,266.54,96.2,4.2,1.52,1.29,-29.03,39.92,30.96,285.15,291.04,39.62,34.58,285.4,291.51,0.0
2018-09-11 07:30:00,88.64475,45.33118,1028.968,266.54,96.2,4.3,1.31,1.26,-31.02,40.31,31.24,284.68,290.79,40.0,34.67,285.56,291.47,0.0
2018-09-11 07:30:00,88.64475,45.33118,1028.946,266.54,96.2,4.5,0.95,1.62,-33.04,39.59,31.44,285.29,291.9,40.32,34.75,285.65,291.41,0.0
2018-09-11 07:30:00,88.64475,45.33118,1028.93,266.54,96.2,4.6,1.23,1.5,-35.16,39.01,31.44,285.45,291.96,40.55,34.81,285.69,291.32,0.0
2018-09-11 07:30:00,88.64475,45.33118,1028.938,266.54,96.2,4.5,0.95,1.89,-37.22,40.12,31.44,286.07,292.9,40.67,34.86,285.73,291.25,0.0
2018-09-11 07:30:00,88.64475,45.33118,1028.949,266.54,96.2,4.5,1.19,1.97,-39.32,39.14,31.51,285.74,292.08,40.68,34.9,285.74,291.18,0.0
2018-09-11 07:30:00,88.64475,45.33118,1028.952,266.54,96.2,4.4,1.29,1.94,-41.39,39.66,31.58,285.75,291.89,40.58,34.95,285.77,291.18,0.0
2018-09-11 07:30:00,88.64475,45.33118,1028.947,266.54,96.2,4.5,1.22,1.96,-43.48,38.94,31.79,285.82,291.98,40.38,35.01,285.77,291.14,0.0
2018-09-11 07:30:00,88.64475,45.33118,1028.944,266.54,96.2,4.5,1.41,2.04,-45.69,40.77,31.86,285.82,291.67,40.12,35.09,285.7,290.97,0.0
2018-09-11 07:30:00,88.64475,45.33118,1028.95,266.54,96.2,4.4,1.24,2.2,-47.71,40.51,31.93,285.76,291.59,39.82,35.18,285.69,290.9,0.0
2018-09-11 07:30:00,88.64475,45.33118,1028.936,266.54,96.2,4.5,1.48,2.14,-49.87,39.07,32.0,285.96,291.55,39.52,35.29,285.65,290.78,0.0
2018-09-11 07:30:00,88.64475,45.33118,1028.929,266.54,96.2,4.6,1.63,2.1,-52.04,39.33,32.0,285.93,291.5,39.23,35.41,285.66,290.7,0.0
2018-09-11 07:30:00,88.64475,45.33118,1028.921,266.54,96.2,4.7,1.67,2.0,-54.25,39.92,32.07,285.68,290.75,38.98,35.53,285.68,290.65,0.0
2018-09-11 07:30:00,88.64475,45.33118,1028.884,266.54,96.2,4.9,1.66,1.72,-56.46,39.72,32.14,285.12,289.94,38.78,35.66,285.71,290.61,0.0
2018-09-11 07:30:00,88.64475,45.33118,1028.9,266.54,96.2,4.8,1.18,1.95,-58.58,39.59,32.41,285.7,291.28,38.65,35.76,285.78,290.6,0.0
2018-09-11 07:30:00,88.64475,45.33118,1028.879,266.54,96.2,5.0,1.36,2.23,-60.83,39.99,32.27,285.88,291.75,38.6,35.85,285.81,290.56,0.0
2018-09-11 07:30:00,88.64475,45.33118,1028.869,266.54,96.2,5.1,1.38,2.34,-63.01,39.27,32.48,286.14,291.71,38.62,35.91,285.93,290.51,0.0
2018-09-11 07:30:00,88.64475,45.33118,1028.871,266.54,96.2,5.0,1.15,2.51,-65.14,39.59,32.48,285.86,291.83,38.72,35.93,286.04,290.49,0.0
2018-09-11 07:30:00,88.64475,45.33119,1028.875,266.53,96.2,5.0,0.91,2.78,-67.16,40.31,32.76,286.23,291.86,38.9,35.93,286.09,290.54,0.0
2018-09-11 07:30:00,88.64475,45.33119,1028.89,266.54,96.2,4.9,1.21,2.86,-69.16,39.01,32.76,286.22,292.18,39.14,35.91,286.18,290.66,0.0
2018-09-11 07:30:00,88.64475,45.33119,1028.87,266.53,96.2,5.0,0.86,3.1,-71.07,39.33,32.76,286.38,291.7,39.43,35.88,286.22,290.7,0.0
2018-09-11 07:30:00,88.64475,45.33119,1028.87,266.52,96.2,5.0,0.85,2.76,-72.98,38.87,33.1,287.2,291.75,39.76,35.85,286.2,290.67,0.0
2018-09-11 07:30:00,88.64475,45.33119,1028.871,266.52,96.2,5.0,0.93,2.84,-74.71,39.4,32.9,287.19,291.52,40.09,35.83,286.16,290.65,0.0
2018-09-11 07:30:00,88.64475,45.33119,1028.86,266.52,96.2,5.1,0.99,3.26,-76.29,40.12,33.03,286.18,291.89,40.41,35.83,286.12,290.65,0.0
2018-09-11 07:30:00,88.64475,45.33119,1028.856,266.52,96.2,5.2,0.98,3.23,-77.76,39.59,32.97,286.09,291.91,40.68,35.87,286.07,290.63,0.0
2018-09-11 07:30:00,88.64475,45.33119,1028.843,266.52,96.2,5.3,0.85,3.54,-79.3,40.05,33.31,286.34,292.14,40.87,35.93,285.99,290.65,0.0
2018-09-11 07:30:00,88.64475,45.33118,1028.818,266.51,96.2,5.4,1.02,3.6,-80.76,39.2,33.1,285.81,291.35,40.97,36.02,285.95,290.7,0.0
2018-09-11 07:30:00,88.64475,45.33118,1028.825,266.51,96.2,5.4,1.04,3.74,-81.96,39.27,33.17,285.6,291.07,40.97,36.13,285.79,290.72,0.0
2018-09-11 07:30:00,88.64475,45.33118,1028.84,266.51,96.2,5.3,0.97,3.87,-83.03,40.12,33.38,285.69,291.47,40.85,36.25,285.65,290.72,0.0
2018-09-11 07:30:00,88.64475,45.33118,1028.81,266.51,96.2,5.5,0.98,3.97,-84.01,39.79,33.45,285.65,291.58,40.64,36.38,285.58,290.69,0.0
2018-09-11 07:30:00,88.64475,45.33118,1028.812,266.51,96.2,5.5,0.98,4.47,-84.73,39.2,33.59,285.71,291.99,40.35,36.51,285.53,290.64,0.0
2018-09-11 07:30:00,88.64475,45.33118,1028.796,266.51,96.2,5.6,1.17,4.63,-85.09,39.86,33.52,285.82,292.2,40.02,36.62,285.48,290.56,0.0
2018-09-11 07:30:00,88.64475,45.33118,1028.764,266.51,96.2,5.9,1.49,5.06,-85.39,39.92,33.72,285.29,291.76,39.67,36.71,285.46,290.53,0.0
2018-09-11 07:30:00,88.64475,45.33118,1028.737,266.51,96.2,6.1,1.97,5.56,-85.6,39.92,33.72,285.3,291.64,39.35,36.79,285.44,290.5,0.0
2018-09-11 07:30:00,88.64475,45.33118,1028.731,266.51,96.2,6.1,2.5,6.05,-85.71,40.51,33.72,285.3,291.78,39.06,36.85,285.41,290.46,0.0
2018-09-11 07:30:00,88.64475,45.33118,1028.737,266.5,96.2,6.1,2.81,6.57,-85.69,39.59,33.86,285.41,291.45,38.84,36.88,285.39,290.43,0.0
2018-09-11 07:30:00,88.64475,45.33118,1028.734,266.5,96.2,6.1,3.03,6.95,-85.67,39.72,33.93,285.31,291.06,38.69,36.91,285.37,290.35,0.0
2018-09-11 07:30:00,88.64475,45.33118,1028.707,266.5,96.2,6.3,2.78,7.42,-85.48,39.59,34.0,285.49,291.16,38.6,36.92,285.34,290.27,0.0
2018-09-11 07:30:00,88.64475,45.33118,1028.693,266.5,96.2,6.4,2.56,7.66,-85.11,39.79,34.21,285.25,290.96,38.57,36.92,285.33,290.19,0.0
2018-09-11 07:30:00,88.64475,45.33118,1028.697,266.5,96.2,6.4,2.33,7.92,-84.52,39.59,34.28,285.29,291.11,38.56,36.92,285.31,290.11,0.0
2018-09-11 07:30:00,88.64475,45.33118,1028.698,266.5,96.2,6.3,2.04,8.39,-83.75,38.81,34.14,285.35,291.02,38.58,36.9,285.27,290.02,0.0
2018-09-11 07:30:00,88.64475,45.33118,1028.718,266.5,96.2,6.2,2.35,8.3,-82.91,39.66,34.35,285.23,290.89,38.6,36.86,285.28,289.92,0.0
2018-09-11 07:30:00,88.64475,45.33119,1028.697,266.5,96.2,6.4,2.44,8.55,-81.96,39.4,34.35,285.65,290.79,38.62,36.82,285.25,289.84,0.0
2018-09-11 07:30:00,88.64475,45.33119,1028.683,266.5,96.2,6.5,2.87,8.37,-80.9,39.46,34.48,285.73,290.75,38.64,36.76,285.22,289.75,0.0
2018-09-11 07:30:00,88.64475,45.33119,1028.672,266.5,96.2,6.5,3.23,8.23,-79.75,39.99,34.42,285.82,290.74,38.68,36.69,285.23,289.68,0.0
2018-09-11 07:30:00,88.64475,45.33119,1028.655,266.5,96.2,6.7,3.25,8.21,-78.54,40.18,34.55,285.69,290.52,38.75,36.62,285.26,289.6,0.0
2018-09-11 07:30:00,88.64475,45.33119,1028.652,266.5,96.2,6.7,2.93,7.57,-77.28,39.4,34.55,286.27,290.36,38.87,36.55,285.28,289.53,0.0
2018-09-11 07:30:00,88.64475,45.33118,1028.641,266.49,96.2,6.8,2.62,7.44,-75.95,39.53,34.69,285.61,290.12,39.06,36.5,285.34,289.46,0.0
2018-09-11 07:30:00,88.64475,45.33118,1028.645,266.5,96.2,6.8,2.17,6.95,-74.63,39.27,34.69,285.91,290.62,39.32,36.47,285.37,289.41,0.0
2018-09-11 07:30:00,88.64475,45.33118,1028.637,266.5,96.2,6.8,1.82,6.7,-73.35,39.01,34.76,285.73,290.39,39.64,36.48,285.42,289.44,0.0
2018-09-11 07:30:00,88.64475,45.33118,1028.607,266.5,96.2,7.0,1.55,6.5,-72.09,39.33,34.9,285.81,290.42,40.0,36.52,285.51,289.51,0.0
2018-09-11 07:30:00,88.64475,45.33118,1028.582,266.49,96.2,7.2,1.2,5.88,-70.88,38.94,34.83,285.6,290.3,40.36,36.61,285.57,289.58,0.0
2018-09-11 07:30:00,88.64475,45.33118,1028.577,266.5,96.2,7.3,0.85,5.87,-69.54,39.33,34.76,285.69,290.03,40.7,36.73,285.56,289.65,0.0
2018-09-11 07:30:00,88.64475,45.33118,1028.587,266.5,96.2,7.2,1.11,5.32,-68.09,39.66,34.83,285.07,289.85,40.95,36.88,285.59,289.69,0.0
2018-09-11 07:30:00,88.64475,45.33117,1028.583,266.5,96.2,7.2,1.07,5.02,-66.59,40.18,34.97,285.58,290.39,41.1,37.04,285.53,289.65,0.0
2018-09-11 07:30:00,88.64475,45.33117,1028.57,266.49,96.2,7.3,1.06,4.83,-65.19,39.14,34.83,285.78,290.9,41.12,37.21,285.46,289.61,0.0
2018-09-11 07:30:00,88.64475,45.33117,1028.576,266.49,96.2,7.3,1.38,4.46,-63.88,39.72,34.9,285.97,290.57,40.99,37.36,285.47,289.61,0.0
2018-09-11 07:30:00,88.64475,45.33117,1028.563,266.49,96.2,7.4,1.03,4.27,-62.42,40.05,35.24,285.7,290.41,40.73,37.5,285.49,289.6,0.0
2018-09-11 07:30:00,88.64475,45.33117,1028.553,266.49,96.2,7.4,0.79,4.01,-61.05,39.72,35.31,286.17,290.61,40.35,37.59,285.47,289.64,0.0
2018-09-11 07:30:00,88.64475,45.33116,1028.543,266.5,96.2,7.5,0.3,4.07,-59.6,39.66,35.11,285.05,289.87,39.9,37.65,285.52,289.66,0.0
2018-09-11 07:30:00,88.64475,45.33116,1028.543,266.5,96.2,7.5,-0.26,4.1,-58.18,39.07,35.24,285.07,289.85,39.43,37.68,285.58,289.66,0.0
2018-09-11 07:30:00,88.64475,45.33116,1028.552,266.49,96.2,7.5,-0.69,4.04,-56.79,41.36,35.31,286.01,290.65,38.97,37.67,285.58,289.61,0.0
2018-09-11 07:30:00,88.64475,45.33116,1028.524,266.5,96.2,7.7,-0.76,4.18,-55.41,38.74,35.59,285.94,290.27,38.58,37.63,285.55,289.52,0.0
2018-09-11 07:30:00,88.64475,45.33116,1028.501,266.5,96.2,7.8,-0.74,3.96,-54.37,39.79,35.52,285.48,290.41,38.27,37.59,285.62,289.61,0.0
2018-09-11 07:30:00,88.64475,45.33116,1028.491,266.49,96.2,7.9,-0.99,3.75,-53.24,39.14,35.45,285.64,290.69,38.07,37.53,285.64,289.68,0.0
2018-09-11 07:30:00,88.64475,45.33116,1028.488,266.49,96.2,7.9,-0.88,3.77,-52.27,40.38,35.73,285.79,290.39,37.99,37.48,285.7,289.83,0.0
2018-09-11 07:30:00,88.64475,45.33115,1028.479,266.5,96.2,8.0,-0.59,4.01,-51.49,39.99,35.52,285.32,290.22,38.01,37.43,285.72,289.95,0.0
2018-09-11 07:30:00,88.64475,45.33115,1028.454,266.49,96.2,8.2,-0.51,4.22,-50.93,38.28,35.52,284.79,289.52,38.11,37.4,285.64,290.0,0.0
2018-09-11 07:30:00,88.64475,45.33115,1028.441,266.49,96.2,8.3,-0.22,3.94,-50.53,39.86,35.8,285.62,291.02,38.29,37.37,285.56,290.04,0.0
2018-09-11 07:30:00,88.64475,45.33115,1028.459,266.49,96.2,8.2,-0.14,3.96,-50.16,39.46,35.66,285.09,290.86,38.52,37.35,285.53,290.05,0.0
2018-09-11 07:30:00,88.64475,45.33115,1028.468,266.49,96.2,8.1,-0.03,4.02,-50.0,39.14,35.8,285.22,290.83,38.77,37.33,285.44,290.01,0.0
2018-09-11 07:30:00,88.64475,45.33115,1028.465,266.49,96.2,8.1,0.11,4.0,-50.09,39.86,35.87,285.18,290.87,39.04,37.32,285.34,289.96,0.0
2018-09-11 07:30:00,88.64475,45.33114,1028.46,266.5,96.2,8.2,0.27,3.93,-50.32,38.94,35.8,285.09,290.41,39.31,37.3,285.34,289.96,0.0
2018-09-11 07:30:00,88.64475,45.33114,1028.443,266.5,96.2,8.3,0.39,4.1,-50.48,39.72,35.94,285.4,290.55,39.56,37.29,285.51,290.04,0.0
2018-09-11 07:30:00,88.64475,45.33114,1028.417,266.5,96.2,8.5,0.24,3.67,-50.88,39.4,35.94,285.47,290.22,39.8,37.28,285.55,289.94,0.0
2018-09-11 07:30:00,88.64475,45.33114,1028.398,266.5,96.2,8.6,0.63,3.74,-51.34,38.94,36.08,285.13,290.04,39.99,37.27,285.6,289.82,0.0
2018-09-11 07:30:00,88.64475,45.33113,1028.389,266.5,96.2,8.7,1.23,3.75,-51.93,39.4,36.01,285.25,289.85,40.14,37.28,285.68,289.7,0.0
2018-09-11 07:30:00,88.64475,45.33113,1028.384,266.51,96.2,8.7,1.52,3.64,-52.87,39.72,36.08,285.82,290.25,40.21,37.3,285.81,289.58,0.0
2018-09-11 07:30:00,88.64475,45.33112,1028.384,266.51,96.2,8.7,1.3,4.0,-54.37,38.87,35.87,286.86,290.66,40.19,37.34,286.02,289.46,0.0
2018-09-11 07:30:00,88.64475,45.33112,1028.351,266.5,96.2,9.0,1.31,4.16,-55.16,39.72,36.01,285.8,290.19,40.08,37.4,286.07,289.38,0.0
2018-09-11 07:30:00,88.64475,45.33111,1028.364,266.5,96.2,8.9,0.65,4.28,-56.06,39.46,36.08,285.69,289.48,39.86,37.48,286.08,289.33,0.0
2018-09-11 07:30:00,88.64475,45.33111,1028.37,266.5,96.2,8.8,-0.12,4.47,-56.72,39.92,36.28,285.33,289.56,39.56,37.56,286.09,289.3,0.0
2018-09-11 07:30:00,88.64475,45.3311,1028.346,266.5,96.2,9.0,-0.66,4.62,-57.35,40.31,36.28,286.04,289.67,39.21,37.65,286.1,289.26,0.0
2018-09-11 07:30:00,88.64475,45.3311,1028.315,266.5,96.2,9.3,-0.95,4.58,-58.19,39.46,35.94,287.42,289.52,38.83,37.73,286.04,289.21,0.0
2018-09-11 07:30:00,88.64475,45.3311,1028.324,266.5,96.2,9.2,-0.89,4.45,-59.1,38.22,36.42,285.56,289.58,38.48,37.81,285.88,289.16,0.0
2018-09-11 07:30:00,88.64475,45.33109,1028.318,266.5,96.2,9.2,-0.54,4.35,-59.86,40.12,36.28,285.66,289.7,38.22,37.87,285.81,289.16,0.0
2018-09-11 07:30:00,88.64475,45.33109,1028.327,266.5,96.2,9.2,-0.5,3.98,-60.76,38.81,36.35,285.72,289.4,38.08,37.92,285.82,289.23,0.0
2018-09-11 07:30:00,88.64475,45.33109,1028.343,266.5,96.2,9.0,-0.58,3.54,-61.63,40.25,36.28,285.54,289.84,38.08,37.94,285.88,289.3,0.0
2018-09-11 07:30:00,88.64475,45.33108,1028.353,266.5,96.2,9.0,-0.67,3.24,-62.4,39.2,36.35,285.48,289.32,38.24,37.94,285.89,289.35,0.0
2018-09-11 07:30:00,88.64475,45.33108,1028.351,266.5,96.2,9.0,-0.88,3.22,-63.2,39.2,36.63,285.66,289.5,38.52,37.93,285.81,289.4,0.0
2018-09-11 07:30:00,88.64475,45.33108,1028.287,266.49,96.2,9.5,-0.65,3.11,-63.89,39.07,36.49,285.71,289.48,38.89,37.9,285.87,289.42,0.0
2018-09-11 07:30:00,88.64475,45.33107,1028.282,266.5,96.2,9.5,-0.25,3.29,-64.28,39.53,36.56,285.93,289.99,39.28,37.85,285.94,289.41,0.0
2018-09-11 07:30:00,88.64475,45.33107,1028.287,266.5,96.2,9.5,-0.21,3.45,-64.83,39.72,36.42,286.43,290.22,39.62,37.79,285.99,289.39,0.0
2018-09-11 07:30:00,88.64475,45.33107,1028.283,266.5,96.2,9.5,-0.43,3.67,-65.46,39.46,36.7,286.27,290.1,39.83,37.73,286.02,289.35,0.0
2018-09-11 07:30:00,88.64475,45.33106,1028.295,266.49,96.2,9.4,-0.51,4.04,-65.89,38.28,36.56,285.97,289.94,39.87,37.66,286.02,289.31,0.0
2018-09-11 07:30:00,88.64475,45.33106,1028.269,266.49,96.2,9.6,-0.36,3.4,-66.24,39.14,36.7,286.09,289.98,39.7,37.58,285.95,289.3,0.0
2018-09-11 07:30:00,88.64475,45.33106,1028.267,266.49,96.2,9.6,-0.08,3.91,-66.6,38.61,36.63,286.17,289.97,39.34,37.5,285.86,289.27,0.0
2018-09-11 07:30:00,88.64475,45.33106,1028.254,266.49,96.2,9.7,0.74,3.94,-66.98,39.59,36.77,286.26,289.88,38.82,37.42,285.76,289.21,0.0
2018-09-11 07:30:00,88.64475,45.33105,1028.241,266.5,96.2,9.8,1.39,3.67,-67.16,39.92,36.7,286.13,290.05,38.23,37.34,285.62,289.18,0.0
2018-09-11 07:30:00,88.64475,45.33105,1028.251,266.49,96.2,9.7,1.35,3.61,-67.06,39.72,36.63,285.98,289.84,37.64,37.27,285.49,289.21,0.0
2018-09-11 07:30:00,88.64475,45.33105,1028.236,266.49,96.2,9.9,1.01,4.25,-67.11,40.38,36.84,285.53,290.13,37.17,37.2,285.42,289.25,0.0
2018-09-11 07:30:00,88.64475,45.33104,1028.217,266.49,96.2,10.0,0.88,4.19,-66.98,39.72,36.77,285.55,289.93,36.88,37.15,285.41,289.18,0.0
2018-09-11 07:30:00,88.64475,45.33104,1028.2,266.49,96.2,10.1,0.52,4.35,-67.0,38.42,36.84,285.97,289.79,36.84,37.12,285.37,289.18,0.0
2018-09-11 07:30:00,88.64475,45.33104,1028.181,266.49,96.2,10.3,0.37,4.42,-67.02,39.33,36.77,285.73,290.02,37.08,37.1,285.32,289.21,0.0
2018-09-11 07:30:00,88.64475,45.33104,1028.164,266.49,96.2,10.4,0.1,4.41,-67.0,38.68,36.7,285.65,290.3,37.56,37.12,285.29,289.24,0.0
2018-09-11 07:30:00,88.64475,45.33103,1028.17,266.49,96.2,10.4,-0.99,4.56,-66.97,37.89,36.7,285.55,289.78,38.25,37.16,285.28,289.27,0.0
2018-09-11 07:30:00,88.64475,45.33103,1028.164,266.48,96.2,10.4,-1.26,5.1,-67.47,38.94,36.7,285.96,288.61,39.03,37.23,285.32,289.22,0.0
2018-09-11 07:30:00,88.64475,45.33103,1028.135,266.48,96.2,10.6,-0.41,5.08,-67.71,39.59,36.97,285.52,289.44,39.82,37.33,285.32,289.24,0.0
2018-09-11 07:30:00,88.64475,45.33103,1028.116,266.48,96.2,10.8,0.25,4.88,-67.67,38.02,36.7,285.42,290.03,40.5,37.45,285.24,289.29,0.0
2018-09-11 07:30:00,88.64475,45.33103,1028.118,266.48,96.2,10.7,0.04,4.8,-67.55,38.28,36.77,285.23,289.77,40.98,37.59,285.1,289.33,0.0
2018-09-11 07:30:00,88.64475,45.33103,1028.101,266.48,96.2,10.9,-0.42,4.87,-67.71,39.86,36.9,285.06,289.47,41.21,37.74,284.93,289.34,0.0
2018-09-11 07:30:00,88.64475,45.33102,1028.106,266.48,96.2,10.8,-0.39,4.88,-68.02,39.4,36.9,285.13,289.38,41.17,37.89,284.81,289.37,0.0
2018-09-11 07:30:00,88.64475,45.33102,1028.075,266.47,96.2,11.1,-0.88,4.71,-68.03,39.27,36.9,284.73,290.13,40.87,38.04,284.67,289.52,0.0
2018-09-11 07:30:00,88.64475,45.33102,1028.055,266.47,96.2,11.2,-1.53,4.76,-68.09,39.53,36.9,284.32,290.28,40.38,38.17,284.63,289.5,0.0
2018-09-11 07:30:00,88.64475,45.33102,1028.067,266.47,96.2,11.1,-1.9,4.68,-68.18,39.14,36.7,283.44,290.18,39.78,38.27,284.65,289.42,0.0
2018-09-11 07:30:00,88.64475,45.33102,1028.097,266.47,96.2,10.9,-1.91,4.52,-68.21,40.18,37.04,283.44,289.92,39.18,38.34,284.65,289.31,0.0
2018-09-11 07:30:00,88.64475,45.33102,1028.083,266.47,96.2,11.0,-1.81,4.69,-68.07,40.12,36.84,284.1,289.9,38.67,38.37,284.61,289.15,0.0
2018-09-11 07:30:00,88.64475,45.33102,1028.052,266.46,96.2,11.3,-2.43,4.67,-67.89,38.81,37.32,284.68,290.12,38.32,38.36,284.66,289.12,0.0
2018-09-11 07:30:00,88.64475,45.33102,1028.045,266.47,96.2,11.3,-2.42,4.54,-67.96,38.15,37.11,285.46,289.01,38.17,38.3,284.76,288.99,0.0
2018-09-11 07:30:00,88.64475,45.33102,1028.048,266.47,96.2,11.3,-1.58,4.41,-68.09,38.55,37.18,285.76,288.81,38.23,38.21,284.9,288.85,0.0
2018-09-11 07:30:00,88.64475,45.33102,1028.035,266.47,96.2,11.4,-1.27,4.63,-68.12,40.31,37.11,285.24,288.05,38.47,38.09,285.11,288.7,0.0
2018-09-11 07:30:00,88.64475,45.33102,1027.986,266.46,96.2,11.7,-2.38,5.29,-68.04,38.94,37.11,284.78,287.62,38.82,37.96,285.37,288.58,0.0
2018-09-11 07:30:00,88.64475,45.33102,1027.99,266.47,96.2,11.7,-2.28,5.18,-68.34,39.72,37.25,285.88,288.8,39.2,37.82,285.57,288.49,0.0
2018-09-11 07:30:00,88.64475,45.33102,1028.003,266.47,96.2,11.6,-1.67,5.09,-68.59,37.7,37.18,285.96,288.54,39.54,37.69,285.73,288.43,0.0
2018-09-11 07:30:00,88.64475,45.33102,1027.99,266.46,96.2,11.7,-1.89,5.06,-68.41,39.07,37.39,285.7,288.44,39.75,37.58,285.85,288.48,0.0
2018-09-11 07:30:00,88.64475,45.33102,1027.975,266.46,96.2,11.8,-2.0,5.03,-68.26,39.33,37.18,285.83,288.55,39.78,37.5,285.94,288.57,0.0
2018-09-11 07:30:00,88.64475,45.33102,1027.975,266.47,96.2,11.8,-1.59,4.98,-68.34,39.46,37.18,285.93,288.75,39.61,37.46,286.06,288.68,0.0
2018-09-11 07:30:00,88.64475,45.33102,1027.947,266.47,96.2,12.0,-1.07,4.93,-68.43,40.9,37.18,285.74,288.83,39.25,37.46,286.22,288.81,0.0
2018-09-11 07:30:00,88.64475,45.33102,1027.97,266.47,96.2,11.9,-1.25,5.07,-68.25,38.61,37.32,286.06,288.87,38.74,37.48,286.27,288.85,0.0
2018-09-11 07:30:00,88.64475,45.33102,1027.946,266.47,96.2,12.0,-0.83,5.27,-68.18,38.87,37.25,285.93,289.16,38.15,37.53,286.32,288.9,0.0
2018-09-11 07:30:00,88.64475,45.33102,1027.924,266.47,96.2,12.2,-0.43,5.29,-68.14,38.42,37.25,286.28,289.14,37.56,37.58,286.36,288.95,0.0
2018-09-11 07:30:00,88.64475,45.33102,1027.92,266.48,96.2,12.2,-0.31,5.17,-68.13,39.86,37.18,286.23,288.96,37.06,37.64,286.38,288.98,0.0
2018-09-11 07:30:00,88.64475,45.33102,1027.935,266.47,96.2,12.1,-0.54,5.04,-68.17,39.07,37.11,286.16,288.6,36.72,37.69,286.36,288.97,0.0
2018-09-11 07:30:00,88.64475,45.33102,1027.921,266.48,96.2,12.2,0.19,5.0,-68.14,39.27,37.46,285.98,288.84,36.57,37.73,286.33,288.95,0.0
2018-09-11 07:30:00,88.64475,45.33102,1027.9,266.48,96.2,12.4,0.34,4.76,-68.16,39.4,37.25,286.22,289.2,36.65,37.75,286.3,288.93,0.0
2018-09-11 07:30:00,88.64475,45.33102,1027.89,266.48,96.2,12.5,0.15,4.62,-68.01,38.74,37.32,286.42,289.03,36.95,37.75,286.23,288.93,0.0
2018-09-11 07:30:00,88.64475,45.33101,1027.89,266.48,96.2,12.5,0.57,4.6,-67.8,38.48,37.18,286.35,289.26,37.41,37.75,286.16,288.96,0.0
2018-09-11 07:30:00,88.64475,45.33101,1027.891,266.49,96.2,12.5,1.72,4.64,-67.57,38.42,37.39,286.2,288.81,37.99,37.75,286.12,289.0,0.0
2018-09-11 07:30:00,88.64475,45.33101,1027.908,266.49,96.2,12.3,1.14,4.55,-67.1,39.07,37.46,286.09,289.06,38.61,37.75,286.09,289.07,0.0
2018-09-11 07:30:00,88.64475,45.33101,1027.898,266.48,96.2,12.4,1.92,4.43,-66.57,38.87,37.32,286.14,289.19,39.2,37.77,286.15,289.28,0.0
2018-09-11 07:31:00,88.64475,45.331,1027.879,266.49,96.3,12.6,2.94,4.37,-66.05,38.48,37.46,285.57,289.41,39.68,37.8,286.14,289.35,0.0
2018-09-11 07:31:00,88.64475,45.331,1027.866,266.49,96.3,12.7,3.06,4.33,-65.49,37.96,37.25,285.77,289.22,40.01,37.84,286.09,289.37,0.0
2018-09-11 07:31:00,88.64475,45.331,1027.856,266.48,96.2,12.7,2.8,4.31,-64.86,38.81,37.39,285.78,289.49,40.16,37.87,286.03,289.37,0.0
2018-09-11 07:31:00,88.64475,45.331,1027.828,266.49,96.2,12.9,3.52,4.3,-64.18,39.33,37.32,285.8,289.61,40.13,37.9,285.98,289.34,0.0
2018-09-11 07:31:00,88.64475,45.331,1027.836,266.48,96.2,12.9,3.3,4.31,-63.41,39.27,37.39,287.0,291.09,39.95,37.91,285.91,289.29,0.0
2018-09-11 07:31:00,88.64475,45.33099,1027.842,266.48,96.2,12.8,2.68,4.24,-62.64,38.74,37.32,285.96,289.76,39.66,37.88,285.85,289.21,0.0
2018-09-11 07:31:00,88.64475,45.33099,1027.838,266.48,96.2,12.9,2.63,4.2,-61.92,39.92,37.53,285.54,289.57,39.31,37.81,285.82,289.12,0.0
2018-09-11 07:31:00,88.64475,45.33098,1027.822,266.48,96.3,13.0,2.64,4.3,-61.19,38.74,37.46,285.38,289.43,38.97,37.71,285.72,288.96,0.0
2018-09-11 07:31:00,88.64475,45.33098,1027.8,266.48,96.2,13.2,2.18,4.5,-60.43,38.48,37.39,285.65,288.96,38.69,37.59,285.57,288.77,0.0
2018-09-11 07:31:00,88.64475,45.33098,1027.781,266.48,96.2,13.3,2.07,4.35,-59.66,39.79,37.53,285.33,288.99,38.51,37.45,285.54,288.71,0.0
2018-09-11 07:31:00,88.64475,45.33097,1027.787,266.48,96.2,13.3,2.47,4.28,-58.95,39.07,37.53,285.5,288.96,38.46,37.31,285.41,288.5,0.0
2018-09-11 07:31:00,88.64475,45.33097,1027.781,266.48,96.3,13.3,2.5,4.18,-58.21,37.56,37.53,285.63,288.96,38.55,37.2,285.4,288.41,0.0
2018-09-11 07:31:00,88.64475,45.33096,1027.759,266.48,96.3,13.5,2.85,4.0,-57.48,39.27,37.39,284.88,288.11,38.74,37.13,285.45,288.37,0.0
2018-09-11 07:31:00,88.64474,45.33096,1027.738,266.48,96.3,13.6,3.52,3.75,-56.83,39.27,37.46,284.81,287.54,39.01,37.12,285.44,288.33,0.0
2018-09-11 07:31:00,88.64474,45.33096,1027.776,266.47,96.2,13.3,3.35,3.41,-56.2,38.94,37.53,285.81,289.05,39.31,37.17,285.36,288.26,0.0
2018-09-11 07:31:00,88.64474,45.33095,1027.747,266.47,96.2,13.6,2.98,3.62,-55.47,39.27,37.39,285.42,288.55,39.59,37.28,285.41,288.26,0.0
2018-09-11 07:31:00,88.64474,45.33095,1027.725,266.47,96.2,13.7,3.0,3.53,-54.97,38.48,37.39,286.22,288.41,39.8,37.44,285.45,288.24,0.0
2018-09-11 07:31:00,88.64474,45.33095,1027.721,266.47,96.2,13.8,2.95,3.35,-54.43,38.81,37.32,286.22,288.29,39.92,37.64,285.49,288.21,0.0
2018-09-11 07:31:00,88.64474,45.33094,1027.733,266.48,96.2,13.7,2.65,3.24,-53.79,38.68,37.18,285.6,288.15,39.93,37.84,285.58,288.22,0.0
2018-09-11 07:31:00,88.64474,45.33094,1027.753,266.48,96.3,13.5,2.21,3.26,-53.18,38.28,37.25,284.41,287.57,39.82,38.03,285.7,288.28,0.0
2018-09-11 07:31:00,88.64474,45.33094,1027.718,266.47,96.3,13.8,2.38,3.1,-52.63,39.86,37.53,285.81,288.14,39.61,38.18,285.69,288.23,0.0
2018-09-11 07:31:00,88.64474,45.33093,1027.712,266.48,96.3,13.8,1.71,3.14,-51.97,39.86,37.53,285.85,288.39,39.34,38.29,285.73,288.19,0.0
2018-09-11 07:31:00,88.64474,45.33093,1027.699,266.49,96.3,13.9,1.68,2.95,-51.5,39.01,37.53,285.91,288.32,39.02,38.33,285.73,288.17,0.0
2018-09-11 07:31:00,88.64474,45.33092,1027.672,266.48,96.3,14.1,1.66,2.76,-51.08,39.46,37.46,285.99,288.36,38.71,38.32,285.74,288.15,0.0
2018-09-11 07:31:00,88.64474,45.33092,1027.643,266.48,96.3,14.3,1.22,2.74,-50.62,39.14,37.53,285.78,288.37,38.42,38.26,285.81,288.18,0.0
2018-09-11 07:31:00,88.64474,45.33092,1027.646,266.48,96.3,14.3,1.19,2.6,-50.21,39.14,37.73,286.02,288.93,38.18,38.15,285.91,288.28,0.0
2018-09-11 07:31:00,88.64474,45.33091,1027.641,266.49,96.3,14.4,0.76,2.85,-49.77,38.15,37.6,286.05,288.89,37.99,38.02,285.97,288.35,0.0
2018-09-11 07:31:00,88.64474,45.33091,1027.625,266.49,96.3,14.5,0.58,2.76,-49.4,37.89,37.6,286.27,288.94,37.85,37.88,286.04,288.42,0.0
2018-09-11 07:31:00,88.64474,45.33091,1027.608,266.49,96.3,14.6,0.45,2.92,-49.13,40.18,37.46,286.35,288.83,37.74,37.73,286.09,288.51,0.0
2018-09-11 07:31:00,88.64474,45.3309,1027.602,266.48,96.3,14.7,0.51,3.17,-48.89,39.33,37.66,286.27,288.96,37.64,37.6,286.13,288.6,0.0
2018-09-11 07:31:00,88.64474,45.3309,1027.626,266.49,96.3,14.5,1.1,2.81,-48.56,38.94,37.53,285.69,288.9,37.54,37.48,286.17,288.68,0.0
2018-09-11 07:31:00,88.64474,45.3309,1027.602,266.48,96.3,14.7,1.03,3.26,-48.16,38.09,37.73,286.36,288.89,37.43,37.38,286.19,288.74,0.0
2018-09-11 07:31:00,88.64474,45.33089,1027.566,266.49,96.3,14.9,1.46,3.04,-47.77,39.27,37.53,286.06,289.04,37.31,37.29,286.14,288.8,0.0
2018-09-11 07:31:00,88.64474,45.33089,1027.555,266.49,96.3,15.0,1.68,2.97,-47.43,38.15,37.39,286.54,288.75,37.19,37.22,286.08,288.86,0.0
2018-09-11 07:31:00,88.64474,45.33089,1027.558,266.48,96.3,15.0,1.54,2.92,-47.11,39.92,37.6,286.17,289.02,37.09,37.17,286.02,288.91,0.0
2018-09-11 07:31:00,88.64474,45.33089,1027.535,266.48,96.3,15.2,1.2,2.65,-46.8,39.01,37.46,286.3,288.79,37.03,37.13,285.98,288.93,0.0
2018-09-11 07:31:00,88.64474,45.33088,1027.539,266.49,96.3,15.1,1.51,2.77,-46.51,38.35,37.8,286.14,288.67,37.04,37.12,285.98,288.92,0.0
2018-09-11 07:31:00,88.64474,45.33088,1027.53,266.48,96.3,15.2,1.27,2.37,-46.12,38.35,37.53,285.68,288.93,37.15,37.14,285.81,288.86,0.0
2018-09-11 07:31:00,88.64474,45.33088,1027.521,266.48,96.3,15.3,0.85,2.47,-45.78,38.09,37.6,285.42,289.13,37.35,37.18,285.69,288.87,0.0
2018-09-11 07:31:00,88.64474,45.33088,1027.529,266.49,96.3,15.2,0.77,2.48,-45.53,39.01,37.39,285.62,289.08,37.64,37.26,285.6,288.9,0.0
2018-09-11 07:31:00,88.64474,45.33087,1027.55,266.48,96.3,15.1,0.88,2.24,-45.33,37.96,37.46,285.54,289.05,38.0,37.38,285.51,288.9,0.0
2018-09-11 07:31:00,88.64474,45.33087,1027.512,266.48,96.3,15.3,0.04,2.39,-45.06,38.48,37.6,285.89,289.17,38.4,37.52,285.43,288.89,0.0
2018-09-11 07:31:00,88.64474,45.33087,1027.502,266.48,96.3,15.4,-0.03,2.0,-44.98,38.87,37.39,284.71,288.91,38.79,37.69,285.39,288.89,0.0
2018-09-11 07:31:00,88.64474,45.33086,1027.484,266.49,96.3,15.6,-0.16,2.09,-44.85,38.42,37.39,285.23,289.66,39.14,37.86,285.38,288.9,0.0
2018-09-11 07:31:00,88.64474,45.33086,1027.472,266.49,96.3,15.6,-0.23,2.0,-44.81,38.61,37.53,285.47,289.7,39.43,38.02,285.36,288.92,0.0
2018-09-11 07:31:00,88.64474,45.33086,1027.466,266.49,96.3,15.7,-0.26,1.74,-44.9,37.96,37.32,285.16,289.37,39.62,38.16,285.34,288.94,0.0
2018-09-11 07:31:00,88.64474,45.33086,1027.441,266.49,96.3,15.9,-0.3,1.73,-45.03,39.59,37.53,285.21,288.88,39.71,38.26,285.34,288.98,0.0
2018-09-11 07:31:00,88.64474,45.33086,1027.432,266.49,96.3,15.9,0.15,1.4,-45.28,38.15,37.6,285.17,288.72,39.71,38.32,285.33,288.99,0.0
2018-09-11 07:31:00,88.64474,45.33085,1027.446,266.49,96.3,15.8,-0.14,1.67,-45.5,38.28,37.66,285.63,288.94,39.65,38.32,285.45,289.02,0.0
2018-09-11 07:31:00,88.64474,45.33085,1027.44,266.49,96.3,15.9,-0.17,1.55,-45.88,38.55,37.73,285.46,288.8,39.54,38.29,285.51,288.94,0.0
2018-09-11 07:31:00,88.64474,45.33085,1027.421,266.5,96.3,16.0,-0.03,1.46,-46.47,39.46,37.6,285.41,288.94,39.41,38.22,285.55,288.85,0.0
2018-09-11 07:31:00,88.64474,45.33085,1027.415,266.5,96.3,16.1,-0.01,1.77,-47.11,39.01,37.6,285.88,288.82,39.29,38.14,285.6,288.79,0.0
2018-09-11 07:31:00,88.64474,45.33084,1027.413,266.5,96.3,16.1,-0.2,1.98,-47.42,37.89,37.8,285.6,288.61,39.16,38.04,285.65,288.68,0.0
2018-09-11 07:31:00,88.64474,45.33084,1027.396,266.49,96.3,16.2,-0.07,2.15,-47.87,38.74,37.6,285.9,288.38,39.03,37.96,285.68,288.56,0.0
2018-09-11 07:31:00,88.64474,45.33084,1027.406,266.5,96.3,16.1,-0.13,2.09,-48.46,38.87,37.73,285.8,288.5,38.88,37.9,285.72,288.41,0.0
2018-09-11 07:31:00,88.64474,45.33084,1027.41,266.5,96.3,16.1,-0.02,2.06,-49.13,39.27,37.53,286.08,288.67,38.67,37.86,285.77,288.28,0.0
2018-09-11 07:31:00,88.64474,45.33084,1027.382,266.49,96.3,16.3,0.4,2.17,-49.88,38.74,37.6,285.93,288.75,38.38,37.84,285.8,288.18,0.0
2018-09-11 07:31:00,88.64474,45.33084,1027.338,266.49,96.3,16.7,0.96,2.35,-50.7,38.87,37.73,285.74,288.42,37.99,37.84,285.82,288.11,0.0
2018-09-11 07:31:00,88.64474,45.33085,1027.325,266.5,96.3,16.8,1.05,2.45,-51.62,38.48,37.66,286.02,288.32,37.52,37.86,285.88,288.08,0.0
2018-09-11 07:31:00,88.64474,45.33086,1027.309,266.49,96.3,16.9,0.96,2.68,-52.76,38.28,37.6,285.99,288.29,36.98,37.87,286.01,288.18,0.0
2018-09-11 07:31:00,88.64474,45.33086,1027.302,266.49,96.3,16.9,0.91,2.77,-53.89,39.14,37.73,285.83,288.42,36.42,37.88,286.11,288.27,0.0
2018-09-11 07:31:00,88.64474,45.33087,1027.3,266.49,96.3,16.9,0.93,2.85,-55.07,38.02,37.8,285.59,288.7,35.91,37.87,286.17,288.32,0.0
2018-09-11 07:31:00,88.64474,45.33088,1027.296,266.49,96.3,17.0,1.05,3.09,-56.36,39.14,37.73,285.79,288.67,35.52,37.85,286.24,288.35,0.0
2018-09-11 07:31:00,88.64474,45.33088,1027.335,266.5,96.3,16.7,1.53,2.89,-57.62,39.2,37.8,286.23,288.68,35.32,37.82,286.32,288.46,0.0
2018-09-11 07:31:00,88.64474,45.33089,1027.314,266.5,96.3,16.8,1.72,3.29,-58.78,37.89,37.6,287.18,289.42,35.37,37.79,286.39,288.56,0.0
2018-09-11 07:31:00,88.64474,45.33089,1027.284,266.5,96.3,17.1,2.07,3.38,-60.0,38.48,37.6,286.73,289.16,35.71,37.77,286.43,288.65,0.0
2018-09-11 07:31:00,88.64474,45.3309,1027.277,266.5,96.3,17.1,2.35,3.48,-61.27,38.87,37.6,286.38,288.45,36.33,37.76,286.46,288.74,0.0
2018-09-11 07:31:00,88.64474,45.3309,1027.301,266.5,96.3,16.9,2.51,3.65,-62.46,37.5,37.8,286.18,288.6,37.19,37.77,286.49,288.81,0.0
2018-09-11 07:31:00,88.64474,45.33091,1027.28,266.5,96.3,17.1,2.93,3.31,-63.44,38.09,37.8,286.23,288.74,38.24,37.81,286.51,288.83,0.0
2018-09-11 07:31:00,88.64474,45.33091,1027.264,266.5,96.3,17.2,2.75,3.53,-64.72,36.91,37.8,286.39,288.79,39.36,37.86,286.45,288.84,0.0
2018-09-11 07:31:00,88.64474,45.33092,1027.272,266.5,96.3,17.2,2.85,3.36,-66.02,37.5,37.73,286.22,288.82,40.45,37.94,286.33,288.79,0.0
2018-09-11 07:31:00,88.64474,45.33092,1027.27,266.5,96.3,17.2,2.7,3.37,-67.24,38.61,37.6,285.73,289.0,41.4,38.02,286.23,288.77,0.0
2018-09-11 07:31:00,88.64473,45.33092,1027.24,266.49,96.3,17.4,2.47,3.53,-68.42,38.81,37.6,286.01,289.04,42.12,38.09,286.18,288.8,0.0
2018-09-11 07:31:00,88.64473,45.33093,1027.221,266.5,96.3,17.5,2.82,3.25,-69.61,37.96,37.73,286.18,288.93,42.54,38.14,286.14,288.84,0.0
2018-09-11 07:31:00,88.64473,45.33093,1027.209,266.49,96.3,17.6,2.64,3.31,-70.97,38.48,37.8,285.56,288.76,42.64,38.17,286.1,288.9,0.0
2018-09-11 07:31:00,88.64473,45.33094,1027.2,266.49,96.3,17.7,2.62,3.17,-71.98,38.87,37.73,285.77,289.11,42.43,38.16,286.06,289.0,0.0
2018-09-11 07:31:00,88.64473,45.33094,1027.196,266.49,96.3,17.7,2.59,3.02,-72.87,38.48,37.8,285.86,289.24,41.95,38.13,286.03,289.09,0.0
2018-09-11 07:31:00,88.64473,45.33095,1027.182,266.49,96.3,17.8,2.51,3.0,-73.72,39.14,37.73,286.05,289.16,41.28,38.06,285.99,289.15,0.0
2018-09-11 07:31:00,88.64473,45.33095,1027.148,266.49,96.3,18.1,2.48,3.15,-74.49,39.33,37.73,286.14,288.84,40.49,37.97,285.93,289.18,0.0
2018-09-11 07:31:00,88.64473,45.33096,1027.15,266.49,96.3,18.1,2.82,3.14,-75.23,39.27,37.94,285.99,289.05,39.67,37.86,285.88,289.21,0.0
2018-09-11 07:31:00,88.64473,45.33096,1027.14,266.49,96.3,18.2,2.43,3.19,-75.72,39.59,37.8,285.66,289.24,38.91,37.75,285.82,289.23,0.0
2018-09-11 07:31:00,88.64473,45.33097,1027.132,266.49,96.3,18.2,2.38,3.34,-76.31,38.55,37.94,285.48,289.33,38.25,37.63,285.72,289.18,0.0
2018-09-11 07:31:00,88.64473,45.33098,1027.137,266.49,96.3,18.2,2.62,3.32,-77.01,39.59,37.73,285.64,289.1,37.74,37.52,285.61,289.1,0.0
2018-09-11 07:31:00,88.64473,45.33099,1027.153,266.49,96.3,18.1,2.76,3.21,-77.7,37.37,37.8,285.37,288.91,37.39,37.4,285.5,289.0,0.0
2018-09-11 07:31:00,88.64473,45.33099,1027.141,266.48,96.3,18.2,2.23,3.41,-78.16,39.33,37.73,285.54,288.87,37.17,37.3,285.37,288.88,0.0
2018-09-11 07:31:00,88.64473,45.331,1027.16,266.48,96.3,18.0,2.74,3.46,-78.79,38.35,37.73,285.55,288.7,37.08,37.19,285.25,288.76,0.0
2018-09-11 07:31:00,88.64473,45.33101,1027.16,266.48,96.3,18.0,2.39,3.76,-79.27,39.4,37.8,285.15,288.74,37.08,37.1,285.16,288.59,0.0
2018-09-11 07:31:00,88.64473,45.33102,1027.142,266.48,96.3,18.1,2.36,3.96,-79.7,38.15,37.6,285.51,288.43,37.14,37.0,285.1,288.43,0.0
2018-09-11 07:31:00,88.64473,45.33102,1027.126,266.49,96.3,18.3,2.57,4.16,-80.03,38.87,37.73,285.76,288.55,37.23,36.93,285.07,288.29,0.0
2018-09-11 07:31:00,88.64473,45.33103,1027.137,266.48,96.3,18.2,2.56,4.54,-80.2,38.94,37.66,285.64,288.48,37.35,36.87,285.06,288.2,0.0
2018-09-11 07:31:00,88.64473,45.33104,1027.145,266.48,96.3,18.1,2.52,4.76,-80.34,38.81,37.8,285.84,289.16,37.5,36.85,285.0,288.25,0.0
2018-09-11 07:31:00,88.64473,45.33102,1027.156,266.49,96.3,18.0,2.71,5.25,-80.33,38.61,37.6,286.2,288.56,37.67,36.86,284.97,288.33,0.0
2018-09-11 07:31:00,88.64473,45.331,1027.143,266.49,96.3,18.1,2.56,5.44,-80.3,38.02,37.87,285.92,288.5,37.88,36.93,284.94,288.45,0.0
2018-09-11 07:31:00,88.64473,45.33098,1027.11,266.48,96.3,18.4,2.47,5.67,-80.13,38.48,37.53,285.81,288.24,38.12,37.05,284.88,288.56,0.0
2018-09-11 07:31:00,88.64473,45.33096,1027.077,266.48,96.3,18.6,2.63,6.04,-79.75,38.48,37.6,285.65,288.16,38.39,37.22,284.82,288.69,0.0
2018-09-11 07:31:00,88.64473,45.33094,1027.076,266.48,96.3,18.6,2.58,6.02,-79.35,39.53,37.46,284.99,289.8,38.68,37.42,284.81,288.85,0.0
2018-09-11 07:31:00,88.64473,45.33093,1027.06,266.48,96.3,18.8,2.06,6.02,-78.83,37.89,37.53,284.55,289.58,38.97,37.65,284.8,288.87,0.0
2018-09-11 07:31:00,88.64473,45.33091,1027.056,266.48,96.3,18.8,2.1,5.9,-78.3,38.02,37.53,283.9,289.38,39.22,37.88,284.85,288.91,0.0
2018-09-11 07:31:00,88.64473,45.33089,1027.052,266.48,96.3,18.8,2.24,5.78,-77.71,38.09,37.32,283.47,288.77,39.4,38.09,284.89,288.93,0.0
2018-09-11 07:31:00,88.64473,45.33087,1027.036,266.48,96.3,19.0,2.31,5.58,-77.02,37.5,37.6,283.86,288.99,39.49,38.26,284.91,288.94,0.0
2018-09-11 07:31:00,88.64473,45.33085,1027.014,266.48,96.3,19.1,2.47,5.14,-76.34,40.25,37.73,284.43,289.46,39.44,38.36,284.95,288.94,0.0
2018-09-11 07:31:00,88.64473,45.33084,1026.98,266.48,96.3,19.4,2.19,4.95,-75.64,38.55,37.66,285.22,288.52,39.27,38.4,285.07,288.81,0.0
2018-09-11 07:31:00,88.64473,45.33082,1026.993,266.48,96.3,19.3,2.16,4.49,-74.77,39.53,37.73,285.52,288.99,38.96,38.37,285.19,288.69,0.0
2018-09-11 07:31:00,88.64473,45.3308,1026.998,266.48,96.3,19.2,2.16,4.4,-73.91,38.61,37.6,286.05,288.64,38.54,38.27,285.38,288.61,0.0
2018-09-11 07:31:00,88.64473,45.33079,1026.988,266.48,96.3,19.3,2.22,4.38,-72.98,38.22,37.8,285.77,288.76,38.04,38.13,285.62,288.56,0.0
2018-09-11 07:31:00,88.64473,45.33078,1026.985,266.48,96.3,19.3,2.34,4.09,-71.91,38.61,37.73,285.95,289.09,37.5,37.96,285.85,288.53,0.0
2018-09-11 07:31:00,88.64473,45.33077,1026.956,266.48,96.3,19.6,2.3,4.07,-70.81,38.42,37.94,286.07,288.61,36.98,37.78,285.98,288.55,0.0
2018-09-11 07:31:00,88.64473,45.33076,1026.956,266.48,96.3,19.6,2.64,3.84,-69.77,38.74,37.66,285.95,288.57,36.51,37.61,286.08,288.68,0.0
2018-09-11 07:31:00,88.64473,45.33075,1026.95,266.48,96.3,19.6,2.7,3.66,-68.59,38.68,37.6,286.07,288.5,36.15,37.48,286.12,288.8,0.0
2018-09-11 07:31:00,88.64473,45.33074,1026.939,266.48,96.3,19.7,2.68,3.54,-67.37,38.28,37.73,286.11,288.68,35.91,37.39,286.13,288.9,0.0
2018-09-11 07:31:00,88.64473,45.33073,1026.928,266.48,96.3,19.8,2.64,3.47,-66.15,38.87,37.66,285.94,288.99,35.82,37.34,286.12,288.98,0.0
2018-09-11 07:31:00,88.64473,45.33072,1026.915,266.48,96.3,19.9,2.47,3.37,-64.87,37.7,37.73,285.38,289.4,35.89,37.35,286.1,289.04,0.0
2018-09-11 07:31:00,88.64473,45.33071,1026.903,266.48,96.3,20.0,2.11,3.53,-63.6,39.14,37.73,285.47,289.53,36.1,37.38,286.05,289.1,0.0
2018-09-11 07:31:00,88.64473,45.3307,1026.89,266.48,96.3,20.1,2.09,3.35,-62.47,37.83,37.6,285.82,289.17,36.44,37.45,286.01,289.13,0.0
2018-09-11 07:31:00,88.64473,45.33069,1026.893,266.48,96.3,20.0,1.62,3.18,-61.34,37.89,37.6,285.51,289.12,36.87,37.52,285.92,289.14,0.0
2018-09-11 07:31:00,88.64473,45.33068,1026.908,266.48,96.3,19.9,1.21,3.05,-60.1,37.96,37.6,285.6,289.05,37.38,37.6,285.77,289.13,0.0
2018-09-11 07:31:00,88.64472,45.33067,1026.915,266.48,96.3,19.9,1.57,2.92,-58.76,38.09,37.73,285.89,289.33,37.93,37.66,285.66,289.11,0.0
2018-09-11 07:31:00,88.64472,45.33066,1026.91,266.49,96.3,19.9,1.38,3.04,-57.43,38.15,37.73,285.59,289.11,38.48,37.71,285.62,289.04,0.0
2018-09-11 07:31:00,88.64472,45.33065,1026.892,266.48,96.3,20.0,1.61,2.7,-56.13,38.15,37.53,285.9,289.08,39.0,37.75,285.61,288.98,0.0
2018-09-11 07:31:00,88.64472,45.33065,1026.869,266.48,96.3,20.2,1.77,2.68,-54.92,36.85,37.6,285.64,289.02,39.47,37.78,285.6,288.95,0.0
2018-09-11 07:31:00,88.64472,45.33066,1026.844,266.49,96.3,20.4,1.87,2.62,-53.8,39.14,37.73,285.24,289.07,39.85,37.79,285.57,288.95,0.0
2018-09-11 07:31:00,88.64472,45.33067,1026.826,266.48,96.3,20.5,1.97,2.32,-52.74,38.74,37.73,285.09,288.86,40.14,37.8,285.53,288.94,0.0
2018-09-11 07:31:00,88.64472,45.33067,1026.84,266.48,96.3,20.4,2.02,2.54,-51.66,36.78,37.73,285.34,288.69,40.31,37.82,285.5,288.91,0.0
2018-09-11 07:31:00,88.64472,45.33068,1026.843,266.49,96.3,20.4,1.62,2.25,-50.8,39.33,37.73,285.74,288.55,40.36,37.83,285.39,288.79,0.0
2018-09-11 07:31:00,88.64472,45.33068,1026.848,266.48,96.3,20.4,1.22,2.19,-49.94,37.5,37.6,285.59,288.76,40.3,37.85,285.33,288.7,0.0
2018-09-11 07:31:00,88.64472,45.33069,1026.841,266.48,96.3,20.4,0.95,2.17,-49.15,39.4,37.6,285.23,288.59,40.12,37.88,285.35,288.6,0.0
2018-09-11 07:31:00,88.64472,45.3307,1026.816,266.49,96.3,20.6,0.77,2.12,-48.49,39.14,37.8,285.0,288.43,39.85,37.9,285.4,288.49,0.0
2018-09-11 07:31:00,88.64472,45.3307,1026.804,266.5,96.3,20.7,0.52,2.07,-47.99,37.96,37.66,285.44,288.61,39.51,37.93,285.43,288.37,0.0
2018-09-11 07:31:00,88.64472,45.3307,1026.816,266.49,96.3,20.6,0.41,2.14,-47.48,38.74,37.39,284.32,287.74,39.11,37.95,285.48,288.28,0.0
2018-09-11 07:31:00,88.64472,45.3307,1026.802,266.49,96.3,20.7,0.29,2.31,-47.14,37.5,37.73,285.43,288.25,38.7,37.96,285.51,288.2,0.0
2018-09-11 07:31:00,88.64472,45.33069,1026.803,266.49,96.3,20.7,0.16,2.47,-47.05,38.87,37.94,285.7,288.42,38.3,37.97,285.55,288.16,0.0
2018-09-11 07:31:00,88.64472,45.33069,1026.808,266.49,96.3,20.7,0.0,2.65,-47.17,38.35,37.8,285.52,288.15,37.93,37.98,285.6,288.15,0.0
2018-09-11 07:31:00,88.64472,45.33068,1026.772,266.49,96.3,21.0,-0.17,2.89,-47.47,39.53,37.73,285.51,288.17,37.61,37.98,285.67,288.18,0.0
2018-09-11 07:31:00,88.64472,45.33068,1026.764,266.49,96.3,21.0,-0.37,3.17,-47.94,38.28,37.73,285.63,288.37,37.36,37.98,285.72,288.25,0.0
2018-09-11 07:31:00,88.64472,45.33068,1026.757,266.5,96.3,21.1,-0.37,3.31,-48.57,38.74,37.66,285.77,288.27,37.19,37.97,285.88,288.42,0.0
2018-09-11 07:31:00,88.64472,45.33067,1026.726,266.49,96.3,21.3,-0.67,3.7,-49.38,38.87,37.73,285.5,288.6,37.11,37.96,285.94,288.52,0.0
2018-09-11 07:31:00,88.64472,45.33067,1026.699,266.49,96.3,21.5,-0.9,3.98,-50.35,37.83,37.73,285.37,288.54,37.1,37.95,285.94,288.6,0.0
2018-09-11 07:31:00,88.64472,45.33066,1026.7,266.5,96.3,21.5,-0.94,4.14,-51.44,37.83,37.73,285.92,288.55,37.15,37.93,285.94,288.67,0.0
2018-09-11 07:31:00,88.64472,45.33066,1026.733,266.5,96.3,21.3,-1.02,4.54,-52.63,38.61,37.73,285.84,288.71,37.26,37.91,285.94,288.7,0.0
2018-09-11 07:31:00,88.64472,45.33065,1026.714,266.49,96.3,21.4,-0.84,4.68,-54.01,38.22,37.8,285.98,288.93,37.41,37.88,285.9,288.69,0.0
2018-09-11 07:31:00,88.64472,45.33065,1026.671,266.49,96.3,21.7,-0.65,4.93,-55.44,37.89,37.73,286.07,288.61,37.57,37.85,285.88,288.66,0.0
2018-09-11 07:31:00,88.64472,45.33064,1026.662,266.49,96.3,21.8,-0.41,5.15,-56.97,38.55,37.87,286.27,288.59,37.73,37.82,285.91,288.61,0.0
2018-09-11 07:31:00,88.64472,45.33064,1026.693,266.5,96.3,21.6,-0.24,5.21,-58.7,38.15,37.8,286.19,288.72,37.87,37.79,285.94,288.55,0.0
2018-09-11 07:31:00,88.64472,45.33063,1026.7,266.5,96.3,21.5,-0.26,5.02,-60.59,39.14,37.66,286.36,288.43,37.98,37.77,285.93,288.51,0.0
2018-09-11 07:31:00,88.64472,45.33063,1026.644,266.5,96.3,21.9,-0.36,4.79,-62.58,37.5,37.73,286.15,288.33,38.03,37.75,285.95,288.52,0.0
2018-09-11 07:31:00,88.64472,45.33062,1026.639,266.5,96.3,22.0,0.0,4.66,-64.61,38.48,37.8,286.14,288.76,38.03,37.75,285.93,288.48,0.0
2018-09-11 07:31:00,88.64472,45.33062,1026.634,266.5,96.3,22.0,0.07,4.45,-66.67,37.5,37.87,286.53,288.54,37.97,37.76,285.89,288.49,0.0
2018-09-11 07:31:00,88.64472,45.33061,1026.626,266.5,96.3,22.1,-0.01,4.32,-68.81,38.61,37.73,285.81,288.92,37.85,37.79,285.86,288.53,0.0
2018-09-11 07:31:00,88.64472,45.33061,1026.63,266.49,96.3,22.0,0.03,4.39,-70.94,39.01,37.87,285.56,288.83,37.69,37.82,285.83,288.6,0.0
2018-09-11 07:31:00,88.64472,45.3306,1026.634,266.49,96.3,22.0,0.38,4.47,-73.04,37.5,37.87,285.66,289.27,37.51,37.84,285.77,288.71,0.0
2018-09-11 07:31:00,88.64472,45.3306,1026.63,266.49,96.3,22.0,-0.03,4.36,-74.99,38.28,37.53,285.47,288.84,37.33,37.87,285.69,288.81,0.0
2018-09-11 07:31:00,88.64472,45.33059,1026.615,266.49,96.3,22.1,-0.04,4.36,-76.9,38.15,37.66,284.94,288.7,37.17,37.87,285.56,288.88,0.0
2018-09-11 07:31:00,88.64472,45.33059,1026.608,266.49,96.3,22.2,0.01,4.45,-78.73,37.96,37.66,285.12,288.88,37.06,37.87,285.41,288.94,0.0
2018-09-11 07:31:00,88.64472,45.33058,1026.609,266.48,96.3,22.2,-0.13,4.52,-80.51,38.48,37.8,285.66,289.02,37.02,37.84,285.31,288.95,0.0
2018-09-11 07:31:00,88.64472,45.33058,1026.574,266.48,96.3,22.5,-0.48,4.45,-82.12,38.48,37.8,285.71,289.47,37.07,37.8,285.27,288.9,0.0
2018-09-11 07:31:00,88.64472,45.33057,1026.576,266.48,96.3,22.4,-0.45,4.45,-83.55,37.89,37.94,285.79,288.92,37.2,37.75,285.18,288.72,0.0
2018-09-11 07:31:00,88.64472,45.33056,1026.551,266.47,96.3,22.6,-0.53,4.51,-84.99,37.63,37.94,285.01,289.1,37.4,37.71,285.19,288.66,0.0
2018-09-11 07:31:00,88.64472,45.33056,1026.536,266.47,96.3,22.7,-0.76,4.48,-86.26,37.96,37.8,285.28,288.53,37.65,37.67,285.26,288.6,0.0
2018-09-11 07:31:00,88.64472,45.33056,1026.535,266.47,96.3,22.8,-0.86,4.51,-87.34,38.15,37.87,285.38,288.59,37.91,37.64,285.35,288.58,0.0
2018-09-11 07:31:00,88.64472,45.33055,1026.524,266.47,96.3,22.8,-0.59,4.73,-88.21,37.89,37.73,285.35,288.65,38.15,37.64,285.44,288.6,0.0
2018-09-11 07:31:00,88.64472,45.33054,1026.53,266.47,96.3,22.8,-0.41,4.8,-88.78,37.37,37.6,284.58,287.41,38.32,37.66,285.54,288.5,0.0
2018-09-11 07:31:00,88.64472,45.33054,1026.522,266.47,96.3,22.8,-0.47,4.92,-89.26,38.74,37.73,285.18,288.29,38.39,37.71,285.63,288.41,0.0
2018-09-11 07:31:00,88.64472,45.33053,1026.501,266.47,96.3,23.0,-0.29,4.77,-89.71,37.7,37.6,285.09,288.55,38.35,37.77,285.72,288.33,0.0
2018-09-11 07:31:00,88.64472,45.33053,1026.491,266.46,96.3,23.1,-0.17,4.65,-90.06,38.94,37.66,285.48,289.03,38.19,37.83,285.77,288.24,0.0
2018-09-11 07:31:00,88.64472,45.33052,1026.512,266.47,96.3,22.9,-0.26,4.64,-90.27,37.37,37.94,285.74,289.46,37.93,37.9,285.77,288.19,0.0
2018-09-11 07:31:00,88.64472,45.33052,1026.49,266.46,96.3,23.1,-0.3,4.3,-90.32,37.63,37.8,285.74,288.34,37.61,37.95,285.76,288.18,0.0
2018-09-11 07:31:00,88.64472,45.33052,1026.489,266.47,96.3,23.1,-0.56,4.17,-90.22,38.09,37.87,285.79,288.38,37.28,37.98,285.8,288.28,0.0
2018-09-11 07:31:00,88.64472,45.33052,1026.48,266.46,96.3,23.2,-0.75,3.97,-89.9,38.02,37.73,285.72,288.17,36.99,37.99,285.76,288.31,0.0
2018-09-11 07:31:00,88.64472,45.33052,1026.459,266.46,96.3,23.3,-0.86,3.84,-89.42,38.94,37.8,285.74,287.92,36.81,37.98,285.74,288.36,0.0
2018-09-11 07:31:00,88.64472,45.33052,1026.436,266.46,96.3,23.5,-0.88,3.76,-88.79,38.02,37.8,285.58,288.18,36.76,37.95,285.75,288.39,0.0
2018-09-11 07:31:00,88.64472,45.33052,1026.436,266.46,96.3,23.5,-0.83,3.67,-88.0,38.28,37.73,286.03,287.95,36.88,37.91,285.76,288.37,0.0
2018-09-11 07:31:00,88.64472,45.33052,1026.416,266.46,96.3,23.7,-0.73,3.72,-86.89,37.83,37.8,286.15,287.86,37.15,37.87,285.88,288.46,0.0
2018-09-11 07:31:00,88.64472,45.33052,1026.419,266.46,96.3,23.6,-0.69,3.72,-85.79,37.37,37.73,285.61,288.13,37.56,37.84,285.98,288.53,0.0
2018-09-11 07:31:00,88.64472,45.33052,1026.437,266.46,96.3,23.5,-0.73,3.7,-84.53,37.17,37.87,285.78,288.29,38.05,37.83,286.09,288.61,0.0
2018-09-11 07:31:00,88.64472,45.33052,1026.448,266.46,96.3,23.4,-0.78,3.69,-83.17,37.5,37.87,285.7,288.3,38.54,37.83,286.2,288.66,0.0
2018-09-11 07:31:00,88.64472,45.33052,1026.434,266.46,96.3,23.5,-0.77,3.71,-81.79,38.48,37.8,286.02,288.48,38.97,37.86,286.3,288.69,0.0
2018-09-11 07:31:00,88.64472,45.33052,1026.423,266.46,96.3,23.6,-0.54,3.74,-80.29,37.5,37.8,286.87,288.71,39.27,37.9,286.34,288.69,0.0
2018-09-11 07:31:00,88.64472,45.33052,1026.417,266.45,96.3,23.6,-0.74,3.9,-78.75,38.15,37.73,286.36,288.21,39.37,37.94,286.36,288.69,0.0
2018-09-11 07:31:00,88.64472,45.33052,1026.394,266.45,96.3,23.8,-0.79,3.92,-77.14,37.11,37.73,286.11,288.5,39.26,37.99,286.41,288.69,0.0
2018-09-11 07:31:00,88.64472,45.33052,1026.367,266.45,96.3,24.0,-0.83,4.0,-75.49,38.35,37.8,286.43,288.47,38.93,38.02,286.4,288.69,0.0
2018-09-11 07:31:00,88.64472,45.33049,1026.348,266.45,96.3,24.2,-0.93,4.12,-73.72,39.07,37.8,286.14,288.23,38.43,38.05,286.33,288.72,0.0
2018-09-11 07:31:00,88.64472,45.33047,1026.319,266.45,96.3,24.4,-1.05,4.02,-71.87,38.61,37.8,285.98,288.68,37.82,38.05,286.29,288.76,0.0
2018-09-11 07:31:00,88.64472,45.33045,1026.337,266.45,96.3,24.3,-0.93,4.37,-70.03,37.96,37.94,286.32,288.65,37.18,38.04,286.16,288.83,0.0
2018-09-11 07:31:00,88.64472,45.33042,1026.347,266.44,96.3,24.2,-1.09,4.32,-67.97,37.83,37.87,286.18,288.76,36.61,38.03,286.21,288.94,0.0
2018-09-11 07:31:00,88.64472,45.3304,1026.351,266.44,96.3,24.2,-1.24,4.37,-66.05,37.96,37.87,286.07,288.59,36.19,38.0,286.24,289.04,0.0
2018-09-11 07:31:00,88.64472,45.33038,1026.347,266.44,96.3,24.2,-1.29,4.47,-64.29,38.94,37.8,285.82,288.9,35.97,37.98,286.22,289.13,0.0
2018-09-11 07:31:00,88.64472,45.33035,1026.33,266.45,96.3,24.3,-1.27,4.4,-62.69,37.37,37.73,285.96,288.9,36.0,37.96,286.22,289.22,0.0
2018-09-11 07:31:00,88.64472,45.33033,1026.318,266.44,96.3,24.4,-1.36,4.24,-61.01,36.98,37.94,285.65,288.89,36.27,37.95,286.22,289.25,0.0
2018-09-11 07:31:00,88.64472,45.3303,1026.301,266.44,96.3,24.5,-1.26,4.21,-59.38,36.91,37.87,287.1,289.1,36.75,37.96,286.16,289.23,0.0
2018-09-11 07:31:00,88.64472,45.33032,1026.287,266.44,96.3,24.6,-1.16,4.35,-57.81,37.83,37.8,286.6,288.89,37.37,37.97,286.07,289.17,0.0
2018-09-11 07:31:00,88.64472,45.33033,1026.275,266.44,96.3,24.7,-0.97,4.38,-56.34,39.27,37.94,285.54,289.28,38.03,37.97,286.01,289.05,0.0
2018-09-11 07:31:00,88.64472,45.33034,1026.259,266.45,96.3,24.8,-0.71,4.28,-54.97,37.76,37.8,285.98,289.25,38.65,37.98,285.96,288.89,0.0
2018-09-11 07:31:00,88.64472,45.33035,1026.245,266.44,96.3,25.0,-0.74,4.62,-53.79,38.09,37.73,285.85,289.01,39.13,37.97,285.84,288.73,0.0
2018-09-11 07:31:00,88.64472,45.33036,1026.224,266.43,96.3,25.1,-0.45,4.39,-52.66,36.58,38.01,285.56,288.94,39.41,37.94,285.78,288.57,0.0
2018-09-11 07:31:00,88.64472,45.33037,1026.23,266.43,96.3,25.1,-0.65,4.57,-51.66,37.24,37.8,285.63,288.81,39.45,37.9,285.6,288.45,0.0
2018-09-11 07:31:00,88.64472,45.33038,1026.237,266.43,96.3,25.0,-0.81,4.57,-50.82,38.35,37.8,285.58,288.8,39.24,37.84,285.5,288.38,0.0
2018-09-11 07:31:00,88.64472,45.33039,1026.227,266.44,96.3,25.1,-0.9,4.36,-50.14,38.35,38.01,285.68,288.76,38.83,37.78,285.46,288.34,0.0
2018-09-11 07:31:00,88.64472,45.3304,1026.209,266.43,96.3,25.2,-1.17,4.35,-49.69,37.76,37.94,285.11,288.47,38.27,37.73,285.41,288.33,0.0
2018-09-11 07:31:00,88.64472,45.33042,1026.195,266.43,96.3,25.3,-0.98,4.51,-49.26,37.3,37.87,285.31,288.72,37.66,37.69,285.48,288.39,0.0
2018-09-11 07:31:00,88.64472,45.33043,1026.187,266.44,96.3,25.4,-0.7,4.44,-48.93,38.94,37.8,285.33,288.78,37.09,37.69,285.46,288.38,0.0
2018-09-11 07:31:00,88.64472,45.33044,1026.175,266.44,96.3,25.5,-0.56,4.54,-48.75,39.14,37.87,285.66,288.68,36.65,37.71,285.45,288.35,0.0
2018-09-11 07:31:00,88.64472,45.33045,1026.16,266.44,96.3,25.6,-0.37,4.63,-48.81,38.42,37.73,285.5,288.46,36.41,37.77,285.46,288.31,0.0
2018-09-11 07:31:00,88.64472,45.33043,1026.144,266.44,96.3,25.7,0.03,4.53,-49.1,37.7,37.94,284.89,288.24,36.4,37.86,285.44,288.22,0.0
2018-09-11 07:31:00,88.64472,45.33042,1026.126,266.44,96.3,25.9,0.24,4.75,-49.36,36.72,37.87,285.81,288.22,36.64,37.96,285.39,288.06,0.0
2018-09-11 07:31:00,88.64472,45.3304,1026.11,266.45,96.3,26.0,0.3,4.51,-49.82,37.44,37.66,284.75,287.68,37.09,38.05,285.23,287.84,0.0
2018-09-11 07:31:00,88.64472,45.33038,1026.112,266.45,96.3,26.0,0.29,4.52,-50.39,38.02,37.94,285.17,287.33,37.69,38.12,285.07,287.57,0.0
2018-09-11 07:31:00,88.64472,45.33037,1026.126,266.44,96.3,25.9,0.06,4.57,-51.09,37.76,37.8,285.79,288.15,38.35,38.15,284.89,287.28,0.0
2018-09-11 07:31:00,88.64472,45.33035,1026.133,266.44,96.3,25.8,-0.28,4.54,-51.91,37.44,37.8,286.0,287.83,38.96,38.11,284.74,287.01,0.0
2018-09-11 07:31:00,88.64472,45.33034,1026.111,266.44,96.3,26.0,-0.32,4.67,-52.81,36.91,37.94,286.07,288.22,39.45,37.99,284.68,286.81,0.0
2018-09-11 07:31:00,88.64472,45.33032,1026.123,266.44,96.3,25.9,-0.45,4.45,-53.71,38.94,38.01,285.42,287.9,39.73,37.8,284.61,286.71,0.0
2018-09-11 07:31:00,88.64472,45.3303,1026.125,266.44,96.3,25.9,-0.51,4.52,-54.65,37.17,37.8,285.76,288.28,39.76,37.55,284.68,286.73,0.0
2018-09-11 07:31:00,88.64472,45.33029,1026.106,266.44,96.3,26.0,-0.4,4.48,-55.59,38.55,37.8,285.96,288.16,39.52,37.24,284.8,286.79,0.0
2018-09-11 07:31:00,88.64472,45.33027,1026.08,266.44,96.3,26.2,-0.3,4.41,-56.58,37.76,38.01,285.63,288.31,39.03,36.91,284.9,286.97,0.0
2018-09-11 07:31:00,88.64472,45.33026,1026.083,266.44,96.3,26.2,-0.42,4.46,-57.64,38.02,37.94,286.25,288.98,38.37,36.6,285.0,287.31,0.0
2018-09-11 07:31:00,88.64472,45.33025,1026.117,266.44,96.3,25.9,-0.24,4.28,-58.71,38.42,38.01,286.44,289.26,37.61,36.32,285.13,287.68,0.0
2018-09-11 07:31:00,88.64472,45.33024,1026.099,266.44,96.3,26.1,-0.46,4.39,-59.82,38.74,37.73,285.96,288.7,36.87,36.11,285.21,288.23,0.0
2018-09-11 07:31:00,88.64472,45.33023,1026.081,266.44,96.3,26.2,-0.78,4.28,-60.99,39.14,37.73,286.37,288.18,36.23,36.0,285.18,288.54,0.0
2018-09-11 07:31:00,88.64472,45.33022,1026.085,266.44,96.3,26.2,-1.01,4.25,-62.14,38.15,37.8,285.93,289.01,35.79,36.0,285.17,288.78,0.0
2018-09-11 07:31:00,88.64472,45.33021,1026.101,266.43,96.3,26.0,-1.07,4.43,-63.26,37.24,37.73,285.39,290.21,35.6,36.11,285.18,289.04,0.0
2018-09-11 07:31:00,88.64472,45.3302,1026.025,266.42,96.3,26.6,-1.04,4.35,-64.25,36.45,37.32,284.7,289.45,35.7,36.32,285.02,289.14,0.0
2018-09-11 07:31:00,88.64472,45.33019,1026.013,266.42,96.3,26.7,-0.84,4.35,-65.14,37.56,37.32,283.96,291.02,36.07,36.61,284.88,289.27,0.0
2018-09-11 07:31:00,88.64472,45.33018,1026.023,266.42,96.3,26.6,-0.55,4.49,-65.86,37.17,37.39,283.39,288.78,36.65,36.97,284.73,289.42,0.0
2018-09-11 07:31:00,88.64472,45.33018,1026.036,266.42,96.3,26.5,-0.38,4.56,-66.49,38.68,37.6,283.87,288.49,37.37,37.36,284.55,289.57,0.0
2018-09-11 07:31:00,88.64472,45.33017,1026.034,266.42,96.3,26.6,-0.41,4.6,-67.06,37.17,37.46,284.76,289.61,38.11,37.74,284.39,289.69,0.0
2018-09-11 07:31:00,88.64472,45.33016,1026.004,266.42,96.3,26.8,-0.49,4.81,-67.61,38.74,37.46,283.72,288.09,38.77,38.1,284.33,289.8,0.0
2018-09-11 07:31:00,88.64472,45.33015,1026.023,266.43,96.3,26.6,-0.47,4.84,-68.09,37.96,37.6,284.47,290.52,39.26,38.41,284.29,289.94,0.0
2018-09-11 07:31:00,88.64472,45.33016,1025.994,266.43,96.3,26.9,-0.87,5.04,-68.39,37.7,37.6,284.06,291.19,39.51,38.66,284.39,289.99,0.0
2018-09-11 07:31:00,88.64472,45.33016,1025.979,266.43,96.3,27.0,-1.23,5.21,-68.56,37.11,37.6,283.73,290.93,39.49,38.82,284.58,290.29,0.0
2018-09-11 07:31:00,88.64472,45.33016,1025.991,266.42,96.3,26.9,-1.52,5.28,-68.64,36.98,37.53,284.0,290.66,39.21,38.91,284.67,290.64,0.0
2018-09-11 07:31:00,88.64472,45.33017,1026.001,266.42,96.3,26.8,-1.79,5.23,-68.63,38.42,37.6,283.9,291.6,38.72,38.93,284.67,290.91,0.0
2018-09-11 07:31:00,88.64472,45.33017,1025.981,266.43,96.3,27.0,-1.6,5.13,-68.44,37.5,37.73,284.11,290.53,38.08,38.89,284.77,291.28,0.0
2018-09-11 07:31:00,88.64472,45.33018,1025.959,266.42,96.3,27.1,-1.33,5.18,-67.99,38.28,37.73,284.21,290.71,37.42,38.8,284.79,291.48,0.0
2018-09-11 07:31:00,88.64472,45.33018,1025.952,266.42,96.3,27.2,-0.99,5.09,-67.49,38.87,37.8,284.38,290.72,36.82,38.68,284.82,291.59,0.0
2018-09-11 07:31:00,88.64472,45.33018,1025.95,266.42,96.3,27.2,-0.62,5.07,-66.97,38.22,37.8,283.92,290.64,36.39,38.54,284.87,291.66,0.0
2018-09-11 07:31:00,88.64472,45.33019,1025.936,266.42,96.3,27.3,-0.32,5.16,-66.4,37.56,37.87,283.47,290.26,36.17,38.4,284.9,291.65,0.0
2018-09-11 07:31:00,88.64472,45.33019,1025.907,266.41,96.3,27.5,-0.2,5.05,-65.61,38.35,37.8,283.61,290.67,36.21,38.27,284.93,291.51,0.0
2018-09-11 07:31:00,88.64472,45.3302,1025.892,266.42,96.3,27.6,-0.39,5.1,-64.99,38.55,37.87,283.61,290.38,36.48,38.15,284.94,291.39,0.0
2018-09-11 07:31:00,88.64472,45.3302,1025.905,266.42,96.3,27.5,-0.59,4.99,-64.33,37.5,37.87,283.97,290.49,36.94,38.05,284.9,291.2,0.0
2018-09-11 07:31:00,88.64472,45.3302,1025.907,266.42,96.3,27.5,-0.83,4.83,-63.64,36.19,37.8,284.08,290.41,37.49,37.97,284.85,290.97,0.0
2018-09-11 07:31:00,88.64472,45.33021,1025.888,266.42,96.3,27.7,-0.98,4.73,-62.95,37.37,37.8,284.41,290.67,38.04,37.91,284.84,290.78,0.0
2018-09-11 07:31:00,88.64472,45.33021,1025.876,266.42,96.3,27.8,-0.89,4.68,-62.22,37.3,37.73,284.62,290.63,38.48,37.87,284.84,290.62,0.0
2018-09-11 07:31:00,88.64472,45.33022,1025.873,266.42,96.3,27.8,-0.81,4.61,-61.44,37.17,37.8,285.0,290.91,38.75,37.85,284.75,290.45,0.0
2018-09-11 07:31:00,88.64472,45.33022,1025.886,266.42,96.3,27.7,-0.88,4.44,-60.51,38.28,38.01,284.53,290.56,38.78,37.83,284.65,290.36,0.0
2018-09-11 07:31:00,88.64472,45.33023,1025.886,266.42,96.3,27.7,-0.6,4.54,-59.55,37.3,37.87,284.6,290.18,38.56,37.81,284.55,290.31,0.0
2018-09-11 07:31:00,88.64472,45.33024,1025.863,266.42,96.3,27.9,-0.24,4.57,-58.57,39.2,37.73,284.32,290.19,38.12,37.8,284.44,290.3,0.0
2018-09-11 07:31:00,88.64472,45.33025,1025.822,266.43,96.3,28.2,-0.12,4.39,-57.64,38.28,37.8,284.58,290.03,37.52,37.77,284.32,290.32,0.0
2018-09-11 07:31:00,88.64472,45.33025,1025.822,266.42,96.3,28.2,-0.37,4.53,-56.88,38.22,37.8,283.88,289.9,36.84,37.74,284.23,290.35,0.0
2018-09-11 07:31:00,88.64472,45.33026,1025.804,266.43,96.3,28.3,-0.51,4.34,-56.01,38.15,38.01,284.01,290.17,36.19,37.7,284.15,290.29,0.0
2018-09-11 07:31:00,88.64472,45.33027,1025.823,266.43,96.3,28.2,-0.85,4.51,-55.04,36.91,37.8,284.29,289.99,35.65,37.65,284.15,290.28,0.0
2018-09-11 07:31:00,88.64472,45.33027,1025.83,266.43,96.3,28.1,-1.06,4.66,-54.08,37.7,37.8,284.25,290.52,35.3,37.6,284.2,290.28,0.0
2018-09-11 07:31:00,88.64472,45.33028,1025.807,266.43,96.3,28.3,-1.08,4.69,-53.14,37.7,37.66,284.5,290.59,35.18,37.56,284.29,290.27,0.0
2018-09-11 07:31:00,88.64472,45.33028,1025.818,266.43,96.3,28.2,-1.09,4.72,-52.16,37.44,37.87,284.57,290.28,35.29,37.52,284.43,290.26,0.0
2018-09-11 07:31:00,88.64472,45.33029,1025.829,266.43,96.3,28.1,-1.1,4.76,-51.16,38.09,37.8,284.94,290.02,35.6,37.5,284.6,290.2,0.0
2018-09-11 07:31:00,88.64472,45.33029,1025.79,266.42,96.3,28.4,-0.68,4.84,-50.22,37.3,37.87,285.01,290.4,36.05,37.5,284.73,290.15,0.0
2018-09-11 07:31:00,88.64472,45.3303,1025.766,266.42,96.3,28.6,-0.67,4.78,-49.39,36.19,37.8,285.09,290.57,36.56,37.53,284.83,290.15,0.0
2018-09-11 07:31:00,88.64472,45.3303,1025.763,266.42,96.3,28.6,-0.83,4.74,-48.63,37.5,37.8,285.15,290.5,37.04,37.57,284.88,290.19,0.0
2018-09-11 07:31:00,88.64472,45.3303,1025.737,266.43,96.3,28.8,-0.66,4.87,-47.87,36.98,37.87,285.14,290.49,37.43,37.63,284.89,290.26,0.0
