Date/Time,Latitude,Longitude,PPPP [hPa],TTT grad [K],RH [%],Height [m],Pitch [deg],Roll [deg],Yaw [deg],SWD [W/m**2] (raw),SWU [W/m**2] (raw),LWD [W/m**2] (raw),LWU [W/m**2] (raw),SWD [W/m**2] (corrected),SWU [W/m**2] (corrected),LWD [W/m**2] (corrected),LWU [W/m**2] (corrected),Flag
2018-08-18 11:09:00,89.55371,36.54431,1007.779,274.15,83.2,1.7,0.15,5.32,-41.23,95.62,58.87,312.34,322.58,92.02,56.83,312.46,322.88,0.0
2018-08-18 11:09:00,89.55371,36.54432,1007.756,274.15,83.2,1.9,-0.29,5.88,-42.98,93.39,58.66,312.43,321.64,92.25,56.79,312.57,322.96,0.0
2018-08-18 11:09:00,89.55371,36.54432,1007.751,274.15,83.2,1.9,-0.84,5.54,-44.59,92.93,58.66,312.63,322.29,92.72,56.83,312.63,322.99,0.0
2018-08-18 11:09:00,89.55371,36.54433,1007.769,274.15,83.2,1.8,-0.94,4.36,-46.65,94.31,58.59,312.89,322.74,93.35,56.93,312.66,322.98,0.0
2018-08-18 11:09:00,89.55371,36.54434,1007.79,274.15,83.2,1.6,-0.44,3.14,-49.59,93.32,58.45,313.46,322.3,94.05,57.1,312.68,322.95,0.0
2018-08-18 11:09:00,89.55371,36.54435,1007.791,274.15,83.1,1.6,-0.0,4.42,-54.33,93.91,58.38,313.21,320.94,94.72,57.34,312.69,322.85,0.0
2018-08-18 11:09:00,89.55371,36.54436,1007.764,274.15,83.2,1.8,-1.73,1.03,-55.47,94.31,58.45,312.74,322.3,95.29,57.62,312.69,322.75,0.0
2018-08-18 11:09:00,89.55371,36.54437,1007.769,274.15,83.2,1.8,-3.48,-0.44,-56.72,94.44,58.59,312.19,322.54,95.69,57.94,312.59,322.7,0.0
2018-08-18 11:09:00,89.55371,36.54438,1007.806,274.15,83.2,1.5,-3.91,-0.96,-58.91,94.5,58.59,312.34,322.59,95.9,58.26,312.58,322.64,0.0
2018-08-18 11:09:00,89.55371,36.54439,1007.846,274.15,83.2,1.2,-3.52,-1.02,-61.96,95.22,58.45,312.34,322.59,95.94,58.58,312.59,322.55,0.0
2018-08-18 11:09:00,89.55371,36.5444,1007.837,274.15,83.2,1.2,-3.85,-0.56,-65.07,94.31,58.45,312.52,322.88,95.83,58.88,312.46,322.46,0.0
2018-08-18 11:09:00,89.55371,36.54441,1007.83,274.14,83.2,1.3,-6.12,-1.54,-64.38,94.83,58.45,312.45,322.6,95.62,59.14,312.36,322.52,0.0
2018-08-18 11:09:00,89.55371,36.54442,1007.823,274.14,83.2,1.3,-7.4,-2.09,-66.58,94.44,58.59,311.52,322.85,95.36,59.36,312.31,322.5,0.0
2018-08-18 11:09:00,89.55371,36.54444,1007.817,274.14,83.2,1.4,-5.71,-2.12,-67.36,93.78,58.66,312.74,323.38,95.09,59.54,312.29,322.5,0.0
2018-08-18 11:09:00,89.55371,36.54445,1007.803,274.15,83.2,1.5,-3.19,-1.45,-68.52,94.18,58.45,313.22,323.24,94.83,59.68,312.29,322.47,0.0
2018-08-18 11:09:00,89.55371,36.54445,1007.776,274.14,83.2,1.7,-2.37,-0.0,-72.07,94.63,58.59,312.34,322.69,94.6,59.79,312.33,322.37,0.0
2018-08-18 11:09:00,89.55371,36.54446,1007.791,274.14,83.2,1.6,-2.84,1.94,-75.39,94.11,58.73,312.36,322.88,94.4,59.88,312.44,322.22,0.0
2018-08-18 11:09:00,89.55371,36.54447,1007.788,274.14,83.2,1.6,-0.61,1.05,-78.02,94.5,58.8,312.38,322.88,94.2,59.95,312.49,322.14,0.0
2018-08-18 11:09:00,89.55371,36.54448,1007.794,274.15,83.2,1.6,-0.02,-0.41,-77.78,94.63,58.87,312.12,322.99,94.0,60.01,312.53,322.02,0.0
2018-08-18 11:09:00,89.55371,36.54449,1007.788,274.15,83.2,1.6,-1.85,-2.63,-75.47,94.96,58.59,311.92,322.46,93.79,60.07,312.5,321.85,0.0
2018-08-18 11:09:00,89.55371,36.5445,1007.763,274.14,83.2,1.8,-4.68,-4.16,-72.6,94.04,58.8,312.43,321.85,93.57,60.14,312.45,321.62,0.0
2018-08-18 11:09:00,89.55371,36.54451,1007.757,274.15,83.2,1.9,-5.55,-2.2,-70.57,94.18,58.87,313.1,321.27,93.36,60.23,312.48,321.35,0.0
2018-08-18 11:09:00,89.55371,36.54452,1007.736,274.14,83.2,2.0,-6.22,-1.92,-69.28,94.9,58.87,312.62,322.62,93.19,60.34,312.44,321.1,0.0
2018-08-18 11:09:00,89.55371,36.54453,1007.745,274.14,83.2,2.0,-8.9,-0.85,-67.64,94.9,58.87,311.33,322.52,93.09,60.48,312.41,320.8,0.0
2018-08-18 11:09:00,89.55371,36.54453,1007.751,274.14,83.2,1.9,-8.69,0.9,-65.14,93.72,59.01,311.85,322.37,93.09,60.66,312.4,320.51,0.0
2018-08-18 11:09:00,89.55371,36.54454,1007.75,274.15,83.2,1.9,-5.98,2.36,-61.95,94.5,59.01,312.59,321.89,93.22,60.88,312.45,320.25,0.0
2018-08-18 11:09:00,89.55371,36.54455,1007.77,274.15,83.2,1.8,-3.93,2.35,-58.81,93.52,58.87,312.54,321.09,93.47,61.15,312.52,320.07,0.0
2018-08-18 11:09:00,89.55371,36.54456,1007.742,274.15,83.2,2.0,-4.82,1.92,-56.05,94.44,59.08,311.85,321.56,93.81,61.46,312.44,319.98,0.0
2018-08-18 11:09:00,89.55371,36.54457,1007.756,274.15,83.2,1.9,-6.13,3.71,-53.83,94.04,59.14,312.17,321.56,94.22,61.81,312.45,319.79,0.0
2018-08-18 11:09:00,89.55371,36.54457,1007.743,274.15,83.2,2.0,-5.79,4.48,-50.84,93.85,59.42,312.58,321.63,94.63,62.19,312.55,319.65,0.0
2018-08-18 11:09:00,89.55371,36.54458,1007.71,274.15,83.2,2.2,-5.43,5.02,-48.28,94.5,59.21,312.78,321.7,94.97,62.61,312.63,319.56,0.0
2018-08-18 11:09:00,89.55371,36.54459,1007.691,274.15,83.2,2.4,-5.9,5.89,-47.37,93.46,59.21,313.49,321.45,95.21,63.03,312.65,319.53,0.0
2018-08-18 11:09:00,89.55371,36.54459,1007.696,274.15,83.2,2.3,-5.06,5.89,-48.63,94.24,59.56,312.34,321.66,95.28,63.46,312.68,319.62,0.0
2018-08-18 11:09:00,89.55371,36.5446,1007.715,274.16,83.2,2.2,-5.28,6.51,-47.91,95.42,59.49,312.62,321.33,95.18,63.88,312.71,319.62,0.0
2018-08-18 11:09:00,89.55371,36.54461,1007.687,274.16,83.2,2.4,-5.43,5.24,-47.61,94.11,59.83,312.44,321.71,94.92,64.28,312.73,319.65,0.0
2018-08-18 11:09:00,89.55371,36.54461,1007.661,274.16,83.2,2.6,-6.45,5.5,-47.33,94.24,59.83,312.35,322.01,94.53,64.64,312.73,319.7,0.0
2018-08-18 11:09:00,89.55371,36.54462,1007.671,274.16,83.2,2.5,-7.92,6.68,-46.48,95.68,59.9,312.46,322.08,94.06,64.97,312.68,319.75,0.0
2018-08-18 11:09:00,89.55371,36.54463,1007.703,274.16,83.2,2.3,-8.46,5.41,-44.67,94.24,60.11,312.76,322.38,93.59,65.25,312.57,319.79,0.0
2018-08-18 11:09:00,89.55371,36.54463,1007.619,274.16,83.2,2.9,-9.33,6.76,-44.66,93.91,60.25,312.29,321.4,93.16,65.5,312.54,319.78,0.0
2018-08-18 11:09:00,89.55371,36.54463,1007.643,274.16,83.3,2.8,-8.36,5.8,-43.36,94.04,60.39,312.34,321.22,92.84,65.71,312.5,319.77,0.0
2018-08-18 11:09:00,89.55371,36.54463,1007.648,274.16,83.3,2.7,-8.32,5.66,-42.5,93.46,60.66,312.53,321.64,92.64,65.89,312.47,319.71,0.0
2018-08-18 11:09:00,89.55371,36.54463,1007.62,274.17,83.3,2.9,-7.72,5.7,-42.44,94.5,60.59,312.44,321.73,92.59,66.05,312.44,319.61,0.0
2018-08-18 11:09:00,89.55371,36.54463,1007.648,274.17,83.3,2.7,-5.88,4.89,-42.61,94.5,60.87,312.63,321.44,92.65,66.19,312.42,319.49,0.0
2018-08-18 11:09:00,89.55371,36.54463,1007.632,274.17,83.3,2.8,-9.14,5.82,-41.82,94.18,60.94,312.43,321.53,92.8,66.33,312.38,319.34,0.0
2018-08-18 11:09:00,89.55371,36.54463,1007.605,274.17,83.3,3.1,-8.85,5.32,-40.01,93.72,60.94,312.63,321.24,92.98,66.47,312.28,319.25,0.0
2018-08-18 11:09:00,89.55371,36.54463,1007.587,274.17,83.2,3.2,-9.65,5.75,-38.63,93.85,61.35,312.54,321.34,93.16,66.61,312.24,319.11,0.0
2018-08-18 11:09:00,89.55371,36.54463,1007.574,274.17,83.2,3.3,-11.22,5.94,-37.46,93.91,61.28,312.45,321.54,93.3,66.76,312.17,318.99,0.0
2018-08-18 11:09:00,89.55372,36.54463,1007.563,274.17,83.3,3.4,-12.79,5.69,-36.42,94.04,61.28,312.45,321.25,93.38,66.92,312.07,318.93,0.0
2018-08-18 11:09:00,89.55372,36.54463,1007.574,274.17,83.2,3.3,-13.73,6.41,-35.72,94.5,61.63,312.26,321.42,93.39,67.07,312.03,318.91,0.0
2018-08-18 11:09:00,89.55372,36.54463,1007.546,274.17,83.3,3.5,-12.28,5.93,-35.67,93.26,61.9,311.2,321.03,93.37,67.23,311.98,318.9,0.0
2018-08-18 11:09:00,89.55372,36.54463,1007.535,274.17,83.3,3.6,-13.37,5.89,-36.03,95.29,61.97,311.79,320.43,93.33,67.38,311.84,318.83,0.0
2018-08-18 11:09:00,89.55372,36.54463,1007.519,274.17,83.3,3.7,-13.7,5.58,-36.9,93.85,61.97,311.54,320.32,93.31,67.51,311.8,318.71,0.0
2018-08-18 11:09:00,89.55372,36.54464,1007.506,274.17,83.3,3.8,-13.28,4.99,-38.55,93.19,62.11,311.33,320.91,93.34,67.62,311.86,318.59,0.0
2018-08-18 11:09:00,89.55372,36.54464,1007.538,274.16,83.2,3.6,-13.63,4.44,-40.95,94.11,62.25,311.95,321.17,93.42,67.7,311.92,318.49,0.0
2018-08-18 11:09:00,89.55372,36.54464,1007.553,274.17,83.2,3.5,-14.43,3.53,-43.19,93.91,62.6,312.27,321.08,93.57,67.73,311.82,318.39,0.0
2018-08-18 11:09:00,89.55372,36.54464,1007.551,274.16,83.3,3.5,-14.58,3.05,-45.72,93.65,62.53,311.23,320.22,93.76,67.73,311.87,318.24,0.0
2018-08-18 11:09:00,89.55372,36.54465,1007.545,274.16,83.3,3.5,-14.06,2.35,-48.02,94.37,62.8,312.69,319.45,93.96,67.69,311.98,318.17,0.0
2018-08-18 11:09:00,89.55372,36.54465,1007.543,274.17,83.3,3.5,-13.69,1.56,-50.51,92.87,62.8,313.59,319.64,94.13,67.62,312.14,318.06,0.0
2018-08-18 11:09:00,89.55372,36.54465,1007.55,274.17,83.3,3.5,-14.04,0.87,-53.38,93.52,62.87,313.55,319.85,94.24,67.54,312.28,317.86,0.0
2018-08-18 11:09:00,89.55372,36.54466,1007.556,274.17,83.3,3.4,-14.7,0.07,-56.39,94.31,63.22,311.75,320.4,94.24,67.46,312.36,317.77,0.0
2018-08-18 11:09:00,89.55372,36.54466,1007.521,274.17,83.3,3.7,-13.82,-0.71,-59.38,94.9,63.08,312.03,319.43,94.14,67.41,312.44,317.72,0.0
2018-08-18 11:09:00,89.55372,36.54466,1007.504,274.17,83.3,3.8,-14.51,-2.09,-62.06,94.31,63.35,312.94,319.87,93.93,67.38,312.66,317.75,0.0
2018-08-18 11:09:00,89.55372,36.54467,1007.503,274.17,83.3,3.9,-15.7,-3.7,-64.35,93.72,63.28,313.18,319.73,93.63,67.41,312.76,317.81,0.0
2018-08-18 11:09:00,89.55372,36.54467,1007.507,274.16,83.3,3.8,-16.57,-4.76,-66.47,93.85,63.49,312.57,318.9,93.29,67.5,312.68,317.9,0.0
2018-08-18 11:09:00,89.55372,36.54467,1007.526,274.16,83.3,3.7,-16.92,-4.5,-68.72,93.65,63.63,312.44,319.95,92.95,67.65,312.55,317.99,0.0
2018-08-18 11:09:00,89.55372,36.54468,1007.502,274.17,83.3,3.9,-16.67,-5.27,-70.43,94.63,63.84,312.55,319.96,92.67,67.84,312.57,318.05,0.0
2018-08-18 11:09:00,89.55372,36.54468,1007.476,274.16,83.2,4.1,-17.11,-4.78,-72.17,93.39,63.56,313.01,319.55,92.48,68.07,312.54,318.17,0.0
2018-08-18 11:09:00,89.55372,36.54468,1007.456,274.16,83.2,4.2,-17.39,-4.59,-73.01,93.46,63.77,313.19,319.32,92.4,68.3,312.41,318.13,0.0
2018-08-18 11:09:00,89.55372,36.54468,1007.448,274.16,83.2,4.3,-17.31,-4.36,-73.46,93.52,63.77,312.41,319.76,92.45,68.51,312.25,318.14,0.0
2018-08-18 11:09:00,89.55372,36.54468,1007.452,274.16,83.2,4.3,-16.95,-3.61,-74.17,94.24,64.04,312.27,320.19,92.61,68.69,312.12,318.26,0.0
2018-08-18 11:09:00,89.55372,36.54468,1007.414,274.15,83.2,4.6,-16.46,-3.64,-74.61,93.13,64.39,312.46,320.18,92.84,68.8,312.07,318.17,0.0
2018-08-18 11:09:00,89.55372,36.54468,1007.437,274.15,83.2,4.4,-15.86,-3.03,-74.93,93.91,64.32,312.64,320.2,93.1,68.84,312.11,318.15,0.0
2018-08-18 11:09:00,89.55372,36.54468,1007.439,274.15,83.2,4.4,-15.43,-2.91,-74.59,93.85,64.73,312.64,319.27,93.34,68.8,311.99,318.14,0.0
2018-08-18 11:09:00,89.55372,36.54468,1007.432,274.15,83.2,4.4,-15.04,-2.7,-73.8,92.93,64.53,312.11,319.46,93.52,68.7,311.86,318.17,0.0
2018-08-18 11:09:00,89.55372,36.54469,1007.439,274.15,83.2,4.4,-14.66,-2.12,-72.62,94.18,64.73,312.03,320.02,93.61,68.56,311.84,318.22,0.0
2018-08-18 11:09:00,89.55372,36.54469,1007.413,274.15,83.3,4.6,-14.58,-2.21,-71.18,94.24,64.8,312.39,318.96,93.59,68.4,311.94,318.26,0.0
2018-08-18 11:09:00,89.55372,36.5447,1007.437,274.16,83.3,4.4,-13.36,-1.03,-69.95,93.52,64.73,312.71,319.88,93.48,68.25,312.09,318.35,0.0
2018-08-18 11:09:00,89.55372,36.54471,1007.414,274.15,83.2,4.6,-12.71,-0.05,-68.18,93.91,65.22,311.27,319.52,93.3,68.13,312.35,318.46,0.0
2018-08-18 11:09:00,89.55372,36.54472,1007.403,274.15,83.2,4.6,-12.24,0.19,-66.15,93.13,65.08,311.27,319.69,93.08,68.08,312.48,318.57,0.0
2018-08-18 11:09:00,89.55372,36.54473,1007.42,274.15,83.3,4.5,-11.81,0.03,-64.79,93.65,64.8,311.79,319.72,92.87,68.09,312.49,318.67,0.0
2018-08-18 11:09:00,89.55372,36.54474,1007.424,274.17,83.3,4.5,-11.38,0.09,-64.53,93.52,65.15,312.39,319.55,92.7,68.18,312.45,318.77,0.0
2018-08-18 11:09:00,89.55372,36.54475,1007.407,274.15,83.3,4.6,-10.85,-0.01,-61.9,93.06,65.15,312.87,320.23,92.61,68.32,312.27,318.93,0.0
2018-08-18 11:09:00,89.55372,36.54476,1007.392,274.15,83.3,4.7,-10.61,0.28,-60.11,94.31,65.29,314.06,320.26,92.62,68.51,312.06,318.89,0.0
2018-08-18 11:09:00,89.55372,36.54477,1007.398,274.15,83.3,4.7,-10.71,0.52,-57.99,93.85,65.42,312.83,319.71,92.73,68.72,311.95,318.95,0.0
2018-08-18 11:09:00,89.55372,36.54478,1007.42,274.15,83.2,4.5,-10.56,0.75,-55.18,93.46,65.15,311.78,319.42,92.93,68.92,311.9,319.0,0.0
2018-08-18 11:09:00,89.55372,36.54478,1007.396,274.16,83.3,4.7,-9.47,1.1,-52.82,93.78,65.56,311.17,320.87,93.19,69.08,311.84,318.95,0.0
2018-08-18 11:09:00,89.55372,36.54479,1007.41,274.16,83.3,4.6,-8.45,1.09,-52.57,92.67,65.77,310.67,320.72,93.48,69.2,311.75,318.93,0.0
2018-08-18 11:09:00,89.55372,36.5448,1007.384,274.17,83.3,4.8,-8.08,1.05,-52.3,93.72,65.91,311.04,320.04,93.77,69.26,311.68,318.92,0.0
2018-08-18 11:09:00,89.55372,36.54482,1007.363,274.16,83.3,5.0,-7.48,1.11,-52.19,93.13,65.91,310.77,320.68,94.03,69.26,311.47,319.02,0.0
2018-08-18 11:09:00,89.55372,36.54483,1007.367,274.16,83.3,4.9,-6.26,1.12,-52.21,93.46,65.98,311.09,320.26,94.24,69.21,311.37,319.24,0.0
2018-08-18 11:09:00,89.55372,36.54484,1007.371,274.16,83.3,4.9,-5.17,1.13,-51.98,93.26,66.05,311.36,319.52,94.37,69.12,311.4,319.4,0.0
2018-08-18 11:09:00,89.55372,36.54486,1007.302,274.17,83.3,5.4,-5.31,1.3,-51.18,94.31,65.98,311.55,319.62,94.44,69.02,311.45,319.38,0.0
2018-08-18 11:09:00,89.55372,36.54487,1007.335,274.17,83.3,5.2,-4.58,1.07,-51.36,94.31,66.18,311.88,319.41,94.43,68.93,311.6,319.48,0.0
2018-08-18 11:09:00,89.55372,36.54489,1007.31,274.17,83.3,5.4,-4.48,1.4,-51.34,92.08,66.11,311.27,320.68,94.36,68.86,311.75,319.52,0.0
2018-08-18 11:09:00,89.55372,36.5449,1007.287,274.17,83.3,5.6,-4.11,1.61,-51.49,94.37,66.39,311.38,320.89,94.24,68.81,311.86,319.48,0.0
2018-08-18 11:09:00,89.55372,36.54492,1007.272,274.17,83.3,5.7,-4.06,1.34,-51.86,93.72,66.25,311.0,320.4,94.06,68.8,311.93,319.4,0.0
2018-08-18 11:09:00,89.55372,36.54493,1007.242,274.17,83.3,5.9,-4.48,0.82,-52.53,93.65,66.39,310.86,319.21,93.85,68.82,311.97,319.3,0.0
2018-08-18 11:09:00,89.55372,36.54494,1007.264,274.17,83.3,5.7,-2.79,2.02,-53.97,95.09,66.46,311.58,320.7,93.59,68.86,311.99,319.16,0.0
2018-08-18 11:09:00,89.55372,36.54496,1007.268,274.17,83.3,5.7,-2.19,1.99,-54.81,93.06,66.46,312.21,319.58,93.3,68.91,311.95,319.02,0.0
2018-08-18 11:09:00,89.55372,36.54497,1007.253,274.17,83.3,5.8,-3.31,2.16,-54.99,93.13,66.6,311.7,320.0,92.98,68.96,311.96,318.78,0.0
2018-08-18 11:09:00,89.55372,36.54498,1007.247,274.17,83.3,5.9,-4.02,2.51,-55.07,93.59,66.6,311.85,320.01,92.65,69.0,311.99,318.56,0.0
2018-08-18 11:09:00,89.55372,36.54499,1007.261,274.17,83.3,5.8,-3.45,2.92,-55.42,92.8,66.74,312.36,319.34,92.31,69.03,312.05,318.44,0.0
2018-08-18 11:09:00,89.55372,36.545,1007.245,274.17,83.3,5.9,-2.92,3.35,-56.05,93.72,66.74,312.45,319.63,92.0,69.04,312.15,318.45,0.0
2018-08-18 11:09:00,89.55372,36.54501,1007.24,274.17,83.3,5.9,-5.26,3.82,-56.74,93.98,66.94,312.54,319.43,91.75,69.04,312.22,318.4,0.0
2018-08-18 11:09:00,89.55372,36.54502,1007.25,274.17,83.3,5.8,-4.99,3.51,-57.76,93.98,66.81,312.44,319.43,91.6,69.03,312.12,318.44,0.0
2018-08-18 11:09:00,89.55372,36.54503,1007.239,274.17,83.3,5.9,-4.22,3.58,-58.83,93.52,66.94,312.44,319.25,91.57,69.02,312.1,318.45,0.0
2018-08-18 11:09:00,89.55372,36.54504,1007.215,274.17,83.3,6.1,-4.11,4.0,-59.77,92.87,66.94,312.54,319.54,91.69,69.01,312.13,318.54,0.0
2018-08-18 11:09:00,89.55372,36.54505,1007.225,274.16,83.3,6.0,-4.91,4.17,-60.53,94.11,67.01,312.44,319.23,91.97,69.02,312.06,318.76,0.0
2018-08-18 11:09:00,89.55372,36.54506,1007.219,274.17,83.3,6.1,-4.42,3.93,-61.21,92.74,67.01,312.33,319.34,92.41,69.05,311.96,318.92,0.0
2018-08-18 11:09:00,89.55372,36.54507,1007.208,274.17,83.3,6.2,-5.44,3.76,-61.47,94.04,67.22,311.17,318.54,92.99,69.09,311.96,318.91,0.0
2018-08-18 11:09:00,89.55372,36.54508,1007.211,274.17,83.3,6.2,-6.66,3.77,-61.63,91.69,67.15,311.44,318.56,93.65,69.14,311.96,318.83,0.0
2018-08-18 11:09:00,89.55372,36.54509,1007.217,274.17,83.3,6.1,-7.21,3.81,-61.86,92.67,66.94,311.86,319.24,94.36,69.19,311.91,318.75,0.0
2018-08-18 11:09:00,89.55372,36.5451,1007.2,274.17,83.3,6.2,-7.16,3.63,-62.36,93.78,67.36,311.2,320.48,95.05,69.23,311.79,318.66,0.0
2018-08-18 11:09:00,89.55372,36.5451,1007.175,274.16,83.3,6.4,-8.33,3.05,-63.26,93.06,67.36,310.59,320.48,95.65,69.26,311.63,318.52,0.0
2018-08-18 11:09:00,89.55372,36.5451,1007.204,274.17,83.3,6.2,-8.4,3.4,-63.89,93.65,67.5,312.13,318.88,96.12,69.27,311.51,318.47,0.0
2018-08-18 11:09:00,89.55372,36.5451,1007.197,274.17,83.3,6.3,-6.98,3.34,-65.0,94.63,67.43,312.54,319.04,96.41,69.24,311.53,318.43,0.0
2018-08-18 11:09:00,89.55372,36.5451,1007.188,274.17,83.3,6.3,-7.0,2.69,-66.04,92.87,67.43,312.04,319.56,96.5,69.18,311.51,318.5,0.0
2018-08-18 11:09:00,89.55373,36.54511,1007.192,274.17,83.3,6.3,-8.66,1.99,-66.81,93.52,67.56,311.15,319.95,96.39,69.1,311.5,318.59,0.0
2018-08-18 11:09:00,89.55373,36.54511,1007.165,274.17,83.3,6.5,-9.82,2.14,-67.5,94.9,67.43,311.02,319.33,96.1,68.98,311.6,318.63,0.0
2018-08-18 11:09:00,89.55373,36.54511,1007.181,274.17,83.3,6.4,-9.45,1.52,-69.07,93.26,67.63,311.38,320.21,95.68,68.85,311.64,318.73,0.0
2018-08-18 11:09:00,89.55373,36.54511,1007.154,274.17,83.3,6.6,-10.86,1.11,-70.78,93.59,67.56,311.46,319.1,95.15,68.71,311.56,318.97,0.0
2018-08-18 11:09:00,89.55373,36.54511,1007.145,274.17,83.3,6.7,-12.43,0.64,-72.43,93.85,67.7,311.29,319.77,94.58,68.57,311.51,319.21,0.0
2018-08-18 11:09:00,89.55373,36.54511,1007.156,274.17,83.3,6.6,-13.88,0.18,-74.09,94.83,67.63,312.04,320.57,94.02,68.44,311.53,319.32,0.0
2018-08-18 11:09:00,89.55373,36.54511,1007.139,274.17,83.3,6.7,-15.33,-0.11,-75.96,94.83,67.56,312.5,320.0,93.5,68.32,311.62,319.32,0.0
2018-08-18 11:09:00,89.55373,36.54511,1007.106,274.17,83.3,7.0,-16.7,-0.32,-78.68,94.11,67.84,311.56,320.18,93.06,68.22,311.75,319.33,0.0
2018-08-18 11:09:00,89.55373,36.54511,1007.114,274.17,83.3,6.9,-16.75,-0.71,-79.38,92.41,67.7,311.44,320.34,92.71,68.15,311.87,319.23,0.0
2018-08-18 11:09:00,89.55373,36.54511,1007.116,274.17,83.3,6.9,-17.26,-0.66,-80.35,91.82,67.77,312.05,320.45,92.46,68.09,311.95,319.14,0.0
2018-08-18 11:09:00,89.55373,36.54511,1007.108,274.17,83.3,7.0,-17.39,-0.75,-81.64,94.5,67.56,312.43,318.97,92.32,68.06,312.03,319.07,0.0
2018-08-18 11:09:00,89.55373,36.54511,1007.1,274.17,83.3,7.0,-16.98,-1.09,-82.83,94.7,67.77,312.26,318.86,92.26,68.04,312.09,318.99,0.0
2018-08-18 11:09:00,89.55373,36.54511,1007.107,274.17,83.3,7.0,-17.24,-0.99,-83.2,94.11,67.56,312.56,318.84,92.28,68.04,312.09,318.85,0.0
2018-08-18 11:09:00,89.55373,36.54511,1007.062,274.17,83.3,7.3,-18.05,-1.16,-83.31,94.11,67.77,312.92,318.97,92.37,68.05,312.19,318.81,0.0
2018-08-18 11:09:00,89.55373,36.54511,1007.06,274.17,83.3,7.3,-18.8,-1.24,-83.31,93.26,67.56,312.3,318.37,92.52,68.07,312.31,318.73,0.0
2018-08-18 11:09:00,89.55373,36.54511,1007.058,274.17,83.3,7.4,-19.25,-1.35,-82.82,92.93,67.84,312.0,318.93,92.74,68.1,312.33,318.62,0.0
2018-08-18 11:09:00,89.55373,36.54511,1007.038,274.16,83.3,7.5,-19.5,-1.42,-82.08,93.72,67.77,312.41,319.68,93.01,68.13,312.29,318.56,0.0
2018-08-18 11:09:00,89.55373,36.54511,1007.029,274.15,83.3,7.6,-19.82,-1.34,-81.64,94.04,67.84,312.48,318.92,93.35,68.16,312.28,318.59,0.0
2018-08-18 11:09:00,89.55373,36.5451,1007.045,274.16,83.3,7.5,-20.22,-1.51,-80.84,93.19,67.91,312.67,320.1,93.73,68.2,312.27,318.63,0.0
2018-08-18 11:09:00,89.55373,36.54511,1007.049,274.17,83.3,7.4,-19.79,-1.28,-79.63,93.13,67.56,312.67,319.41,94.17,68.23,312.19,318.8,0.0
2018-08-18 11:09:00,89.55373,36.54513,1007.05,274.17,83.2,7.4,-19.69,-0.98,-78.41,92.87,67.84,311.85,318.65,94.63,68.27,312.15,319.01,0.0
2018-08-18 11:09:00,89.55373,36.54514,1007.052,274.16,83.2,7.4,-19.66,-0.53,-77.16,94.04,67.7,311.82,318.37,95.09,68.3,312.1,319.15,0.0
2018-08-18 11:09:00,89.55373,36.54516,1007.058,274.16,83.3,7.4,-18.96,0.22,-75.77,93.72,67.84,312.35,318.76,95.51,68.33,312.04,319.23,0.0
2018-08-18 11:09:00,89.55373,36.54517,1007.068,274.17,83.3,7.3,-17.72,1.23,-74.63,93.98,67.84,312.33,318.89,95.85,68.36,312.0,319.38,0.0
2018-08-18 11:09:00,89.55373,36.54518,1007.033,274.17,83.3,7.6,-17.29,2.05,-72.89,93.65,67.84,311.72,320.01,96.07,68.39,311.95,319.41,0.0
2018-08-18 11:09:00,89.55373,36.5452,1007.016,274.17,83.3,7.7,-16.71,2.97,-71.51,93.72,67.91,311.58,320.61,96.13,68.42,311.91,319.47,0.0
2018-08-18 11:09:00,89.55373,36.54521,1007.001,274.17,83.3,7.8,-16.39,3.98,-69.31,94.24,67.84,311.68,320.54,96.03,68.44,311.93,319.44,0.0
2018-08-18 11:09:00,89.55373,36.54523,1006.976,274.16,83.3,8.0,-16.52,5.1,-66.05,94.5,67.98,311.41,320.54,95.74,68.45,311.94,319.37,0.0
2018-08-18 11:09:00,89.55373,36.54524,1006.971,274.17,83.3,8.0,-16.96,6.35,-62.55,93.98,67.77,311.4,320.5,95.29,68.45,311.88,319.37,0.0
2018-08-18 11:09:00,89.55373,36.54526,1006.979,274.16,83.3,8.0,-15.56,7.87,-58.58,93.65,67.98,311.33,320.47,94.71,68.43,311.8,319.35,0.0
2018-08-18 11:09:00,89.55373,36.54527,1006.979,274.16,83.3,8.0,-14.6,9.22,-54.92,94.7,67.84,311.56,319.91,94.07,68.39,311.76,319.16,0.0
2018-08-18 11:09:00,89.55373,36.54528,1006.972,274.16,83.3,8.0,-14.45,10.43,-51.05,93.65,68.12,311.59,318.24,93.42,68.34,311.72,318.92,0.0
2018-08-18 11:09:00,89.55373,36.5453,1006.963,274.16,83.3,8.1,-14.23,11.35,-47.1,93.32,67.77,311.63,317.64,92.84,68.27,311.68,318.66,0.0
2018-08-18 11:09:00,89.55373,36.54532,1006.957,274.16,83.3,8.2,-13.13,11.91,-43.27,94.83,68.05,311.59,318.89,92.4,68.18,311.66,318.41,0.0
2018-08-18 11:09:00,89.55373,36.54534,1006.932,274.16,83.3,8.4,-12.44,12.65,-39.36,93.85,67.98,311.42,318.98,92.17,68.08,311.68,318.16,0.0
2018-08-18 11:09:00,89.55373,36.54536,1006.93,274.17,83.3,8.4,-11.37,13.16,-35.34,93.32,68.05,311.66,318.83,92.17,67.98,311.74,317.96,0.0
2018-08-18 11:09:00,89.55373,36.54538,1006.93,274.16,83.3,8.4,-10.26,13.36,-35.31,94.63,68.05,311.85,318.47,92.4,67.88,311.76,317.81,0.0
2018-08-18 11:09:00,89.55373,36.54539,1006.908,274.16,83.3,8.5,-9.85,13.22,-36.58,93.98,67.91,311.5,318.65,92.85,67.8,311.74,317.92,0.0
2018-08-18 11:09:00,89.55373,36.54541,1006.866,274.17,83.3,8.9,-10.12,12.87,-37.61,93.06,67.84,311.82,318.57,93.45,67.74,311.74,318.19,0.0
2018-08-18 11:09:00,89.55373,36.54543,1006.86,274.16,83.3,8.9,-10.02,12.6,-39.21,93.39,67.84,312.15,318.47,94.13,67.7,311.78,318.36,0.0
2018-08-18 11:09:00,89.55373,36.54545,1006.835,274.16,83.3,9.1,-9.73,12.01,-40.97,93.39,68.05,312.41,318.37,94.8,67.7,311.87,318.45,0.0
2018-08-18 11:09:00,89.55373,36.54547,1006.832,274.16,83.3,9.1,-10.22,11.63,-43.07,94.44,67.91,311.94,318.75,95.38,67.73,311.94,318.5,0.0
2018-08-18 11:09:00,89.55373,36.54549,1006.845,274.16,83.3,9.0,-10.24,11.0,-45.67,93.52,67.91,311.6,319.18,95.77,67.78,311.99,318.48,0.0
2018-08-18 11:09:00,89.55373,36.5455,1006.856,274.17,83.3,9.0,-10.09,10.25,-48.36,93.46,67.91,311.15,320.16,95.93,67.85,312.04,318.45,0.0
2018-08-18 11:09:00,89.55373,36.54552,1006.841,274.16,83.3,9.1,-10.74,9.75,-50.7,94.24,67.91,311.67,319.97,95.84,67.93,312.07,318.47,0.0
2018-08-18 11:09:00,89.55373,36.54554,1006.822,274.16,83.3,9.2,-11.22,9.42,-52.83,93.65,68.12,312.28,318.13,95.5,68.01,312.05,318.45,0.0
2018-08-18 11:09:00,89.55373,36.54555,1006.821,274.16,83.3,9.2,-11.03,8.77,-55.06,94.63,67.63,312.11,317.6,94.97,68.07,312.01,318.41,0.0
2018-08-18 11:09:00,89.55373,36.54556,1006.826,274.16,83.3,9.2,-11.35,8.02,-57.46,94.31,67.91,312.21,317.05,94.31,68.12,312.02,318.34,0.0
2018-08-18 11:09:00,89.55373,36.54558,1006.822,274.17,83.3,9.2,-11.82,7.23,-60.16,94.63,67.91,312.44,317.29,93.63,68.15,312.06,318.2,0.0
2018-08-18 11:09:00,89.55373,36.54559,1006.803,274.17,83.3,9.4,-12.16,6.52,-62.91,94.44,68.05,312.54,318.48,93.01,68.15,312.09,318.02,0.0
2018-08-18 11:09:00,89.55373,36.5456,1006.797,274.16,83.3,9.4,-13.49,6.08,-65.12,95.29,67.98,312.26,318.58,92.54,68.13,312.1,317.98,0.0
2018-08-18 11:09:00,89.55373,36.54562,1006.785,274.16,83.3,9.5,-13.38,5.29,-67.55,93.32,67.91,312.54,318.47,92.29,68.09,312.2,318.11,0.0
2018-08-18 11:09:00,89.55373,36.54563,1006.791,274.17,83.3,9.5,-13.79,4.67,-70.04,92.34,68.05,312.35,318.77,92.28,68.04,312.24,318.34,0.0
2018-08-18 11:09:00,89.55373,36.54565,1006.808,274.17,83.3,9.3,-14.33,3.85,-72.69,94.7,67.98,312.04,318.38,92.52,67.99,312.21,318.66,0.0
2018-08-18 11:09:00,89.55373,36.54566,1006.814,274.16,83.2,9.3,-14.4,2.93,-75.37,92.87,67.98,311.64,319.11,92.95,67.94,312.16,318.98,0.0
2018-08-18 11:09:00,89.55373,36.54568,1006.773,274.16,83.3,9.6,-13.38,2.45,-77.91,93.06,67.91,311.66,319.82,93.53,67.9,312.08,319.2,0.0
2018-08-18 11:09:00,89.55373,36.5457,1006.804,274.17,83.3,9.4,-13.38,2.15,-80.45,93.72,67.98,312.93,320.15,94.16,67.87,311.99,319.4,0.0
2018-08-18 11:09:00,89.55373,36.54573,1006.776,274.17,83.3,9.6,-13.55,1.69,-82.86,94.44,67.84,312.08,320.17,94.76,67.84,311.83,319.57,0.0
2018-08-18 11:09:00,89.55373,36.54576,1006.763,274.17,83.3,9.7,-13.14,1.41,-85.28,93.59,68.05,311.64,320.36,95.26,67.8,311.72,319.61,0.0
2018-08-18 11:09:00,89.55373,36.5458,1006.777,274.17,83.3,9.6,-12.92,1.06,-87.45,95.22,67.84,311.62,320.24,95.59,67.75,311.69,319.55,0.0
2018-08-18 11:09:00,89.55373,36.54583,1006.78,274.17,83.3,9.6,-13.61,0.4,-89.23,93.85,67.98,311.55,320.12,95.72,67.68,311.68,319.44,0.0
2018-08-18 11:09:00,89.55373,36.54586,1006.744,274.16,83.3,9.8,-13.69,0.32,-90.63,93.52,67.84,311.6,320.19,95.64,67.58,311.64,319.25,0.0
2018-08-18 11:09:00,89.55373,36.54589,1006.718,274.16,83.3,10.0,-13.42,-0.27,-91.7,94.44,68.05,311.07,319.79,95.37,67.46,311.49,319.08,0.0
2018-08-18 11:09:00,89.55373,36.54592,1006.722,274.16,83.2,10.0,-13.63,-0.88,-92.4,93.72,67.98,311.86,319.09,94.95,67.32,311.43,318.93,0.0
2018-08-18 11:09:00,89.55373,36.54595,1006.738,274.16,83.2,9.9,-13.68,-1.34,-93.23,94.76,67.91,312.63,318.27,94.45,67.16,311.43,318.76,0.0
2018-08-18 11:09:00,89.55373,36.54598,1006.743,274.16,83.2,9.8,-13.36,-1.53,-94.23,94.11,67.91,312.18,318.46,93.91,67.02,311.46,318.52,0.0
2018-08-18 11:09:00,89.55373,36.54602,1006.733,274.16,83.3,9.9,-13.24,-1.42,-94.87,94.11,67.7,311.52,318.89,93.4,66.9,311.47,318.22,0.0
2018-08-18 11:09:00,89.55373,36.54605,1006.732,274.16,83.2,9.9,-12.99,-1.03,-95.92,93.46,67.84,311.64,319.29,92.96,66.82,311.44,317.99,0.0
2018-08-18 11:09:00,89.55373,36.54608,1006.716,274.16,83.3,10.1,-12.97,-1.03,-96.72,93.72,67.91,311.34,319.59,92.62,66.79,311.5,317.83,0.0
2018-08-18 11:09:00,89.55373,36.54611,1006.702,274.16,83.3,10.2,-12.84,-0.89,-97.25,94.63,67.84,311.71,318.69,92.4,66.82,311.52,317.81,0.0
2018-08-18 11:09:00,89.55373,36.54614,1006.697,274.17,83.3,10.2,-12.34,-0.46,-97.63,94.11,67.63,311.46,317.79,92.3,66.91,311.48,317.88,0.0
2018-08-18 11:09:00,89.55373,36.54618,1006.688,274.17,83.3,10.3,-11.42,0.15,-98.0,93.85,67.63,311.18,316.72,92.33,67.04,311.43,317.93,0.0
2018-08-18 11:09:00,89.55373,36.54619,1006.678,274.17,83.3,10.4,-10.94,0.5,-97.79,94.24,67.56,310.92,317.07,92.46,67.19,311.44,317.93,0.0
2018-08-18 11:09:00,89.55373,36.5462,1006.663,274.17,83.3,10.5,-10.82,1.07,-94.63,93.52,67.63,311.51,317.21,92.68,67.35,311.37,317.85,0.0
2018-08-18 11:09:00,89.55373,36.54621,1006.669,274.17,83.3,10.4,-10.0,1.53,-92.17,93.39,67.77,311.86,317.85,92.96,67.49,311.43,317.72,0.0
2018-08-18 11:09:00,89.55373,36.54621,1006.674,274.17,83.3,10.4,-8.92,1.87,-89.86,93.85,67.56,312.16,318.09,93.3,67.59,311.54,317.63,0.0
2018-08-18 11:09:00,89.55373,36.54622,1006.643,274.17,83.3,10.6,-8.11,2.34,-86.59,93.13,67.7,312.35,318.08,93.67,67.63,311.63,317.65,0.0
2018-08-18 11:09:00,89.55373,36.54623,1006.64,274.17,83.3,10.7,-7.03,3.57,-83.56,94.9,67.77,312.44,318.47,94.05,67.6,311.77,317.77,0.0
2018-08-18 11:09:00,89.55373,36.54624,1006.634,274.17,83.3,10.7,-5.56,4.14,-80.69,93.19,67.77,311.55,318.27,94.42,67.52,311.97,317.88,0.0
2018-08-18 11:09:00,89.55373,36.54624,1006.619,274.16,83.3,10.8,-5.01,4.59,-78.75,93.52,67.63,312.42,318.18,94.75,67.38,312.21,318.03,0.0
2018-08-18 11:09:00,89.55373,36.54625,1006.606,274.16,83.3,10.9,-4.19,4.88,-76.9,93.26,67.7,312.93,317.91,95.01,67.23,312.37,318.14,0.0
2018-08-18 11:09:00,89.55373,36.54626,1006.6,274.16,83.3,11.0,-3.07,5.18,-74.62,94.04,67.77,312.26,318.29,95.19,67.07,312.43,318.19,0.0
2018-08-18 11:09:00,89.55373,36.54627,1006.579,274.16,83.3,11.1,-2.79,5.87,-71.68,94.76,67.77,312.35,318.19,95.26,66.94,312.48,318.2,0.0
2018-08-18 11:09:00,89.55373,36.54628,1006.579,274.16,83.3,11.1,-2.5,5.98,-68.7,94.31,67.77,312.34,318.48,95.2,66.85,312.64,318.24,0.0
2018-08-18 11:09:00,89.55373,36.54629,1006.575,274.16,83.3,11.2,-1.62,6.15,-65.28,94.24,67.5,313.16,319.22,95.02,66.83,312.84,318.33,0.0
2018-08-18 11:09:00,89.55373,36.5463,1006.559,274.16,83.3,11.3,-0.69,6.17,-61.97,93.32,67.43,312.68,319.23,94.73,66.87,312.86,318.39,0.0
2018-08-18 11:09:00,89.55373,36.5463,1006.546,274.16,83.3,11.4,0.2,6.11,-59.39,94.04,67.36,311.89,318.0,94.34,66.96,312.82,318.45,0.0
2018-08-18 11:09:00,89.55373,36.54631,1006.563,274.16,83.3,11.3,1.15,6.08,-57.66,94.24,67.43,311.9,318.0,93.9,67.09,312.87,318.56,0.0
2018-08-18 11:09:00,89.55373,36.54632,1006.54,274.16,83.3,11.4,1.8,5.53,-55.48,93.26,67.5,313.48,317.88,93.44,67.25,312.95,318.68,0.0
2018-08-18 11:09:00,89.55373,36.54633,1006.518,274.16,83.3,11.6,1.92,5.69,-54.01,94.31,67.63,313.6,319.1,93.0,67.39,313.06,318.77,0.0
2018-08-18 11:09:00,89.55373,36.54634,1006.526,274.16,83.3,11.6,3.39,5.42,-53.26,94.04,67.56,312.78,318.63,92.64,67.51,313.01,318.79,0.0
2018-08-18 11:09:00,89.55373,36.54635,1006.526,274.16,83.3,11.6,4.46,5.07,-52.86,94.9,67.63,312.76,318.52,92.38,67.58,312.98,318.81,0.0
2018-08-18 11:09:00,89.55373,36.54636,1006.482,274.16,83.3,11.9,4.23,4.77,-52.58,94.63,67.56,313.41,319.59,92.23,67.6,313.04,318.86,0.0
2018-08-18 11:09:00,89.55373,36.54637,1006.483,274.17,83.3,11.9,4.71,3.89,-52.41,93.19,67.43,313.47,319.73,92.2,67.57,313.1,318.95,0.0
2018-08-18 11:09:00,89.55373,36.54631,1006.455,274.16,83.3,12.1,4.23,3.38,-52.87,93.19,67.7,313.73,319.2,92.28,67.51,312.98,318.97,0.0
2018-08-18 11:09:00,89.55374,36.54625,1006.463,274.17,83.3,12.1,4.26,3.36,-53.55,93.32,67.5,312.57,319.4,92.44,67.43,312.98,319.01,0.0
2018-08-18 11:09:00,89.55374,36.54619,1006.471,274.17,83.3,12.0,4.01,3.27,-54.38,92.8,67.56,312.24,319.12,92.65,67.35,313.02,319.04,0.0
2018-08-18 11:09:00,89.55374,36.54614,1006.455,274.16,83.3,12.1,3.85,3.02,-55.32,94.24,67.56,312.53,318.97,92.87,67.29,313.01,319.0,0.0
2018-08-18 11:09:00,89.55374,36.54608,1006.419,274.16,83.3,12.4,4.72,2.81,-56.36,93.13,67.56,312.25,318.8,93.07,67.26,312.93,318.91,0.0
2018-08-18 11:09:00,89.55374,36.54602,1006.424,274.15,83.3,12.4,6.55,3.22,-57.49,94.04,67.5,311.41,318.21,93.21,67.28,312.91,318.87,0.0
2018-08-18 11:09:00,89.55374,36.54596,1006.433,274.15,83.3,12.3,7.58,3.25,-58.41,95.42,67.43,313.17,318.91,93.29,67.34,312.72,318.77,0.0
2018-08-18 11:09:00,89.55374,36.5459,1006.441,274.15,83.3,12.2,8.3,3.53,-59.62,93.91,67.43,312.97,318.8,93.29,67.43,312.64,318.64,0.0
2018-08-18 11:09:00,89.55374,36.54584,1006.446,274.16,83.3,12.2,8.83,3.89,-60.64,93.13,67.5,312.2,318.33,93.22,67.54,312.69,318.59,0.0
2018-08-18 11:09:00,89.55374,36.54578,1006.442,274.16,83.3,12.2,8.94,4.14,-61.26,91.95,67.56,312.54,319.02,93.11,67.65,312.77,318.6,0.0
2018-08-18 11:09:00,89.55374,36.54572,1006.443,274.15,83.3,12.2,7.62,4.52,-63.1,94.04,67.36,313.69,319.52,92.97,67.75,312.79,318.55,0.0
2018-08-18 11:09:00,89.55374,36.54567,1006.45,274.16,83.3,12.2,7.25,4.94,-64.48,93.13,67.5,311.98,318.59,92.83,67.81,312.98,318.69,0.0
2018-08-18 11:09:00,89.55374,36.54564,1006.44,274.15,83.3,12.2,6.1,5.38,-66.34,94.83,67.56,312.19,318.46,92.72,67.83,312.95,318.66,0.0
2018-08-18 11:09:00,89.55374,36.5456,1006.429,274.15,83.3,12.3,4.68,5.82,-68.48,93.52,67.7,313.01,318.52,92.65,67.81,312.9,318.57,0.0
2018-08-18 11:09:00,89.55374,36.54556,1006.431,274.15,83.3,12.3,3.27,5.84,-70.94,93.85,67.56,313.51,319.12,92.63,67.75,312.91,318.5,0.0
2018-08-18 11:09:00,89.55374,36.54553,1006.44,274.15,83.3,12.2,1.82,4.87,-73.71,92.6,67.56,312.46,318.39,92.68,67.65,312.92,318.48,0.0
2018-08-18 11:09:00,89.55374,36.54549,1006.398,274.15,83.3,12.6,0.48,6.04,-75.22,93.52,67.63,313.61,319.5,92.79,67.54,312.92,318.44,0.0
2018-08-18 11:09:00,89.55374,36.54545,1006.402,274.15,83.3,12.5,0.83,6.65,-77.17,93.59,67.56,312.66,318.48,92.93,67.42,313.07,318.44,0.0
2018-08-18 11:09:00,89.55375,36.54542,1006.396,274.15,83.3,12.6,0.96,6.99,-79.12,93.72,67.56,312.44,317.58,93.11,67.3,313.16,318.48,0.0
2018-08-18 11:09:00,89.55375,36.54538,1006.383,274.15,83.3,12.7,0.72,7.05,-80.88,93.46,67.43,312.54,317.17,93.28,67.19,313.17,318.47,0.0
2018-08-18 11:09:00,89.55375,36.54534,1006.42,274.15,83.3,12.4,0.4,6.81,-82.42,93.39,67.63,312.75,318.36,93.45,67.09,313.18,318.43,0.0
2018-08-18 11:09:00,89.55375,36.54531,1006.419,274.15,83.3,12.4,-1.11,7.04,-84.45,93.32,67.36,313.68,318.98,93.58,67.01,313.28,318.46,0.0
2018-08-18 11:09:00,89.55375,36.54527,1006.427,274.15,83.3,12.3,-0.78,6.79,-87.28,93.19,67.56,313.87,319.11,93.67,66.95,313.18,318.31,0.0
2018-08-18 11:09:00,89.55375,36.54524,1006.424,274.15,83.3,12.4,-0.78,6.65,-89.15,93.39,67.43,313.43,319.17,93.69,66.89,313.16,318.24,0.0
2018-08-18 11:09:00,89.55375,36.54525,1006.412,274.16,83.3,12.5,-0.69,6.66,-90.6,93.52,67.36,313.52,319.33,93.66,66.83,313.18,318.31,0.0
2018-08-18 11:09:00,89.55375,36.54525,1006.396,274.15,83.3,12.6,-0.16,6.64,-91.95,93.65,67.63,313.74,319.58,93.57,66.77,313.21,318.45,0.0
2018-08-18 11:09:00,89.55375,36.54526,1006.365,274.15,83.3,12.8,0.38,6.35,-92.87,93.59,67.36,313.82,319.41,93.42,66.72,313.23,318.58,0.0
2018-08-18 11:09:00,89.55375,36.54526,1006.366,274.15,83.3,12.8,-0.1,7.31,-92.89,93.06,67.56,312.53,318.47,93.23,66.66,313.12,318.68,0.0
2018-08-18 11:09:00,89.55375,36.54527,1006.361,274.14,83.3,12.9,-0.04,7.57,-92.61,95.09,67.43,312.53,317.87,93.02,66.61,313.03,318.72,0.0
2018-08-18 11:09:00,89.55375,36.54527,1006.349,274.14,83.3,12.9,0.13,7.67,-92.69,92.47,67.5,312.44,318.0,92.81,66.57,313.01,318.72,0.0
2018-08-18 11:09:00,89.55375,36.54528,1006.335,274.15,83.3,13.1,0.24,7.78,-93.02,93.78,67.36,312.52,318.43,92.61,66.52,312.93,318.72,0.0
2018-08-18 11:09:00,89.55375,36.54528,1006.325,274.14,83.2,13.1,0.29,7.77,-93.1,93.06,67.08,312.57,318.76,92.46,66.49,312.73,318.68,0.0
2018-08-18 11:09:00,89.55375,36.54529,1006.328,274.14,83.2,13.1,-0.88,7.81,-92.8,93.13,67.08,312.41,319.26,92.37,66.46,312.53,318.64,0.0
2018-08-18 11:09:00,89.55375,36.54529,1006.328,274.14,83.2,13.1,-1.5,7.81,-92.46,93.13,67.29,313.12,318.47,92.37,66.43,312.46,318.68,0.0
2018-08-18 11:09:00,89.55375,36.5453,1006.312,274.14,83.2,13.2,-1.74,7.79,-92.04,93.46,67.36,313.85,318.77,92.47,66.4,312.43,318.7,0.0
2018-08-18 11:09:00,89.55375,36.5453,1006.289,274.14,83.3,13.4,-1.97,7.67,-91.33,93.72,67.43,313.39,318.93,92.68,66.36,312.44,318.69,0.0
2018-08-18 11:09:00,89.55375,36.5453,1006.277,274.15,83.2,13.5,-2.07,7.52,-90.26,93.13,67.22,312.35,318.8,92.99,66.31,312.45,318.68,0.0
2018-08-18 11:09:00,89.55375,36.54531,1006.275,274.14,83.2,13.5,-3.24,7.88,-89.07,93.39,67.15,312.62,319.08,93.39,66.26,312.43,318.66,0.0
2018-08-18 11:09:00,89.55375,36.54531,1006.284,274.14,83.2,13.5,-2.94,7.88,-87.94,93.19,67.36,312.44,319.14,93.86,66.21,312.5,318.62,0.0
2018-08-18 11:09:00,89.55375,36.54533,1006.263,274.14,83.2,13.6,-2.63,8.16,-86.43,92.93,67.01,312.35,318.23,94.35,66.17,312.59,318.72,0.0
2018-08-18 11:09:00,89.55375,36.54536,1006.266,274.14,83.2,13.6,-2.31,8.51,-84.63,93.52,67.22,312.44,317.93,94.83,66.15,312.61,318.76,0.0
2018-08-18 11:09:00,89.55375,36.54538,1006.302,274.14,83.2,13.3,-1.99,8.78,-82.64,93.13,67.01,312.13,318.45,95.24,66.14,312.65,318.73,0.0
2018-08-18 11:09:00,89.55375,36.54541,1006.278,274.14,83.2,13.5,-1.76,8.99,-80.42,93.59,66.94,311.65,318.93,95.55,66.17,312.78,318.79,0.0
2018-08-18 11:09:00,89.55375,36.54543,1006.286,274.14,83.2,13.4,-1.2,9.12,-77.98,94.11,67.01,312.35,318.7,95.71,66.23,312.82,318.8,0.0
2018-08-18 11:09:00,89.55375,36.54545,1006.253,274.14,83.2,13.7,-0.65,9.28,-75.3,92.28,67.01,312.86,319.0,95.7,66.33,312.76,318.69,0.0
2018-08-18 11:09:00,89.55375,36.54548,1006.234,274.14,83.2,13.9,-0.07,9.33,-72.52,94.37,67.15,312.92,318.3,95.52,66.44,312.66,318.55,0.0
2018-08-18 11:09:00,89.55376,36.5455,1006.232,274.14,83.2,13.9,0.73,9.27,-69.84,93.52,66.94,313.06,318.21,95.19,66.56,312.55,318.43,0.0
2018-08-18 11:09:00,89.55376,36.54552,1006.214,274.15,83.2,14.0,1.94,9.14,-67.3,94.11,67.01,313.58,319.05,94.73,66.68,312.47,318.32,0.0
2018-08-18 11:09:00,89.55376,36.54552,1006.256,274.15,83.2,13.7,3.39,8.95,-64.81,94.04,66.81,313.34,319.15,94.19,66.79,312.46,318.19,0.0
2018-08-18 11:09:00,89.55376,36.5455,1006.229,274.15,83.2,13.9,3.43,8.73,-62.13,93.91,67.08,312.59,318.48,93.64,66.88,312.44,318.03,0.0
2018-08-18 11:09:00,89.55376,36.54549,1006.236,274.15,83.2,13.8,3.59,8.5,-59.69,93.98,67.01,312.36,317.84,93.13,66.94,312.47,317.87,0.0
2018-08-18 11:09:00,89.55376,36.54547,1006.252,274.15,83.2,13.7,4.24,8.19,-57.51,93.59,67.01,312.54,317.88,92.72,66.96,312.61,317.88,0.0
2018-08-18 11:09:00,89.55376,36.54546,1006.227,274.14,83.3,13.9,4.87,7.86,-55.61,93.65,67.01,312.44,318.21,92.42,66.97,312.74,317.99,0.0
2018-08-18 11:09:00,89.55376,36.54544,1006.136,274.15,83.3,14.6,4.21,7.69,-53.88,93.72,66.94,312.44,318.1,92.27,66.95,312.75,318.06,0.0
2018-08-18 11:09:00,89.55376,36.54542,1006.178,274.15,83.2,14.3,4.59,7.66,-52.68,92.74,66.94,312.35,317.35,92.24,66.93,312.9,318.16,0.0
2018-08-18 11:09:00,89.55376,36.54541,1006.213,274.15,83.2,14.0,5.72,7.26,-51.9,93.52,67.01,313.3,317.72,92.3,66.9,312.88,318.25,0.0
2018-08-18 11:09:00,89.55376,36.54539,1006.21,274.15,83.2,14.0,6.07,6.94,-51.3,93.72,67.15,313.86,318.28,92.42,66.89,312.87,318.34,0.0
2018-08-18 11:09:00,89.55376,36.54538,1006.176,274.15,83.3,14.3,5.93,6.7,-51.01,93.52,67.01,313.69,318.74,92.53,66.89,312.91,318.42,0.0
2018-08-18 11:09:00,89.55376,36.54536,1006.152,274.15,83.2,14.5,6.5,6.37,-51.23,93.32,66.81,312.0,318.86,92.58,66.91,312.91,318.51,0.0
2018-08-18 11:09:00,89.55376,36.54535,1006.139,274.15,83.2,14.6,6.87,6.71,-51.61,93.46,66.94,313.4,318.89,92.54,66.93,312.85,318.55,0.0
2018-08-18 11:09:00,89.55376,36.54531,1006.12,274.15,83.2,14.8,6.77,6.65,-52.28,93.85,67.01,311.06,318.16,92.4,66.96,312.77,318.64,0.0
2018-08-18 11:09:00,89.55376,36.54524,1006.121,274.15,83.2,14.8,7.04,6.7,-53.27,93.52,67.01,311.24,317.96,92.16,66.97,312.61,318.68,0.0
2018-08-18 11:09:00,89.55376,36.54517,1006.128,274.15,83.2,14.7,7.52,6.67,-54.59,93.13,66.94,312.32,318.36,91.87,66.98,312.39,318.67,0.0
2018-08-18 11:09:00,89.55376,36.5451,1006.111,274.15,83.2,14.8,7.74,6.38,-56.18,93.26,66.94,312.49,319.16,91.57,66.96,312.24,318.62,0.0
2018-08-18 11:09:00,89.55376,36.54502,1006.1,274.15,83.2,14.9,7.28,6.07,-58.21,94.31,66.94,312.46,319.34,91.32,66.93,312.23,318.56,0.0
2018-08-18 11:09:00,89.55376,36.54495,1006.12,274.15,83.2,14.8,7.07,6.09,-60.2,92.47,67.08,312.34,319.4,91.2,66.88,312.16,318.52,0.0
2018-08-18 11:09:00,89.55376,36.54488,1006.109,274.14,83.2,14.8,6.78,5.84,-61.7,92.34,66.87,312.53,319.17,91.24,66.81,312.41,318.62,0.0
2018-08-18 11:09:00,89.55376,36.5448,1006.082,274.14,83.2,15.1,6.36,5.47,-63.86,92.87,67.15,312.36,318.92,91.47,66.74,312.71,318.82,0.0
2018-08-18 11:09:00,89.55376,36.54473,1006.076,274.14,83.2,15.1,5.69,4.92,-67.11,93.98,66.94,312.54,318.96,91.87,66.68,312.94,319.0,0.0
2018-08-18 11:09:00,89.55376,36.54466,1006.137,274.14,83.3,14.6,4.71,4.08,-71.21,93.91,66.94,312.41,318.81,92.4,66.62,313.12,319.09,0.0
2018-08-18 11:09:00,89.55376,36.54458,1006.097,274.14,83.2,14.9,4.19,4.44,-72.9,92.87,66.94,312.25,318.87,93.01,66.57,313.17,319.11,0.0
2018-08-18 11:09:00,89.55376,36.54451,1006.111,274.14,83.2,14.8,3.67,4.08,-75.08,92.21,66.94,313.4,318.88,93.62,66.54,313.19,319.15,0.0
2018-08-18 11:09:00,89.55376,36.54444,1006.121,274.14,83.2,14.7,2.89,4.2,-76.71,92.54,67.01,313.82,319.27,94.15,66.51,313.13,319.08,0.0
2018-08-18 11:09:00,89.55376,36.54439,1006.101,274.14,83.2,14.9,2.33,4.59,-78.38,92.28,66.81,314.11,319.49,94.54,66.48,313.03,318.96,0.0
2018-08-18 11:09:00,89.55376,36.54436,1006.059,274.13,83.2,15.2,2.96,4.54,-81.45,93.13,66.87,313.66,319.18,94.75,66.45,312.98,318.87,0.0
2018-08-18 11:09:00,89.55376,36.54433,1006.109,274.14,83.2,14.8,2.98,5.11,-82.62,94.11,66.81,312.48,318.54,94.78,66.4,312.93,318.79,0.0
2018-08-18 11:09:00,89.55376,36.5443,1006.11,274.14,83.2,14.8,3.97,5.75,-82.96,93.13,66.81,312.34,319.27,94.64,66.34,312.88,318.7,0.0
2018-08-18 11:09:00,89.55376,36.54427,1006.097,274.14,83.2,14.9,5.77,5.87,-84.88,93.65,66.81,311.73,318.01,94.38,66.27,312.75,318.51,0.0
2018-08-18 11:09:00,89.55377,36.54423,1006.081,274.14,83.2,15.1,5.52,4.37,-86.54,93.78,66.94,311.86,317.46,94.07,66.18,312.57,318.32,0.0
2018-08-18 11:09:00,89.55377,36.5442,1006.068,274.14,83.2,15.2,2.3,2.19,-87.11,94.18,67.01,312.45,318.0,93.77,66.1,312.41,318.21,0.0
2018-08-18 11:09:00,89.55377,36.54417,1006.069,274.14,83.2,15.2,-1.32,3.38,-87.77,93.32,66.94,312.45,318.01,93.53,66.02,312.35,318.14,0.0
2018-08-18 11:09:00,89.55377,36.54414,1006.035,274.14,83.2,15.4,-0.1,2.84,-89.95,93.72,66.81,312.35,318.2,93.38,65.96,312.38,318.07,0.0
2018-08-18 11:09:00,89.55377,36.54411,1006.02,274.14,83.2,15.5,0.46,3.32,-90.77,92.34,66.74,312.36,317.15,93.31,65.93,312.5,317.86,0.0
2018-08-18 11:09:00,89.55377,36.54408,1006.021,274.14,83.2,15.5,1.2,3.24,-91.32,92.08,66.67,312.33,317.68,93.32,65.92,312.72,317.81,0.0
2018-08-18 11:09:00,89.55377,36.54404,1006.027,274.14,83.2,15.5,2.43,2.62,-91.87,92.93,66.74,312.4,318.77,93.34,65.93,312.91,317.9,0.0
2018-08-18 11:09:00,89.55377,36.54402,1006.028,274.14,83.2,15.5,3.96,2.52,-92.28,93.46,66.46,312.63,318.52,93.32,65.96,313.0,317.96,0.0
2018-08-18 11:09:00,89.55377,36.54406,1006.009,274.14,83.2,15.6,2.56,3.18,-92.55,94.24,66.53,312.29,318.07,93.2,66.0,313.07,318.04,0.0
2018-08-18 11:09:00,89.55377,36.54409,1006.01,274.14,83.2,15.6,1.99,2.99,-92.62,92.74,66.74,313.81,316.98,92.96,66.04,313.11,318.16,0.0
2018-08-18 11:09:00,89.55377,36.54412,1006.001,274.14,83.2,15.7,1.35,3.3,-92.18,94.44,66.74,314.14,318.03,92.58,66.06,313.08,318.33,0.0
2018-08-18 11:09:00,89.55377,36.54416,1005.98,274.14,83.2,15.9,0.86,3.69,-91.34,93.65,66.67,314.21,318.66,92.07,66.07,313.04,318.45,0.0
2018-08-18 11:09:00,89.55377,36.54419,1005.966,274.14,83.2,16.0,0.67,3.67,-90.18,93.32,66.74,314.22,319.0,91.51,66.05,313.0,318.49,0.0
2018-08-18 11:09:00,89.55377,36.54422,1005.97,274.14,83.2,15.9,-0.1,3.99,-88.39,93.13,66.6,314.02,318.97,90.94,66.03,312.88,318.54,0.0
2018-08-18 11:09:00,89.55377,36.54426,1005.941,274.14,83.2,16.2,1.11,4.44,-86.38,93.0,66.67,313.68,319.09,90.45,65.99,313.02,318.68,0.0
2018-08-18 11:09:00,89.55377,36.54429,1005.91,274.14,83.2,16.4,0.7,4.32,-83.68,92.93,66.6,313.04,318.55,90.1,65.95,313.0,318.88,0.0
2018-08-18 11:09:00,89.55377,36.54433,1005.917,274.14,83.2,16.4,-0.55,4.03,-81.43,92.47,66.53,312.62,318.01,89.96,65.93,312.92,318.97,0.0
2018-08-18 11:09:00,89.55377,36.54436,1005.955,274.14,83.2,16.1,-1.62,3.81,-80.13,93.26,66.53,312.26,318.17,90.04,65.92,312.84,318.9,0.0
2018-08-18 11:09:00,89.55377,36.5444,1005.918,274.14,83.2,16.4,-1.75,3.64,-79.1,92.47,66.39,311.5,318.02,90.32,65.93,312.75,318.76,0.0
2018-08-18 11:09:00,89.55377,36.54443,1005.882,274.15,83.2,16.6,-1.54,3.17,-77.72,92.67,66.6,313.46,318.7,90.77,65.96,312.64,318.56,0.0
2018-08-18 11:09:00,89.55377,36.54446,1005.879,274.14,83.2,16.7,-2.07,3.32,-76.28,93.06,66.46,312.83,318.98,91.31,66.01,312.59,318.36,0.0
2018-08-18 11:09:00,89.55377,36.5445,1005.895,274.14,83.2,16.5,-2.2,3.08,-75.16,92.28,66.53,312.26,319.08,91.88,66.05,312.54,318.19,0.0
2018-08-18 11:09:00,89.55377,36.54454,1005.903,274.14,83.2,16.5,-2.16,2.83,-74.27,92.15,66.32,312.26,318.74,92.39,66.09,312.45,318.06,0.0
2018-08-18 11:09:00,89.55377,36.54459,1005.873,274.14,83.2,16.7,-2.46,3.11,-73.39,92.74,66.53,312.16,318.75,92.81,66.11,312.37,317.99,0.0
2018-08-18 11:09:00,89.55377,36.54463,1005.837,274.14,83.2,17.0,-2.51,2.9,-72.87,92.74,66.53,312.27,318.36,93.09,66.1,312.34,318.02,0.0
2018-08-18 11:09:00,89.55377,36.54468,1005.852,274.15,83.2,16.9,-2.78,2.86,-72.56,92.67,66.46,313.19,318.58,93.25,66.06,312.18,318.09,0.0
2018-08-18 11:09:00,89.55377,36.54473,1005.851,274.15,83.2,16.9,-3.37,2.88,-72.7,92.74,66.39,312.82,318.67,93.3,65.99,312.04,318.04,0.0
2018-08-18 11:09:00,89.55377,36.54478,1005.837,274.14,83.2,17.0,-3.88,2.86,-73.1,92.87,66.53,312.34,318.1,93.29,65.89,311.95,318.06,0.0
2018-08-18 11:09:00,89.55377,36.54483,1005.834,274.14,83.2,17.0,-4.14,2.85,-73.17,94.04,66.53,312.62,318.45,93.27,65.78,312.0,318.19,0.0
2018-08-18 11:09:00,89.55377,36.54488,1005.848,274.15,83.2,16.9,-4.51,3.24,-71.35,92.54,66.32,312.45,318.78,93.28,65.67,312.24,318.27,0.0
2018-08-18 11:09:00,89.55378,36.54492,1005.845,274.14,83.2,16.9,-5.46,3.64,-69.62,93.0,66.53,312.68,319.28,93.34,65.58,312.44,318.27,0.0
2018-08-18 11:09:00,89.55378,36.54497,1005.844,274.15,83.2,16.9,-5.2,4.11,-68.3,91.82,66.39,311.89,317.25,93.47,65.51,312.53,318.25,0.0
2018-08-18 11:09:00,89.55378,36.54502,1005.824,274.15,83.2,17.1,-4.93,4.62,-67.21,93.26,66.18,311.93,317.5,93.64,65.48,312.62,318.23,0.0
2018-08-18 11:09:00,89.55378,36.54507,1005.784,274.14,83.2,17.4,-4.89,5.0,-66.58,91.43,66.18,312.46,318.19,93.82,65.48,312.71,318.19,0.0
2018-08-18 11:09:00,89.55378,36.54512,1005.761,274.14,83.2,17.6,-4.62,5.04,-66.83,93.13,66.39,314.05,317.59,93.95,65.52,312.79,318.04,0.0
2018-08-18 11:09:00,89.55378,36.54518,1005.751,274.14,83.2,17.7,-3.8,5.47,-66.68,93.13,66.32,313.25,317.0,94.01,65.58,312.97,317.76,0.0
2018-08-18 11:09:00,89.55378,36.54522,1005.756,274.14,83.2,17.6,-3.87,5.67,-67.62,92.47,66.11,312.7,317.71,93.97,65.66,313.07,317.47,0.0
2018-08-18 11:09:00,89.55378,36.54528,1005.769,274.14,83.2,17.5,-4.56,5.5,-69.36,93.65,66.18,312.25,318.08,93.81,65.74,313.14,317.48,0.0
2018-08-18 11:09:00,89.55378,36.54533,1005.776,274.14,83.2,17.5,-5.32,5.06,-71.65,93.32,66.18,312.12,317.97,93.57,65.81,313.2,317.56,0.0
2018-08-18 11:09:00,89.55378,36.54538,1005.743,274.13,83.2,17.7,-5.65,4.47,-74.39,93.72,66.32,311.94,317.59,93.27,65.86,313.22,317.59,0.0
2018-08-18 11:09:00,89.55378,36.54543,1005.774,274.14,83.2,17.5,-6.55,4.04,-76.17,93.65,66.18,313.64,316.82,92.98,65.89,313.06,317.71,0.0
2018-08-18 11:09:00,89.55378,36.54548,1005.731,274.14,83.2,17.8,-8.21,3.73,-78.26,91.88,66.32,313.82,317.21,92.75,65.9,312.98,317.91,0.0
2018-08-18 11:09:00,89.55378,36.54553,1005.715,274.14,83.2,18.0,-9.12,3.51,-80.08,93.13,66.32,312.94,318.1,92.62,65.87,312.97,318.04,0.0
2018-08-18 11:09:00,89.55378,36.54558,1005.733,274.14,83.2,17.8,-10.14,3.36,-82.07,92.87,66.32,312.9,318.48,92.64,65.83,313.02,318.14,0.0
2018-08-18 11:09:00,89.55378,36.54564,1005.764,274.14,83.2,17.6,-11.49,3.16,-84.29,92.47,65.91,313.6,318.7,92.79,65.77,313.13,318.24,0.0
2018-08-18 11:09:00,89.55378,36.54572,1005.761,274.13,83.2,17.6,-12.06,2.74,-86.1,92.8,66.18,313.23,318.58,93.07,65.71,313.24,318.35,0.0
2018-08-18 11:09:00,89.55378,36.54579,1005.739,274.13,83.2,17.8,-11.35,2.46,-88.07,92.87,66.11,313.44,318.36,93.43,65.64,313.27,318.49,0.0
2018-08-18 11:09:00,89.55378,36.54587,1005.71,274.14,83.2,18.0,-11.33,2.13,-92.02,92.08,66.18,313.31,318.07,93.81,65.57,313.24,318.58,0.0
2018-08-18 11:09:00,89.55378,36.54595,1005.7,274.14,83.2,18.1,-11.06,1.63,-94.85,94.24,66.11,313.18,318.41,94.15,65.51,313.26,318.53,0.0
2018-08-18 11:09:00,89.55378,36.54602,1005.708,274.13,83.2,18.0,-10.84,1.09,-96.8,92.6,66.18,313.15,317.98,94.43,65.45,313.26,318.42,0.0
2018-08-18 11:09:00,89.55378,36.5461,1005.709,274.13,83.2,18.0,-11.36,0.68,-99.46,92.67,66.05,313.14,318.33,94.6,65.4,313.22,318.29,0.0
2018-08-18 11:09:00,89.55378,36.54617,1005.692,274.14,83.2,18.1,-12.27,0.07,-102.05,94.5,66.11,313.57,318.29,94.66,65.35,313.26,318.09,0.0
2018-08-18 11:09:00,89.55378,36.54625,1005.675,274.13,83.2,18.3,-13.34,-0.34,-101.53,93.13,66.18,312.6,318.02,94.63,65.31,313.19,318.03,0.0
2018-08-18 11:09:00,89.55379,36.54633,1005.675,274.13,83.2,18.3,-14.13,-1.08,-103.52,92.6,66.05,312.36,318.2,94.56,65.27,313.11,318.03,0.0
2018-08-18 11:09:00,89.55379,36.5464,1005.688,274.13,83.2,18.2,-14.76,-1.94,-106.06,93.59,65.98,312.36,318.09,94.48,65.23,313.03,318.0,0.0
2018-08-18 11:09:00,89.55379,36.54648,1005.699,274.13,83.2,18.1,-15.27,-2.69,-107.37,93.26,65.91,312.67,317.87,94.43,65.18,312.95,317.96,0.0
2018-08-18 11:09:00,89.55379,36.54656,1005.667,274.13,83.2,18.3,-15.23,-3.43,-109.16,92.67,65.91,313.46,316.67,94.44,65.14,312.81,317.99,0.0
2018-08-18 11:09:00,89.55379,36.54669,1005.677,274.12,83.2,18.3,-14.84,-4.13,-110.52,93.39,66.11,312.44,317.8,94.53,65.1,312.54,318.0,0.0
2018-08-18 11:09:00,89.55379,36.54681,1005.65,274.13,83.2,18.5,-14.64,-4.43,-110.99,93.52,65.98,312.39,318.03,94.68,65.06,312.42,318.03,0.0
2018-08-18 11:09:00,89.55379,36.54694,1005.619,274.13,83.2,18.7,-14.52,-4.56,-111.18,92.93,65.91,312.76,317.84,94.87,65.03,312.32,318.02,0.0
2018-08-18 11:09:00,89.55379,36.54707,1005.616,274.12,83.2,18.7,-14.41,-4.66,-111.32,94.18,65.63,312.81,317.18,95.05,65.0,312.21,317.98,0.0
2018-08-18 11:09:00,89.55379,36.54719,1005.628,274.13,83.2,18.6,-14.27,-4.85,-111.36,93.26,65.98,312.1,317.97,95.19,64.98,312.19,317.98,0.0
2018-08-18 11:09:00,89.55379,36.54732,1005.658,274.13,83.2,18.4,-14.74,-4.41,-110.75,92.6,65.77,310.95,317.74,95.25,64.98,312.17,317.96,0.0
2018-08-18 11:09:00,89.55379,36.54745,1005.644,274.13,83.2,18.5,-14.56,-4.03,-110.8,94.24,65.98,311.95,317.93,95.23,64.98,312.27,317.87,0.0
2018-08-18 11:09:00,89.55379,36.54757,1005.612,274.13,83.2,18.8,-14.64,-3.43,-107.98,93.13,65.77,311.9,317.44,95.12,65.0,312.32,317.73,0.0
2018-08-18 11:09:00,89.55379,36.5477,1005.584,274.12,83.2,19.0,-14.77,-2.69,-103.18,94.37,65.91,311.87,317.73,94.94,65.04,312.37,317.6,0.0
2018-08-18 11:09:00,89.55379,36.54783,1005.581,274.13,83.2,19.0,-14.41,-1.94,-98.25,94.31,65.84,312.46,317.94,94.74,65.09,312.5,317.51,0.0
2018-08-18 11:09:00,89.55379,36.54795,1005.591,274.13,83.2,18.9,-13.09,-1.4,-94.04,93.91,65.56,313.54,316.5,94.56,65.15,312.66,317.36,0.0
2018-08-18 11:09:00,89.55379,36.54808,1005.575,274.12,83.2,19.1,-13.6,-0.85,-90.02,92.74,65.7,313.52,317.0,94.42,65.21,312.82,317.24,0.0
2018-08-18 11:09:00,89.55379,36.54819,1005.561,274.12,83.2,19.2,-13.63,-0.08,-85.53,94.31,65.56,312.76,316.65,94.34,65.27,312.87,317.21,0.0
2018-08-18 11:09:00,89.55379,36.54829,1005.56,274.12,83.2,19.2,-13.36,0.63,-81.21,92.74,65.84,313.13,316.21,94.34,65.33,312.92,317.24,0.0
2018-08-18 11:09:00,89.55379,36.5484,1005.563,274.13,83.2,19.2,-13.37,1.31,-77.23,94.31,65.56,313.89,316.63,94.39,65.36,313.01,317.27,0.0
2018-08-18 11:09:00,89.55379,36.5485,1005.571,274.13,83.2,19.1,-14.32,2.29,-73.44,92.87,65.77,313.66,316.56,94.44,65.38,313.07,317.23,0.0
2018-08-18 11:09:00,89.55379,36.5486,1005.548,274.13,83.2,19.3,-13.66,3.56,-68.45,94.11,65.7,312.72,316.75,94.46,65.37,313.03,317.31,0.0
2018-08-18 11:09:00,89.55379,36.54871,1005.536,274.13,83.2,19.4,-13.45,4.62,-64.59,94.11,65.77,312.46,317.73,94.4,65.33,312.96,317.29,0.0
2018-08-18 11:09:00,89.55379,36.54881,1005.516,274.13,83.2,19.5,-13.22,5.57,-60.72,94.44,65.7,312.09,318.21,94.22,65.26,312.95,317.36,0.0
2018-08-18 11:09:00,89.55379,36.54892,1005.499,274.12,83.2,19.7,-12.64,6.41,-56.7,93.39,65.77,312.97,317.97,93.93,65.18,312.94,317.49,0.0
2018-08-18 11:09:00,89.55379,36.54902,1005.522,274.13,83.2,19.5,-11.53,7.16,-52.77,94.04,65.63,313.56,318.05,93.52,65.09,312.86,317.62,0.0
2018-08-18 11:09:00,89.55379,36.54912,1005.553,274.13,83.2,19.2,-10.3,7.82,-49.47,93.85,65.63,313.55,317.83,93.05,65.0,312.81,317.75,0.0
2018-08-18 11:09:00,89.55379,36.54923,1005.519,274.13,83.2,19.5,-10.38,8.21,-46.24,93.98,65.56,313.4,317.07,92.57,64.92,312.89,317.86,0.0
2018-08-18 11:09:00,89.55379,36.54933,1005.502,274.13,83.2,19.6,-10.18,8.57,-43.34,93.46,65.56,313.36,317.68,92.14,64.88,312.94,317.92,0.0
2018-08-18 11:09:00,89.55379,36.54944,1005.496,274.12,83.2,19.7,-9.85,8.77,-41.0,93.46,65.63,313.42,318.31,91.84,64.86,312.99,317.95,0.0
2018-08-18 11:09:00,89.55379,36.54954,1005.465,274.12,83.2,19.9,-9.92,8.83,-39.1,94.31,65.56,313.38,318.11,91.69,64.89,313.05,317.98,0.0
2018-08-18 11:09:00,89.55379,36.54964,1005.461,274.13,83.2,20.0,-10.86,9.18,-37.28,93.32,65.49,313.43,318.01,91.74,64.96,312.99,318.06,0.0
2018-08-18 11:09:00,89.55379,36.54975,1005.443,274.12,83.2,20.1,-11.37,8.73,-40.63,93.26,65.49,313.43,318.2,91.95,65.06,312.97,318.07,0.0
2018-08-18 11:09:00,89.55379,36.54986,1005.435,274.12,83.2,20.2,-11.47,8.38,-44.42,94.18,65.42,312.65,318.48,92.31,65.19,312.94,318.15,0.0
2018-08-18 11:09:00,89.55379,36.54997,1005.439,274.12,83.2,20.1,-11.6,8.13,-48.09,92.87,65.56,312.37,318.57,92.75,65.34,312.87,318.14,0.0
2018-08-18 11:09:00,89.55379,36.55008,1005.439,274.13,83.2,20.1,-11.69,7.74,-52.07,92.47,65.42,312.86,318.57,93.2,65.48,312.82,318.05,0.0
2018-08-18 11:09:00,89.55379,36.55019,1005.393,274.12,83.2,20.5,-11.32,6.93,-57.05,93.52,65.63,312.28,318.95,93.62,65.61,312.81,317.94,0.0
2018-08-18 11:09:00,89.55379,36.5503,1005.414,274.12,83.2,20.3,-12.41,7.02,-61.77,93.91,65.42,312.81,317.94,93.94,65.72,312.72,317.96,0.0
2018-08-18 11:09:00,89.5538,36.55041,1005.419,274.12,83.2,20.3,-13.42,6.39,-66.57,94.24,65.63,312.18,318.18,94.15,65.79,312.6,317.99,0.0
2018-08-18 11:09:00,89.5538,36.55052,1005.447,274.12,83.2,20.1,-14.16,5.81,-71.85,92.74,65.49,312.24,317.84,94.24,65.82,312.48,317.89,0.0
2018-08-18 11:09:00,89.5538,36.55063,1005.469,274.12,83.2,19.9,-14.94,5.47,-75.33,92.87,65.63,312.69,316.94,94.26,65.8,312.38,317.78,0.0
2018-08-18 11:09:00,89.5538,36.55074,1005.414,274.11,83.2,20.3,-16.15,5.28,-75.37,94.7,65.42,313.32,316.89,94.23,65.75,312.34,317.78,0.0
2018-08-18 11:09:00,89.5538,36.55084,1005.413,274.11,83.3,20.3,-16.73,5.48,-75.09,93.52,65.56,312.38,318.07,94.2,65.66,312.34,317.73,0.0
2018-08-18 11:09:00,89.5538,36.55094,1005.416,274.12,83.2,20.3,-17.26,4.97,-74.68,93.46,65.63,312.35,318.11,94.22,65.55,312.29,317.62,0.0
2018-08-18 11:09:00,89.5538,36.55104,1005.43,274.12,83.2,20.2,-17.87,4.78,-73.9,94.31,65.49,311.42,316.84,94.3,65.42,312.33,317.49,0.0
2018-08-18 11:09:00,89.5538,36.55114,1005.431,274.12,83.2,20.2,-18.32,4.5,-75.35,93.46,65.7,311.84,317.18,94.45,65.3,312.43,317.41,0.0
2018-08-18 11:09:00,89.5538,36.55124,1005.413,274.12,83.2,20.3,-18.39,3.85,-79.56,93.59,65.56,312.36,318.2,94.63,65.17,312.51,317.38,0.0
2018-08-18 11:09:00,89.5538,36.55134,1005.452,274.11,83.2,20.0,-17.96,3.06,-83.4,93.0,65.56,312.24,318.19,94.8,65.06,312.49,317.38,0.0
2018-08-18 11:09:00,89.5538,36.55144,1005.408,274.11,83.2,20.4,-17.7,2.71,-86.41,93.32,65.49,311.89,316.71,94.91,64.97,312.55,317.35,0.0
2018-08-18 11:09:00,89.5538,36.55154,1005.395,274.11,83.2,20.5,-16.82,2.03,-89.29,93.65,65.56,312.4,316.57,94.91,64.9,312.55,317.37,0.0
2018-08-18 11:09:00,89.5538,36.55164,1005.397,274.11,83.2,20.5,-16.27,1.84,-89.17,94.04,65.42,313.29,316.77,94.76,64.85,312.61,317.5,0.0
2018-08-18 11:09:00,89.5538,36.55174,1005.402,274.11,83.2,20.4,-16.42,1.99,-88.09,93.26,65.42,313.34,316.52,94.45,64.83,312.65,317.61,0.0
2018-08-18 11:09:00,89.5538,36.55184,1005.423,274.11,83.2,20.3,-17.24,1.75,-90.77,94.44,65.42,312.79,316.67,94.01,64.83,312.65,317.6,0.0
2018-08-18 11:09:00,89.5538,36.55196,1005.376,274.12,83.2,20.6,-18.42,1.39,-92.82,94.7,65.29,312.94,317.57,93.48,64.84,312.76,317.6,0.0
2018-08-18 11:09:00,89.5538,36.55209,1005.376,274.12,83.2,20.6,-19.09,1.56,-94.35,94.44,65.42,312.62,318.06,92.92,64.88,312.85,317.81,0.0
2018-08-18 11:09:00,89.55379,36.55222,1005.385,274.12,83.2,20.6,-19.06,1.83,-95.19,92.93,65.56,312.44,318.1,92.43,64.92,312.9,318.06,0.0
2018-08-18 11:09:00,89.55379,36.55235,1005.397,274.12,83.2,20.5,-18.23,2.07,-95.1,93.32,65.42,312.35,317.95,92.07,64.98,312.92,318.25,0.0
2018-08-18 11:09:00,89.55379,36.55248,1005.413,274.12,83.2,20.3,-17.01,2.27,-94.18,94.37,65.36,312.61,317.69,91.91,65.04,312.95,318.36,0.0
2018-08-18 11:09:00,89.55379,36.5526,1005.368,274.11,83.2,20.7,-16.98,2.44,-93.19,94.18,65.36,313.75,317.65,91.97,65.1,313.02,318.45,0.0
2018-08-18 11:09:00,89.55379,36.55273,1005.364,274.11,83.2,20.7,-16.49,2.54,-92.79,93.32,65.36,312.93,318.73,92.26,65.17,313.07,318.4,0.0
2018-08-18 11:09:00,89.55379,36.55286,1005.356,274.11,83.2,20.8,-17.29,2.93,-92.89,92.08,65.29,312.8,319.01,92.74,65.22,313.1,318.32,0.0
2018-08-18 11:09:00,89.55379,36.55299,1005.349,274.11,83.2,20.8,-18.77,3.12,-92.7,93.46,65.36,312.94,318.68,93.34,65.27,313.1,318.26,0.0
2018-08-18 11:09:00,89.55379,36.55312,1005.356,274.12,83.2,20.8,-19.6,3.18,-91.94,93.32,65.36,313.13,318.6,94.0,65.3,313.07,318.27,0.0
2018-08-18 11:09:00,89.55379,36.55325,1005.355,274.12,83.2,20.8,-18.23,4.05,-91.37,93.39,65.56,313.09,318.25,94.63,65.32,313.0,318.34,0.0
2018-08-18 11:09:00,89.55379,36.55338,1005.358,274.11,83.2,20.8,-19.26,4.07,-89.56,93.19,65.29,313.13,317.64,95.16,65.33,312.82,318.41,0.0
2018-08-18 11:09:00,89.55379,36.5535,1005.352,274.11,83.2,20.8,-18.83,4.5,-88.03,94.5,65.29,312.64,317.68,95.53,65.32,312.7,318.42,0.0
2018-08-18 11:09:00,89.55379,36.55359,1005.342,274.11,83.2,20.9,-18.51,4.85,-86.47,93.85,65.29,312.44,318.01,95.73,65.3,312.59,318.39,0.0
2018-08-18 11:09:00,89.55379,36.55367,1005.329,274.12,83.2,21.0,-18.42,5.2,-84.89,93.19,65.36,312.35,318.19,95.76,65.27,312.48,318.39,0.0
2018-08-18 11:09:00,89.55379,36.55376,1005.303,274.11,83.2,21.2,-18.03,5.81,-83.32,95.29,65.49,312.54,318.29,95.63,65.24,312.38,318.43,0.0
2018-08-18 11:09:00,89.55379,36.55384,1005.321,274.12,83.2,21.1,-18.12,5.93,-81.4,94.04,65.49,312.44,318.18,95.4,65.2,312.32,318.46,0.0
2018-08-18 11:09:00,89.55379,36.55392,1005.302,274.12,83.2,21.2,-19.14,6.5,-79.49,93.85,65.36,312.35,318.47,95.11,65.17,312.27,318.51,0.0
2018-08-18 11:09:00,89.55379,36.554,1005.298,274.12,83.2,21.2,-20.22,7.24,-77.4,93.46,65.15,312.54,318.28,94.8,65.15,312.32,318.48,0.0
2018-08-18 11:09:00,89.55379,36.55409,1005.307,274.12,83.2,21.2,-20.57,8.07,-74.93,93.91,65.36,312.35,318.18,94.52,65.13,312.47,318.39,0.0
2018-08-18 11:09:00,89.55379,36.55417,1005.31,274.11,83.2,21.1,-19.82,9.06,-71.97,92.67,65.36,312.44,318.18,94.29,65.13,312.62,318.28,0.0
2018-08-18 11:09:00,89.55379,36.55425,1005.295,274.12,83.2,21.3,-18.27,10.36,-68.93,94.24,65.36,312.35,318.37,94.1,65.13,312.67,318.18,0.0
2018-08-18 11:09:00,89.55379,36.55433,1005.289,274.12,83.2,21.3,-16.59,11.06,-65.63,94.24,65.36,312.44,318.28,93.96,65.13,312.69,318.08,0.0
2018-08-18 11:09:00,89.55379,36.55442,1005.307,274.12,83.2,21.2,-15.11,11.89,-62.43,93.91,65.29,312.82,317.66,93.85,65.13,312.65,317.88,0.0
2018-08-18 11:09:00,89.55379,36.5545,1005.33,274.12,83.2,21.0,-14.01,12.83,-58.99,94.11,65.36,313.33,317.78,93.76,65.13,312.64,317.69,0.0
2018-08-18 11:09:00,89.55379,36.55456,1005.34,274.11,83.2,20.9,-13.39,13.67,-56.66,95.09,65.15,313.24,318.18,93.66,65.13,312.67,317.53,0.0
2018-08-18 11:09:00,89.55379,36.55457,1005.295,274.11,83.2,21.3,-13.18,14.15,-57.37,92.93,65.29,312.18,318.28,93.57,65.11,312.69,317.42,0.0
2018-08-18 11:09:00,89.55379,36.55459,1005.288,274.11,83.2,21.3,-12.16,14.44,-56.13,94.63,65.42,312.07,318.57,93.48,65.09,312.73,317.35,0.0
2018-08-18 11:09:00,89.55379,36.55461,1005.259,274.11,83.2,21.5,-9.5,14.95,-55.26,93.85,65.36,311.98,317.04,93.42,65.07,312.78,317.47,0.0
2018-08-18 11:09:00,89.55379,36.55463,1005.242,274.11,83.2,21.7,-7.27,14.97,-54.92,93.52,65.29,312.73,316.54,93.39,65.04,312.77,317.63,0.0
2018-08-18 11:09:00,89.55379,36.55464,1005.216,274.11,83.2,21.9,-5.43,14.87,-55.3,93.59,65.29,313.17,316.57,93.43,65.02,312.71,317.7,0.0
2018-08-18 11:09:00,89.55379,36.55466,1005.142,274.11,83.2,22.5,-3.59,15.05,-56.24,93.85,65.29,313.41,316.54,93.55,65.01,312.72,317.68,0.0
2018-08-18 11:09:00,89.55379,36.55468,1005.128,274.11,83.2,22.6,-2.4,15.06,-56.68,93.85,65.29,313.58,316.49,93.75,65.02,312.9,317.67,0.0
2018-08-18 11:09:00,89.5538,36.5547,1005.091,274.1,83.2,22.9,-2.02,14.63,-57.86,93.13,65.15,313.33,318.37,94.01,65.06,313.09,317.62,0.0
2018-08-18 11:09:00,89.5538,36.55472,1005.08,274.1,83.2,23.0,-2.11,14.32,-59.87,94.04,65.22,312.68,318.08,94.34,65.11,313.3,317.67,0.0
2018-08-18 11:09:00,89.5538,36.55474,1005.072,274.1,83.2,23.0,-2.72,14.16,-61.96,93.85,65.36,312.56,317.3,94.68,65.19,313.42,317.74,0.0
2018-08-18 11:09:00,89.5538,36.55475,1005.048,274.1,83.2,23.2,-3.41,13.92,-64.07,94.57,65.15,313.03,317.14,95.0,65.28,313.45,317.81,0.0
2018-08-18 11:09:00,89.5538,36.55477,1005.086,274.1,83.2,22.9,-3.17,13.22,-66.86,94.5,65.29,313.8,317.86,95.28,65.39,313.43,317.87,0.0
2018-08-18 11:09:00,89.5538,36.55479,1005.114,274.1,83.2,22.7,-3.28,12.7,-69.26,93.26,65.22,313.67,317.62,95.46,65.49,313.35,317.94,0.0
2018-08-18 11:09:00,89.5538,36.55481,1005.094,274.1,83.2,22.9,-3.79,12.06,-72.15,94.24,65.29,313.51,317.92,95.53,65.58,313.2,317.88,0.0
2018-08-18 11:09:00,89.5538,36.55471,1005.047,274.1,83.2,23.2,-3.82,11.58,-75.6,93.72,65.29,313.29,318.24,95.47,65.64,313.09,317.84,0.0
2018-08-18 11:09:00,89.5538,36.5545,1005.021,274.1,83.2,23.4,-3.88,11.32,-79.36,93.91,65.29,313.25,318.3,95.27,65.68,313.0,317.91,0.0
