Date/Time,Latitude,Longitude,PPPP [hPa],TTT grad [K],RH [%],Height [m],Pitch [deg],Roll [deg],Yaw [deg],SWD [W/m**2] (raw),SWU [W/m**2] (raw),LWD [W/m**2] (raw),LWU [W/m**2] (raw),SWD [W/m**2] (corrected),SWU [W/m**2] (corrected),LWD [W/m**2] (corrected),LWU [W/m**2] (corrected),Flag
2018-08-18 11:25:00,89.55923,37.08114,922.734,271.31,85.1,700.1,-2.17,-0.91,-58.2,105.43,77.23,297.45,310.1,105.61,77.54,297.3,310.9,1.0
2018-08-18 11:25:00,89.55923,37.08106,922.75,271.31,85.1,700.0,-4.18,-1.09,-57.0,105.1,77.3,296.99,310.66,105.55,77.62,297.32,310.93,1.0
2018-08-18 11:25:00,89.55923,37.08098,922.791,271.31,85.1,699.6,-3.94,-1.09,-56.73,105.1,77.5,297.58,311.27,105.42,77.67,297.44,311.04,1.0
2018-08-18 11:25:00,89.55923,37.08091,922.799,271.31,85.1,699.5,-4.7,-1.14,-56.28,105.24,77.3,297.74,310.9,105.25,77.69,297.47,311.08,1.0
2018-08-18 11:25:00,89.55923,37.08083,922.809,271.31,85.1,699.5,-4.64,-1.08,-55.26,105.04,77.16,297.66,310.81,105.08,77.7,297.48,311.17,1.0
2018-08-18 11:25:00,89.55922,37.08074,922.807,271.31,85.1,699.5,-3.92,-1.08,-54.2,106.15,77.36,297.63,311.52,104.93,77.69,297.49,311.3,1.0
2018-08-18 11:25:00,89.55922,37.08066,922.766,271.31,85.1,699.8,-3.12,-1.14,-53.63,105.89,77.3,297.53,311.52,104.81,77.66,297.53,311.41,1.0
2018-08-18 11:25:00,89.55922,37.08058,922.874,271.31,85.1,698.9,-2.7,-0.59,-53.17,105.37,77.43,297.63,311.33,104.76,77.64,297.6,311.48,1.0
2018-08-18 11:25:00,89.55922,37.08049,922.87,271.31,85.1,698.9,-4.06,-0.68,-52.71,104.84,77.3,297.53,311.52,104.77,77.61,297.62,311.46,1.0
2018-08-18 11:25:00,89.55922,37.08041,922.811,271.31,85.1,699.4,-3.9,-0.76,-52.32,104.71,77.36,297.72,311.33,104.84,77.58,297.6,311.46,1.0
2018-08-18 11:25:00,89.55922,37.08032,922.801,271.31,85.1,699.5,-3.44,-0.9,-52.02,104.32,77.43,297.53,311.52,104.95,77.55,297.59,311.44,1.0
2018-08-18 11:25:00,89.55922,37.08024,922.885,271.31,85.1,698.8,-3.07,-1.05,-51.97,105.63,77.36,297.61,311.33,105.1,77.51,297.59,311.38,1.0
2018-08-18 11:25:00,89.55922,37.08016,922.896,271.31,85.1,698.7,-1.33,-0.91,-52.41,105.82,77.5,297.71,311.62,105.25,77.47,297.58,311.33,1.0
2018-08-18 11:25:00,89.55922,37.08008,922.971,271.31,85.1,698.1,-0.23,-0.76,-52.89,105.43,77.23,297.71,311.51,105.4,77.43,297.56,311.27,1.0
2018-08-18 11:25:00,89.55922,37.07999,922.949,271.3,85.1,698.3,-2.02,-1.05,-53.44,105.24,77.5,297.52,311.6,105.52,77.38,297.55,311.23,1.0
2018-08-18 11:25:00,89.55921,37.07991,922.89,271.3,85.1,698.8,-3.62,-1.37,-54.01,105.37,77.23,297.71,311.51,105.6,77.32,297.54,311.21,1.0
2018-08-18 11:25:00,89.55921,37.07982,922.829,271.3,85.1,699.3,-3.63,-1.47,-54.56,104.91,77.3,297.52,311.32,105.63,77.26,297.53,311.17,1.0
2018-08-18 11:25:00,89.55921,37.07973,922.744,271.3,85.1,700.0,-2.33,-1.37,-55.05,105.63,77.3,297.51,311.51,105.62,77.2,297.5,311.09,1.0
2018-08-18 11:25:00,89.55921,37.07964,922.848,271.3,85.1,699.1,0.3,-1.41,-55.26,105.37,77.43,297.61,311.41,105.56,77.14,297.38,311.04,1.0
2018-08-18 11:25:00,89.55921,37.07955,922.863,271.3,85.2,699.0,-0.52,-1.47,-55.28,104.38,77.57,297.61,311.41,105.46,77.08,297.36,311.09,1.0
2018-08-18 11:25:00,89.55921,37.07946,922.862,271.3,85.2,699.0,-0.55,-1.72,-54.9,106.09,77.3,297.61,311.31,105.33,77.04,297.35,311.13,1.0
2018-08-18 11:25:00,89.55921,37.07937,922.891,271.3,85.2,698.8,0.5,-1.76,-54.44,105.04,77.5,297.52,311.16,105.19,77.02,297.34,311.16,1.0
2018-08-18 11:25:00,89.55921,37.07928,922.953,271.31,85.2,698.2,2.53,-1.44,-54.19,105.17,77.3,297.55,310.18,105.06,77.02,297.33,311.18,1.0
2018-08-18 11:25:00,89.55921,37.07919,922.911,271.31,85.2,698.6,5.79,-1.17,-54.17,105.17,77.09,295.92,310.21,104.96,77.04,297.33,311.18,1.0
2018-08-18 11:25:00,89.55921,37.0791,922.852,271.3,85.2,699.1,7.15,-0.86,-53.83,105.89,77.23,297.28,311.14,104.9,77.08,297.32,311.16,1.0
2018-08-18 11:25:00,89.5592,37.07901,922.852,271.3,85.2,699.1,6.27,-0.82,-53.76,105.24,77.36,297.27,311.62,104.88,77.15,297.37,311.14,1.0
2018-08-18 11:25:00,89.5592,37.07892,922.863,271.3,85.2,699.0,4.32,-0.95,-53.58,105.17,77.3,297.31,311.3,104.93,77.23,297.39,311.03,1.0
2018-08-18 11:25:00,89.5592,37.07883,922.851,271.3,85.2,699.1,2.42,-1.02,-53.47,105.56,77.3,297.57,311.3,105.04,77.32,297.37,310.91,1.0
2018-08-18 11:25:00,89.5592,37.07874,922.884,271.3,85.2,698.8,1.36,-0.75,-54.14,105.04,77.3,297.6,311.32,105.21,77.41,297.37,310.88,1.0
2018-08-18 11:25:00,89.5592,37.07865,922.836,271.3,85.2,699.2,2.38,-0.98,-54.16,105.1,77.36,297.52,311.21,105.41,77.49,297.45,310.93,1.0
2018-08-18 11:25:00,89.5592,37.07856,922.794,271.3,85.2,699.6,3.15,-0.75,-54.2,104.52,77.3,298.14,311.3,105.64,77.56,297.44,310.92,1.0
2018-08-18 11:25:00,89.5592,37.07846,922.824,271.3,85.2,699.3,4.68,-0.77,-54.7,105.43,77.36,297.85,310.44,105.87,77.6,297.43,310.92,1.0
2018-08-18 11:25:00,89.5592,37.07832,922.884,271.3,85.2,698.8,5.98,-0.85,-55.51,105.43,77.36,297.57,309.96,106.08,77.62,297.43,310.95,1.0
2018-08-18 11:25:00,89.5592,37.07819,922.88,271.3,85.2,698.9,6.46,-0.67,-56.32,105.1,77.09,297.5,310.46,106.24,77.61,297.44,310.99,1.0
2018-08-18 11:25:00,89.5592,37.07805,922.917,271.3,85.2,698.5,8.76,-0.34,-56.91,105.63,77.57,297.78,311.29,106.34,77.56,297.45,311.03,1.0
2018-08-18 11:25:00,89.5592,37.07792,922.831,271.3,85.2,699.3,11.29,-0.57,-58.51,105.5,77.3,297.69,311.68,106.37,77.48,297.48,311.07,1.0
2018-08-18 11:25:00,89.55919,37.07778,922.868,271.3,85.2,699.0,11.15,-0.8,-59.19,105.43,77.36,297.5,311.4,106.33,77.37,297.46,311.1,1.0
2018-08-18 11:25:00,89.55919,37.07765,922.925,271.3,85.2,698.5,7.54,-0.84,-59.08,105.1,77.43,297.5,311.59,106.23,77.25,297.48,311.18,1.0
2018-08-18 11:25:00,89.55919,37.07751,922.89,271.3,85.2,698.8,3.02,-0.74,-58.38,105.37,77.5,297.5,311.59,106.08,77.11,297.53,311.29,1.0
2018-08-18 11:25:00,89.55919,37.07738,922.87,271.3,85.2,698.9,3.35,-0.79,-57.1,106.74,77.3,297.4,311.21,105.89,76.97,297.58,311.35,1.0
2018-08-18 11:25:00,89.55919,37.07724,922.883,271.3,85.2,698.8,2.29,-0.36,-57.29,105.04,77.23,297.68,311.3,105.69,76.84,297.63,311.3,1.0
2018-08-18 11:25:00,89.55919,37.07713,922.852,271.29,85.2,699.1,4.37,-0.37,-57.13,105.37,77.3,297.59,311.29,105.49,76.74,297.63,311.29,1.0
2018-08-18 11:25:00,89.55919,37.07705,922.804,271.29,85.2,699.5,5.78,-0.33,-56.88,104.84,77.3,297.4,311.2,105.32,76.66,297.53,311.25,1.0
2018-08-18 11:25:00,89.55919,37.07698,922.822,271.29,85.2,699.4,6.59,-0.32,-56.44,105.17,77.23,297.48,311.3,105.17,76.62,297.4,311.19,1.0
2018-08-18 11:25:00,89.55918,37.0769,922.997,271.3,85.2,697.9,8.04,-0.54,-55.72,105.63,77.5,297.47,311.67,105.05,76.63,297.35,311.13,1.0
2018-08-18 11:25:00,89.55918,37.07683,922.939,271.3,85.2,698.4,6.34,-0.32,-55.42,105.37,77.23,297.38,311.29,104.97,76.67,297.28,311.1,1.0
2018-08-18 11:25:00,89.55918,37.07676,922.941,271.29,85.2,698.3,7.28,-0.22,-55.62,105.96,77.09,296.94,311.61,104.9,76.75,297.2,311.07,1.0
2018-08-18 11:25:00,89.55918,37.07668,922.946,271.29,85.2,698.3,8.85,-0.19,-56.14,105.3,77.16,296.19,311.41,104.86,76.86,297.12,311.07,1.0
2018-08-18 11:25:00,89.55918,37.0766,922.949,271.3,85.2,698.3,9.55,-0.25,-56.58,105.56,77.16,296.14,311.32,104.82,76.97,297.11,311.04,1.0
2018-08-18 11:25:00,89.55918,37.07653,922.964,271.3,85.2,698.1,8.58,-0.39,-56.75,105.63,77.09,297.38,311.48,104.8,77.1,297.16,311.01,1.0
2018-08-18 11:25:00,89.55918,37.07646,922.939,271.29,85.2,698.4,6.5,-0.41,-56.97,104.97,77.3,297.73,311.01,104.78,77.21,297.15,311.04,1.0
2018-08-18 11:25:00,89.55918,37.07638,922.892,271.29,85.2,698.8,7.53,-0.49,-57.31,105.1,77.3,297.65,311.31,104.77,77.31,297.17,311.09,1.0
2018-08-18 11:25:00,89.55918,37.07631,922.924,271.3,85.2,698.5,7.69,-0.37,-57.99,105.56,77.23,297.65,311.48,104.78,77.38,297.24,311.09,1.0
2018-08-18 11:25:00,89.55918,37.07623,922.956,271.3,85.2,698.2,7.46,-0.31,-57.95,105.17,77.23,298.32,310.98,104.81,77.42,297.43,311.11,1.0
2018-08-18 11:25:00,89.55918,37.07615,922.951,271.3,85.2,698.2,6.85,-0.35,-57.5,104.78,77.09,298.5,310.28,104.88,77.43,297.62,311.16,1.0
2018-08-18 11:25:00,89.55918,37.07607,923.0,271.3,85.2,697.8,5.0,-0.28,-58.02,105.37,77.3,297.47,311.0,104.97,77.43,297.71,311.2,1.0
2018-08-18 11:25:00,89.55917,37.07599,922.978,271.3,85.2,698.0,0.26,-0.23,-57.84,106.15,77.3,297.37,311.19,105.09,77.41,297.78,311.23,1.0
2018-08-18 11:25:00,89.55917,37.07591,922.956,271.3,85.2,698.2,-2.4,-0.41,-57.67,105.17,77.23,297.46,311.18,105.22,77.39,297.83,311.25,1.0
2018-08-18 11:25:00,89.55917,37.07583,922.919,271.3,85.2,698.5,-1.62,-0.49,-57.25,104.32,77.3,297.46,311.37,105.35,77.36,297.84,311.27,1.0
2018-08-18 11:25:00,89.55917,37.07575,922.888,271.3,85.2,698.8,1.79,-0.41,-56.4,105.69,77.23,297.65,311.18,105.46,77.35,297.76,311.31,1.0
2018-08-18 11:25:00,89.55917,37.07567,922.902,271.29,85.2,698.7,5.97,-0.21,-55.18,105.17,77.3,297.36,311.27,105.52,77.34,297.6,311.37,1.0
2018-08-18 11:25:00,89.55917,37.07559,922.976,271.3,85.2,698.0,8.07,0.14,-54.53,105.89,77.23,297.45,311.27,105.51,77.34,297.52,311.36,1.0
2018-08-18 11:25:00,89.55917,37.07551,923.02,271.3,85.2,697.7,10.89,0.25,-54.24,104.84,77.36,297.37,311.46,105.42,77.35,297.44,311.35,1.0
2018-08-18 11:25:00,89.55917,37.07543,923.03,271.3,85.2,697.6,12.28,0.48,-54.13,105.56,77.09,297.46,311.37,105.25,77.35,297.36,311.35,1.0
2018-08-18 11:25:00,89.55917,37.07534,923.015,271.29,85.2,697.7,12.93,0.7,-54.58,105.17,77.23,297.36,311.27,105.0,77.35,297.3,311.35,1.0
2018-08-18 11:25:00,89.55916,37.07526,922.998,271.3,85.2,697.8,12.78,0.9,-55.51,106.15,77.23,297.45,311.37,104.69,77.34,297.28,311.37,1.0
2018-08-18 11:25:00,89.55916,37.07515,923.033,271.29,85.2,697.6,10.37,1.33,-56.04,104.38,77.3,297.36,310.89,104.37,77.32,297.29,311.4,1.0
2018-08-18 11:25:00,89.55916,37.07505,923.03,271.3,85.2,697.6,8.59,1.43,-56.6,105.37,77.3,297.45,311.46,104.07,77.28,297.34,311.43,1.0
2018-08-18 11:25:00,89.55916,37.07494,922.978,271.3,85.2,698.0,9.26,1.61,-57.71,104.78,77.36,297.46,311.19,103.83,77.24,297.42,311.48,1.0
2018-08-18 11:25:00,89.55916,37.07483,922.948,271.3,85.2,698.3,11.24,1.92,-58.35,105.37,77.3,297.45,311.38,103.7,77.2,297.51,311.46,1.0
2018-08-18 11:25:00,89.55916,37.07473,922.967,271.3,85.2,698.1,13.85,2.35,-58.5,105.43,77.16,297.45,311.27,103.71,77.16,297.61,311.41,1.0
2018-08-18 11:25:00,89.55916,37.07462,923.0,271.3,85.2,697.8,16.68,2.81,-58.63,105.5,77.36,297.45,311.46,103.87,77.12,297.72,311.38,1.0
2018-08-18 11:25:00,89.55916,37.07451,922.978,271.29,85.2,698.0,18.53,3.0,-58.4,105.04,77.16,297.54,311.26,104.17,77.11,297.76,311.38,1.0
2018-08-18 11:25:00,89.55916,37.07441,922.96,271.29,85.2,698.2,18.43,2.81,-58.35,104.78,77.43,297.64,311.45,104.59,77.11,297.77,311.35,1.0
2018-08-18 11:25:00,89.55916,37.0743,922.957,271.29,85.2,698.2,19.53,2.62,-57.51,105.04,77.23,297.54,310.82,105.1,77.11,297.75,311.3,1.0
2018-08-18 11:25:00,89.55916,37.07419,922.963,271.3,85.2,698.1,20.8,2.77,-57.81,104.71,77.16,297.6,310.25,105.63,77.12,297.71,311.24,1.0
2018-08-18 11:25:00,89.55916,37.07409,922.971,271.29,85.2,698.1,21.0,3.25,-60.29,104.45,77.09,297.5,310.72,106.13,77.13,297.67,311.18,1.0
2018-08-18 11:25:00,89.55916,37.07398,922.993,271.3,85.2,697.9,21.24,2.85,-61.17,105.56,77.16,297.32,310.97,106.54,77.13,297.63,311.15,1.0
2018-08-18 11:25:00,89.55915,37.0739,922.969,271.3,85.2,698.1,18.52,2.88,-61.0,104.71,77.3,297.43,311.06,106.81,77.11,297.6,311.13,1.0
2018-08-18 11:25:00,89.55915,37.07382,922.99,271.3,85.2,697.9,17.64,2.86,-60.76,104.78,77.23,297.53,311.15,106.92,77.07,297.6,311.13,1.0
2018-08-18 11:25:00,89.55915,37.07375,922.996,271.3,85.2,697.9,17.21,2.95,-60.89,105.37,77.36,297.53,311.44,106.84,77.01,297.62,311.23,1.0
2018-08-18 11:25:00,89.55915,37.07367,922.964,271.29,85.2,698.1,17.03,3.07,-61.38,106.22,77.3,297.62,311.58,106.59,76.95,297.64,311.37,1.0
2018-08-18 11:25:00,89.55915,37.07359,922.985,271.29,85.2,698.0,18.0,2.95,-61.84,105.56,77.23,297.72,311.59,106.2,76.89,297.66,311.47,1.0
2018-08-18 11:25:00,89.55915,37.07351,922.96,271.29,85.2,698.2,17.15,2.91,-61.51,105.96,77.16,297.44,311.64,105.72,76.84,297.69,311.53,1.0
2018-08-18 11:25:00,89.55915,37.07344,922.995,271.29,85.2,697.9,19.71,2.68,-61.1,105.17,77.3,297.62,311.24,105.19,76.81,297.69,311.56,1.0
2018-08-18 11:25:00,89.55915,37.07336,923.036,271.29,85.2,697.5,22.96,2.69,-60.83,104.97,77.16,297.44,311.24,104.68,76.81,297.65,311.54,1.0
2018-08-18 11:25:00,89.55915,37.07328,923.047,271.29,85.2,697.4,24.84,2.87,-60.66,105.37,77.09,297.34,311.24,104.22,76.83,297.58,311.48,1.0
2018-08-18 11:25:00,89.55915,37.0732,923.011,271.29,85.2,697.7,24.39,2.99,-60.48,105.63,77.09,297.53,311.24,103.87,76.87,297.49,311.36,1.0
2018-08-18 11:25:00,89.55914,37.07312,922.947,271.29,85.2,698.3,24.77,2.62,-60.0,104.84,77.09,297.44,311.34,103.64,76.93,297.32,311.19,1.0
2018-08-18 11:25:00,89.55914,37.07305,922.957,271.29,85.2,698.2,26.59,2.13,-59.69,104.84,77.23,297.62,311.24,103.53,76.97,297.15,311.01,1.0
2018-08-18 11:25:00,89.55914,37.07297,922.982,271.29,85.2,698.0,30.13,1.98,-59.18,104.58,77.16,297.52,311.53,103.55,77.0,296.99,310.84,1.0
2018-08-18 11:25:00,89.55914,37.07289,922.991,271.29,85.3,697.9,32.85,1.85,-58.91,105.63,77.02,297.65,311.24,103.66,77.0,296.86,310.69,1.0
2018-08-18 11:25:00,89.55914,37.07282,922.986,271.29,85.2,698.0,33.42,1.54,-59.08,105.04,77.23,297.98,311.14,103.84,76.96,296.79,310.6,1.0
2018-08-18 11:25:00,89.55914,37.0727,923.028,271.29,85.2,697.6,32.4,1.2,-59.36,105.04,77.16,297.51,311.24,104.07,76.89,296.79,310.57,1.0
2018-08-18 11:25:00,89.55914,37.07259,922.926,271.29,85.3,698.5,27.79,1.25,-59.63,104.65,77.23,297.33,311.42,104.31,76.79,296.84,310.53,1.0
2018-08-18 11:25:00,89.55914,37.07247,923.001,271.29,85.3,697.8,25.31,1.22,-59.86,105.56,77.09,297.61,311.42,104.55,76.67,297.01,310.56,1.0
2018-08-18 11:25:00,89.55914,37.07236,923.065,271.29,85.3,697.3,24.7,1.34,-60.02,105.04,77.16,297.61,311.62,104.78,76.55,297.16,310.74,1.0
2018-08-18 11:25:00,89.55914,37.07224,923.045,271.29,85.3,697.4,25.41,1.41,-60.02,105.1,77.09,297.7,311.43,104.99,76.47,297.24,310.96,1.0
2018-08-18 11:25:00,89.55913,37.07213,923.072,271.29,85.3,697.2,26.78,1.11,-59.79,104.52,77.3,297.41,311.11,105.17,76.42,297.29,311.06,1.0
2018-08-18 11:25:00,89.55913,37.07201,923.019,271.29,85.3,697.7,27.41,0.98,-59.63,105.37,77.02,297.25,310.26,105.34,76.44,297.42,311.06,1.0
2018-08-18 11:25:00,89.55913,37.0719,923.016,271.29,85.3,697.7,28.3,1.03,-59.45,104.58,77.02,297.6,310.16,105.49,76.52,297.6,311.1,1.0
2018-08-18 11:25:00,89.55913,37.07178,923.006,271.29,85.3,697.8,28.62,1.17,-59.54,104.84,76.88,297.21,311.23,105.64,76.66,297.65,311.08,1.0
2018-08-18 11:25:00,89.55913,37.07167,922.984,271.29,85.3,698.0,28.22,1.37,-59.88,105.3,76.81,296.38,311.31,105.77,76.86,297.61,311.01,1.0
2018-08-18 11:25:00,89.55913,37.07157,922.986,271.29,85.3,698.0,27.05,1.55,-60.13,104.32,76.88,296.18,310.29,105.88,77.08,297.53,310.89,1.0
2018-08-18 11:25:00,89.55913,37.07147,923.071,271.29,85.3,697.2,24.65,1.64,-59.29,104.97,77.09,297.32,309.9,105.97,77.32,297.46,310.78,1.0
2018-08-18 11:25:00,89.55913,37.07136,923.054,271.28,85.3,697.4,23.1,1.38,-58.23,105.96,77.02,298.51,311.0,106.03,77.54,297.4,310.78,1.0
2018-08-18 11:25:00,89.55913,37.07126,923.045,271.29,85.3,697.5,22.4,1.56,-57.84,105.56,77.02,297.9,311.2,106.05,77.74,297.34,310.82,1.0
2018-08-18 11:25:00,89.55913,37.07115,923.022,271.29,85.3,697.6,21.77,1.72,-57.91,105.56,77.23,297.4,311.23,106.04,77.89,297.41,310.83,1.0
2018-08-18 11:25:00,89.55912,37.07105,922.998,271.28,85.3,697.9,21.34,1.63,-58.23,104.32,77.09,297.5,311.22,106.0,77.99,297.6,310.88,1.0
2018-08-18 11:25:00,89.55912,37.07095,923.106,271.29,85.3,696.9,21.95,1.4,-58.73,105.82,77.23,297.4,311.4,105.93,78.03,297.78,311.11,1.0
2018-08-18 11:25:00,89.55912,37.07084,923.038,271.29,85.3,697.5,18.55,1.14,-58.47,104.78,77.16,297.49,311.21,105.85,78.01,297.91,311.42,1.0
2018-08-18 11:25:00,89.55912,37.07074,923.032,271.29,85.3,697.6,17.58,1.18,-57.7,104.84,77.3,297.67,311.31,105.75,77.95,297.94,311.65,1.0
2018-08-18 11:25:00,89.55912,37.07064,923.09,271.29,85.3,697.1,18.15,1.21,-57.05,105.17,77.02,297.62,311.36,105.65,77.85,298.02,311.85,1.0
2018-08-18 11:25:00,89.55912,37.07053,923.136,271.29,85.3,696.7,18.85,1.34,-56.48,105.96,77.23,297.73,311.36,105.55,77.72,298.1,312.0,1.0
2018-08-18 11:25:00,89.55912,37.07043,923.015,271.29,85.3,697.7,18.47,1.71,-55.77,104.52,77.3,297.4,311.42,105.46,77.56,298.13,312.09,1.0
2018-08-18 11:25:00,89.55912,37.07032,923.067,271.29,85.3,697.3,19.2,1.14,-55.31,105.04,77.09,297.58,311.04,105.37,77.39,298.1,312.11,1.0
2018-08-18 11:25:00,89.55912,37.07021,923.068,271.28,85.3,697.3,18.68,1.24,-55.38,106.15,77.3,297.4,311.24,105.28,77.21,298.03,312.07,1.0
2018-08-18 11:25:00,89.55912,37.0701,923.093,271.28,85.3,697.0,19.63,1.29,-55.25,105.63,77.3,297.59,311.5,105.18,77.02,297.92,311.97,1.0
2018-08-18 11:25:00,89.55912,37.07,923.089,271.29,85.3,697.1,19.35,1.35,-55.26,105.3,77.3,297.77,311.21,105.07,76.84,297.77,311.84,1.0
2018-08-18 11:25:00,89.55912,37.06989,923.021,271.29,85.3,697.7,17.21,1.44,-55.5,105.17,77.23,297.39,311.3,104.94,76.67,297.62,311.7,1.0
2018-08-18 11:25:00,89.55911,37.06978,923.05,271.29,85.3,697.4,16.69,1.36,-55.47,104.45,77.09,297.58,311.2,104.82,76.52,297.53,311.57,1.0
2018-08-18 11:25:00,89.55911,37.06967,923.064,271.29,85.3,697.3,16.56,1.28,-55.26,104.97,77.23,297.48,311.39,104.69,76.41,297.48,311.49,1.0
2018-08-18 11:25:00,89.55911,37.06957,923.102,271.28,85.3,697.0,17.95,1.0,-55.23,105.96,77.23,297.58,311.5,104.58,76.34,297.46,311.35,1.0
2018-08-18 11:25:00,89.55911,37.06946,923.083,271.28,85.3,697.1,19.89,0.98,-55.07,105.17,77.02,297.58,311.4,104.49,76.32,297.47,311.2,1.0
2018-08-18 11:25:00,89.55911,37.06935,923.018,271.28,85.3,697.7,21.85,1.19,-54.99,104.97,77.09,297.57,311.3,104.43,76.35,297.5,311.13,1.0
2018-08-18 11:25:00,89.55911,37.06925,923.09,271.29,85.3,697.1,23.36,1.24,-55.48,105.37,77.16,297.38,311.4,104.43,76.43,297.53,311.17,1.0
2018-08-18 11:25:00,89.55911,37.06914,923.0,271.29,85.3,697.8,22.06,1.09,-55.34,104.97,77.02,297.39,311.49,104.48,76.56,297.55,311.2,1.0
2018-08-18 11:25:00,89.55911,37.06905,923.042,271.28,85.3,697.5,19.45,0.8,-55.51,105.04,76.95,297.58,310.14,104.57,76.72,297.54,311.22,1.0
2018-08-18 11:25:00,89.55911,37.06897,923.078,271.28,85.3,697.2,18.93,0.92,-55.15,105.24,76.95,297.3,309.82,104.71,76.89,297.51,311.15,1.0
2018-08-18 11:25:00,89.55911,37.0689,923.104,271.29,85.3,696.9,20.25,1.1,-54.49,105.04,76.81,297.2,310.02,104.87,77.06,297.45,311.04,1.0
2018-08-18 11:25:00,89.5591,37.06882,923.198,271.28,85.3,696.2,22.08,0.93,-53.95,104.91,77.09,297.37,311.39,105.05,77.2,297.38,310.92,1.0
2018-08-18 11:25:00,89.5591,37.06874,923.152,271.29,85.3,696.5,24.05,0.96,-53.19,105.24,77.23,297.37,311.48,105.22,77.3,297.31,310.81,1.0
2018-08-18 11:25:00,89.5591,37.06867,923.073,271.29,85.3,697.2,23.48,1.09,-52.74,105.17,77.09,297.39,311.29,105.38,77.36,297.26,310.72,1.0
2018-08-18 11:25:00,89.5591,37.06859,923.072,271.29,85.3,697.2,23.34,1.46,-53.13,105.04,77.02,297.39,310.72,105.5,77.37,297.24,310.78,1.0
2018-08-18 11:25:00,89.5591,37.06851,923.068,271.29,85.3,697.3,22.91,1.84,-53.81,105.1,77.23,297.57,310.27,105.59,77.35,297.25,310.9,1.0
2018-08-18 11:25:00,89.5591,37.06844,923.021,271.28,85.3,697.7,20.97,2.16,-54.53,104.38,77.09,297.47,310.56,105.65,77.3,297.28,310.98,1.0
2018-08-18 11:25:00,89.5591,37.06836,923.091,271.29,85.3,697.1,16.54,2.52,-55.41,105.96,77.23,297.37,310.41,105.68,77.23,297.33,310.99,1.0
2018-08-18 11:25:00,89.5591,37.06828,923.054,271.29,85.3,697.4,16.15,2.49,-56.48,105.1,77.02,297.46,310.82,105.69,77.17,297.4,311.0,1.0
2018-08-18 11:25:00,89.5591,37.06821,923.032,271.28,85.3,697.6,18.02,2.77,-57.5,105.63,77.16,297.68,311.03,105.69,77.11,297.46,310.99,1.0
2018-08-18 11:25:00,89.5591,37.06813,923.018,271.28,85.3,697.7,19.43,2.98,-58.21,104.78,77.16,297.55,311.2,105.68,77.08,297.51,311.02,1.0
2018-08-18 11:25:00,89.5591,37.06806,923.051,271.28,85.3,697.4,20.41,3.04,-58.47,105.43,76.67,297.56,311.12,105.68,77.06,297.54,311.06,1.0
2018-08-18 11:25:00,89.5591,37.068,923.216,271.29,85.3,696.0,22.36,3.07,-58.13,104.71,77.23,297.37,311.28,105.68,77.06,297.54,311.07,1.0
2018-08-18 11:25:00,89.5591,37.06793,923.185,271.28,85.3,696.3,25.04,3.18,-56.61,105.43,77.02,297.55,311.37,105.68,77.06,297.52,311.07,1.0
2018-08-18 11:25:00,89.55909,37.06786,923.136,271.29,85.3,696.7,28.46,2.59,-55.69,105.43,77.23,297.37,311.28,105.69,77.05,297.49,311.04,1.0
2018-08-18 11:25:00,89.55909,37.0678,923.177,271.29,85.3,696.3,29.31,2.25,-55.18,105.17,77.16,297.36,311.37,105.7,77.04,297.44,311.0,1.0
2018-08-18 11:25:00,89.55909,37.06774,923.23,271.29,85.3,695.9,27.33,2.07,-54.23,104.91,77.09,297.36,311.28,105.7,77.0,297.41,310.98,1.0
2018-08-18 11:25:00,89.55909,37.06767,923.21,271.29,85.3,696.0,23.91,1.86,-52.65,105.56,77.16,297.37,311.48,105.71,76.95,297.39,311.0,1.0
2018-08-18 11:25:00,89.55909,37.0676,923.249,271.29,85.3,695.7,22.71,1.68,-51.79,105.56,77.02,297.55,311.28,105.72,76.88,297.4,311.04,1.0
2018-08-18 11:25:00,89.55909,37.06754,923.143,271.29,85.3,696.6,22.67,1.98,-51.2,105.17,77.02,297.35,311.47,105.74,76.8,297.45,311.15,1.0
2018-08-18 11:25:00,89.55909,37.06748,923.151,271.29,85.3,696.5,23.34,2.12,-51.24,105.43,77.09,297.35,311.37,105.76,76.73,297.53,311.23,1.0
2018-08-18 11:25:00,89.55909,37.06741,923.192,271.29,85.3,696.2,21.29,2.31,-51.7,105.24,77.23,297.54,311.28,105.79,76.66,297.59,311.28,1.0
2018-08-18 11:25:00,89.55909,37.06735,923.16,271.28,85.3,696.5,16.3,2.57,-52.41,104.97,77.02,297.55,311.46,105.81,76.62,297.59,311.3,1.0
2018-08-18 11:25:00,89.55909,37.06728,923.056,271.29,85.3,697.4,11.8,2.69,-53.32,104.91,77.02,297.49,311.54,105.83,76.6,297.58,311.29,1.0
2018-08-18 11:25:00,89.55909,37.06721,923.102,271.29,85.3,697.0,8.45,2.54,-54.47,105.82,77.02,297.68,311.93,105.82,76.61,297.53,311.24,1.0
2018-08-18 11:25:00,89.55909,37.06713,923.094,271.28,85.3,697.0,5.64,2.59,-55.87,105.89,76.81,298.02,311.6,105.77,76.64,297.47,311.18,1.0
2018-08-18 11:25:00,89.55908,37.06702,923.152,271.28,85.3,696.5,3.72,2.45,-56.58,105.56,76.95,297.45,310.93,105.66,76.69,297.39,311.1,1.0
2018-08-18 11:25:00,89.55908,37.06692,923.233,271.29,85.3,695.8,3.54,2.27,-56.63,105.24,77.09,297.08,310.96,105.48,76.74,297.31,311.02,1.0
2018-08-18 11:25:00,89.55908,37.06681,923.188,271.28,85.3,696.2,5.4,2.25,-56.36,104.32,77.02,297.54,311.26,105.23,76.79,297.25,310.97,1.0
2018-08-18 11:25:00,89.55908,37.06671,923.191,271.29,85.3,696.2,7.65,1.96,-55.65,106.15,77.02,297.44,310.88,104.9,76.83,297.22,310.94,1.0
2018-08-18 11:25:00,89.55908,37.0666,923.186,271.29,85.3,696.2,7.67,1.59,-55.6,105.43,76.95,297.64,311.35,104.53,76.86,297.22,310.89,1.0
2018-08-18 11:25:00,89.55908,37.06649,923.166,271.29,85.3,696.4,8.83,1.71,-55.14,105.56,76.95,297.54,311.45,104.14,76.88,297.21,310.91,1.0
2018-08-18 11:25:00,89.55908,37.06639,923.142,271.28,85.3,696.6,10.76,1.88,-55.37,105.1,77.09,297.54,311.17,103.77,76.89,297.26,311.0,1.0
2018-08-18 11:25:00,89.55908,37.06628,923.134,271.29,85.3,696.7,12.23,1.89,-56.34,105.56,77.02,297.55,311.36,103.46,76.9,297.35,311.06,1.0
2018-08-18 11:25:00,89.55908,37.06618,923.187,271.29,85.3,696.2,11.0,2.04,-56.13,105.04,77.02,297.47,311.17,103.25,76.92,297.46,311.03,1.0
2018-08-18 11:25:00,89.55907,37.0661,923.223,271.29,85.3,695.9,11.1,2.31,-55.72,104.91,76.67,297.52,311.26,103.16,76.96,297.54,311.11,1.0
2018-08-18 11:25:00,89.55907,37.06602,923.196,271.29,85.3,696.2,11.27,2.2,-55.76,105.04,77.02,297.35,311.07,103.23,77.01,297.59,311.04,1.0
2018-08-18 11:25:00,89.55907,37.06594,923.15,271.29,85.3,696.6,10.79,2.16,-56.26,105.24,77.09,297.53,311.16,103.43,77.07,297.59,310.98,1.0
2018-08-18 11:25:00,89.55907,37.06586,923.127,271.29,85.3,696.8,9.89,2.16,-56.92,105.76,77.16,297.26,310.55,103.75,77.15,297.54,310.95,1.0
2018-08-18 11:25:00,89.55907,37.06579,923.152,271.29,85.3,696.5,9.55,2.04,-57.34,104.12,76.88,297.37,309.69,104.15,77.22,297.45,310.89,1.0
2018-08-18 11:25:00,89.55907,37.06571,923.224,271.29,85.3,695.9,12.27,2.48,-57.73,104.65,76.81,297.13,310.88,104.58,77.27,297.33,310.81,1.0
2018-08-18 11:25:00,89.55907,37.06563,923.215,271.28,85.3,696.0,13.1,2.9,-58.32,104.71,76.88,297.19,309.88,105.0,77.3,297.19,310.74,1.0
2018-08-18 11:25:00,89.55907,37.06555,923.209,271.28,85.3,696.1,13.74,3.17,-58.43,104.25,77.02,297.36,310.51,105.34,77.28,297.08,310.68,1.0
2018-08-18 11:25:00,89.55907,37.06548,923.217,271.28,85.3,696.0,12.9,3.21,-58.66,105.96,77.16,297.44,311.44,105.59,77.21,297.01,310.66,1.0
2018-08-18 11:25:00,89.55907,37.0654,923.224,271.28,85.3,695.9,10.9,3.08,-59.49,104.78,77.23,297.44,311.43,105.72,77.1,296.99,310.72,1.0
2018-08-18 11:25:00,89.55907,37.06532,923.252,271.28,85.3,695.7,12.94,3.12,-60.28,105.82,77.02,297.25,311.34,105.74,76.94,297.03,310.89,1.0
2018-08-18 11:25:00,89.55907,37.06524,923.241,271.29,85.3,695.8,12.09,3.33,-60.31,104.32,77.02,297.62,311.13,105.67,76.76,297.11,310.97,1.0
2018-08-18 11:25:00,89.55906,37.06517,923.209,271.29,85.3,696.1,12.58,3.38,-60.27,105.5,77.02,297.32,311.32,105.56,76.56,297.19,311.25,1.0
2018-08-18 11:25:00,89.55906,37.0651,923.197,271.29,85.3,696.2,13.97,3.27,-59.72,104.97,76.88,297.41,311.03,105.44,76.38,297.31,311.45,1.0
2018-08-18 11:25:00,89.55906,37.06503,923.221,271.29,85.3,696.0,16.0,3.12,-58.76,105.43,77.16,297.23,311.23,105.36,76.22,297.44,311.5,1.0
2018-08-18 11:25:00,89.55906,37.06496,923.248,271.29,85.3,695.7,18.67,3.07,-58.0,105.17,76.95,297.32,311.13,105.35,76.11,297.54,311.53,1.0
2018-08-18 11:25:00,89.55906,37.0649,923.266,271.29,85.3,695.6,20.58,3.01,-56.76,104.91,77.09,297.32,311.14,105.43,76.07,297.61,311.51,1.0
2018-08-18 11:25:00,89.55906,37.06483,923.203,271.29,85.3,696.1,21.31,3.03,-56.72,104.97,76.67,297.13,312.16,105.58,76.08,297.63,311.47,1.0
2018-08-18 11:25:00,89.55906,37.06476,923.157,271.29,85.3,696.5,22.06,2.93,-56.45,104.58,76.67,296.88,311.46,105.78,76.16,297.59,311.46,1.0
2018-08-18 11:25:00,89.55906,37.06469,923.166,271.28,85.3,696.4,23.82,2.87,-56.01,105.17,76.88,297.13,311.13,106.0,76.3,297.49,311.44,1.0
2018-08-18 11:25:00,89.55906,37.06463,923.192,271.29,85.3,696.2,26.84,3.08,-55.83,105.56,76.95,297.24,311.03,106.19,76.47,297.38,311.39,1.0
2018-08-18 11:25:00,89.55906,37.06456,923.213,271.29,85.3,696.0,28.63,3.3,-55.65,104.71,76.88,297.52,311.31,106.31,76.65,297.3,311.34,1.0
2018-08-18 11:25:00,89.55906,37.06449,923.172,271.28,85.3,696.4,27.11,3.36,-56.38,105.37,76.81,297.24,311.22,106.34,76.83,297.24,311.32,1.0
2018-08-18 11:25:00,89.55905,37.06442,923.217,271.28,85.3,696.0,25.86,3.42,-57.23,105.17,76.67,297.02,311.88,106.27,77.0,297.22,311.25,1.0
2018-08-18 11:25:00,89.55905,37.06436,923.262,271.28,85.3,695.6,24.25,3.52,-58.98,105.82,76.81,297.06,311.65,106.1,77.12,297.21,311.24,1.0
2018-08-18 11:25:00,89.55905,37.06428,923.213,271.29,85.3,696.0,21.43,3.64,-61.23,105.24,76.95,296.79,311.37,105.89,77.2,297.22,311.3,1.0
2018-08-18 11:25:00,89.55905,37.06421,923.17,271.29,85.3,696.4,17.06,3.77,-61.93,105.43,76.81,297.52,311.11,105.66,77.24,297.26,311.38,1.0
2018-08-18 11:25:00,89.55905,37.06414,923.185,271.29,85.3,696.3,15.7,3.65,-62.44,105.37,77.16,297.52,311.01,105.47,77.23,297.32,311.45,1.0
2018-08-18 11:25:00,89.55905,37.06406,923.233,271.28,85.3,695.8,15.89,3.34,-62.85,105.37,76.88,297.33,311.11,105.37,77.19,297.37,311.5,1.0
2018-08-18 11:25:00,89.55905,37.06399,923.257,271.28,85.3,695.6,18.23,3.15,-63.15,105.5,76.88,297.01,311.31,105.39,77.13,297.43,311.47,1.0
2018-08-18 11:25:00,89.55905,37.06392,923.23,271.29,85.3,695.9,20.35,3.1,-63.23,105.1,76.88,296.98,311.41,105.53,77.05,297.48,311.4,1.0
2018-08-18 11:25:00,89.55905,37.06385,923.167,271.29,85.3,696.4,18.98,3.08,-63.12,105.24,76.88,297.51,311.12,105.77,76.97,297.5,311.34,1.0
2018-08-18 11:25:00,89.55904,37.06377,923.196,271.29,85.3,696.2,17.04,3.06,-63.8,104.71,76.88,297.31,311.3,106.09,76.9,297.46,311.28,1.0
2018-08-18 11:25:00,89.55904,37.0637,923.224,271.29,85.3,695.9,14.22,2.96,-63.9,105.43,76.95,297.51,311.02,106.42,76.84,297.4,311.21,1.0
2018-08-18 11:25:00,89.55904,37.06363,923.272,271.29,85.3,695.5,11.73,2.87,-64.07,105.63,77.02,297.5,311.01,106.71,76.79,297.35,311.14,1.0
2018-08-18 11:25:00,89.55904,37.06356,923.32,271.29,85.3,695.1,10.08,2.89,-64.11,104.84,76.88,297.4,311.2,106.91,76.75,297.32,311.08,1.0
2018-08-18 11:25:00,89.55904,37.06349,923.328,271.29,85.3,695.0,9.48,3.04,-63.64,105.17,76.88,297.31,311.4,106.97,76.72,297.3,311.05,1.0
2018-08-18 11:25:00,89.55904,37.06345,923.237,271.29,85.3,695.8,10.26,3.21,-62.43,106.35,76.74,297.31,311.31,106.89,76.69,297.28,311.05,1.0
2018-08-18 11:25:00,89.55904,37.06341,923.255,271.29,85.3,695.7,10.21,3.06,-62.03,105.96,76.88,297.41,311.21,106.68,76.66,297.28,311.09,1.0
2018-08-18 11:25:00,89.55904,37.06337,923.342,271.29,85.3,694.9,9.62,2.83,-61.36,105.76,77.02,297.31,311.31,106.37,76.62,297.3,311.14,1.0
2018-08-18 11:25:00,89.55904,37.06333,923.399,271.29,85.3,694.4,8.57,2.68,-60.53,105.43,76.88,297.5,311.02,106.02,76.58,297.33,311.21,1.0
2018-08-18 11:25:00,89.55904,37.06329,923.375,271.29,85.3,694.6,6.71,2.57,-59.82,105.63,76.95,297.5,311.31,105.69,76.55,297.37,311.28,1.0
2018-08-18 11:25:00,89.55904,37.06325,923.313,271.29,85.3,695.2,3.66,2.33,-59.65,105.37,76.81,297.39,311.11,105.42,76.52,297.4,311.35,1.0
2018-08-18 11:25:00,89.55904,37.06321,923.327,271.29,85.3,695.0,2.41,2.72,-59.91,105.96,76.81,297.39,311.1,105.27,76.51,297.46,311.42,1.0
2018-08-18 11:25:00,89.55904,37.06318,923.32,271.29,85.3,695.1,2.14,2.76,-60.23,105.56,76.67,297.2,311.05,105.24,76.52,297.48,311.45,1.0
2018-08-18 11:25:00,89.55904,37.06314,923.327,271.29,85.3,695.1,2.38,2.98,-59.85,105.17,76.88,297.2,311.17,105.32,76.55,297.47,311.45,1.0
2018-08-18 11:25:00,89.55903,37.06309,923.331,271.29,85.3,695.0,3.03,3.22,-59.3,104.97,76.81,297.2,311.11,105.48,76.61,297.44,311.41,1.0
2018-08-18 11:25:00,89.55903,37.06306,923.279,271.28,85.3,695.5,4.31,3.16,-59.4,105.96,77.09,297.37,311.23,105.67,76.68,297.39,311.35,1.0
2018-08-18 11:25:00,89.55903,37.06302,923.347,271.29,85.3,694.9,7.13,3.32,-59.58,105.24,76.67,297.88,311.23,105.83,76.77,297.33,311.28,1.0
2018-08-18 11:25:00,89.55903,37.06298,923.286,271.28,85.3,695.4,6.09,3.34,-58.9,105.96,76.88,297.69,311.1,105.91,76.86,297.29,311.2,1.0
2018-08-18 11:25:00,89.55903,37.06294,923.271,271.28,85.3,695.5,4.92,3.26,-59.69,105.82,76.67,297.52,311.37,105.87,76.94,297.27,311.13,1.0
2018-08-18 11:25:00,89.55903,37.0629,923.297,271.29,85.3,695.3,3.66,3.3,-60.45,104.84,76.67,297.6,311.27,105.7,76.99,297.26,311.08,1.0
2018-08-18 11:25:00,89.55903,37.06284,923.322,271.29,85.3,695.1,2.69,3.49,-60.48,105.82,76.81,297.64,311.24,105.41,77.02,297.28,311.05,1.0
2018-08-18 11:25:00,89.55903,37.06277,923.385,271.29,85.3,694.6,3.88,3.5,-60.86,106.09,76.88,297.2,311.0,105.03,77.01,297.29,311.05,1.0
2018-08-18 11:25:00,89.55903,37.0627,923.385,271.29,85.3,694.6,3.01,3.21,-60.83,105.37,76.95,297.3,311.29,104.6,76.96,297.27,311.1,1.0
2018-08-18 11:25:00,89.55903,37.06264,923.363,271.29,85.3,694.7,1.54,3.04,-61.15,105.76,76.88,297.39,311.38,104.2,76.89,297.24,311.14,1.0
2018-08-18 11:25:00,89.55902,37.06257,923.323,271.29,85.3,695.1,-1.17,2.96,-62.05,105.89,76.88,297.39,311.28,103.88,76.8,297.21,311.25,1.0
2018-08-18 11:25:00,89.55902,37.0625,923.29,271.29,85.3,695.4,-2.6,2.86,-63.29,105.76,76.88,297.48,311.46,103.68,76.71,297.18,311.36,1.0
2018-08-18 11:25:00,89.55902,37.06243,923.314,271.29,85.3,695.2,0.46,2.61,-64.24,105.1,76.88,297.27,311.25,103.64,76.63,297.15,311.4,1.0
2018-08-18 11:25:00,89.55902,37.06236,923.33,271.28,85.3,695.0,-0.11,2.56,-64.7,104.78,76.88,297.11,311.98,103.75,76.57,297.15,311.42,1.0
2018-08-18 11:25:00,89.55902,37.0623,923.356,271.29,85.3,694.8,-2.26,2.09,-64.77,105.24,76.81,296.95,311.14,104.01,76.54,297.15,311.43,1.0
2018-08-18 11:25:00,89.55902,37.06223,923.355,271.29,85.3,694.8,-3.36,1.85,-65.06,104.78,76.95,296.94,311.98,104.37,76.54,297.15,311.43,1.0
2018-08-18 11:25:00,89.55902,37.06217,923.319,271.29,85.3,695.1,-2.76,1.7,-65.46,105.04,76.47,296.72,312.06,104.79,76.58,297.15,311.41,1.0
2018-08-18 11:25:00,89.55902,37.06212,923.272,271.29,85.3,695.5,-0.84,1.59,-65.47,104.97,76.74,296.84,310.78,105.23,76.64,297.16,311.38,1.0
2018-08-18 11:25:00,89.55902,37.06207,923.334,271.29,85.3,695.0,0.44,2.14,-64.09,105.56,76.74,297.18,311.08,105.63,76.72,297.18,311.35,1.0
2018-08-18 11:25:00,89.55902,37.06202,923.278,271.3,85.3,695.5,0.26,1.44,-63.16,105.69,76.81,297.37,310.99,105.96,76.81,297.22,311.27,1.0
2018-08-18 11:25:00,89.55902,37.06196,923.265,271.29,85.3,695.6,1.61,1.39,-62.05,105.89,76.81,297.19,311.08,106.21,76.88,297.27,311.24,1.0
2018-08-18 11:25:00,89.55902,37.06191,923.274,271.29,85.3,695.5,3.13,1.19,-61.23,105.1,76.88,297.56,311.08,106.36,76.94,297.33,311.17,1.0
2018-08-18 11:25:00,89.55901,37.06186,923.277,271.29,85.3,695.5,4.47,0.79,-60.78,105.1,76.88,297.19,311.37,106.42,76.98,297.37,311.12,1.0
2018-08-18 11:25:00,89.55901,37.06181,923.309,271.29,85.3,695.2,6.45,1.03,-60.36,105.96,76.81,297.19,311.27,106.41,76.98,297.36,311.17,1.0
2018-08-18 11:25:00,89.55901,37.06176,923.379,271.29,85.3,694.6,5.36,0.44,-60.02,104.84,76.88,297.19,310.8,106.35,76.96,297.34,311.21,1.0
2018-08-18 11:25:00,89.55901,37.06171,923.384,271.29,85.3,694.6,4.91,0.22,-59.21,104.84,76.81,297.28,310.99,106.24,76.92,297.31,311.26,1.0
2018-08-18 11:25:00,89.55901,37.06165,923.353,271.29,85.3,694.8,2.66,0.03,-58.27,105.82,76.81,297.38,311.18,106.12,76.87,297.29,311.32,1.0
2018-08-18 11:25:00,89.55901,37.0616,923.333,271.29,85.3,695.0,-0.35,-0.2,-58.17,105.1,76.88,297.13,311.23,105.98,76.82,297.27,311.38,1.0
2018-08-18 11:25:00,89.55901,37.06155,923.334,271.29,85.3,695.0,-2.29,-0.44,-59.49,106.02,76.6,296.88,311.32,105.84,76.77,297.26,311.43,1.0
2018-08-18 11:25:00,89.55901,37.06149,923.426,271.29,85.3,694.2,-4.84,-0.83,-60.5,106.15,76.88,297.35,310.98,105.69,76.75,297.28,311.47,1.0
2018-08-18 11:25:00,89.55901,37.06144,923.42,271.29,85.3,694.3,-5.2,-0.51,-60.94,104.97,76.88,297.56,310.97,105.53,76.75,297.33,311.5,1.0
2018-08-18 11:25:00,89.559,37.06139,923.401,271.29,85.3,694.4,-3.33,-0.29,-60.55,105.63,76.81,297.27,311.55,105.38,76.78,297.39,311.52,1.0
2018-08-18 11:25:00,89.559,37.06133,923.377,271.29,85.3,694.6,-0.31,-0.18,-59.79,105.24,76.81,297.45,311.26,105.23,76.84,297.47,311.5,1.0
2018-08-18 11:25:00,89.559,37.06128,923.341,271.29,85.3,694.9,2.63,-0.11,-59.12,105.37,76.81,297.36,311.26,105.08,76.92,297.56,311.43,1.0
2018-08-18 11:25:00,89.559,37.06122,923.312,271.29,85.3,695.2,4.32,-0.14,-58.7,106.15,76.74,297.55,311.16,104.95,77.01,297.67,311.4,1.0
2018-08-18 11:25:00,89.559,37.06117,923.336,271.29,85.3,695.0,7.94,0.01,-58.13,105.17,76.88,297.26,311.07,104.84,77.1,297.71,311.35,1.0
2018-08-18 11:25:00,89.559,37.06112,923.324,271.29,85.3,695.1,7.95,0.17,-57.46,105.24,76.81,297.26,311.55,104.77,77.18,297.71,311.3,1.0
2018-08-18 11:25:00,89.559,37.06106,923.327,271.29,85.3,695.0,7.37,0.27,-56.78,105.24,76.81,297.45,310.8,104.73,77.23,297.68,311.24,1.0
2018-08-18 11:25:00,89.559,37.06101,923.372,271.29,85.3,694.7,7.62,0.32,-56.09,105.37,76.88,297.29,310.97,104.72,77.24,297.61,311.18,1.0
2018-08-18 11:25:00,89.559,37.06095,923.419,271.29,85.3,694.3,9.09,0.37,-55.38,105.96,76.95,297.4,311.46,104.75,77.21,297.51,311.11,1.0
2018-08-18 11:25:00,89.559,37.06089,923.39,271.29,85.3,694.5,6.78,0.07,-55.17,104.97,76.81,297.27,311.16,104.8,77.14,297.41,311.04,1.0
2018-08-18 11:25:00,89.559,37.0608,923.418,271.29,85.3,694.3,5.91,0.11,-55.71,105.17,76.88,297.17,311.05,104.87,77.03,297.31,310.99,1.0
2018-08-18 11:25:00,89.559,37.06071,923.449,271.29,85.3,694.0,4.79,0.2,-56.63,105.3,76.88,297.08,311.35,104.95,76.89,297.23,310.94,1.0
2018-08-18 11:25:00,89.55899,37.06062,923.435,271.29,85.3,694.1,3.87,0.39,-57.65,104.84,76.81,297.55,311.06,105.02,76.74,297.19,310.92,1.0
2018-08-18 11:25:00,89.55899,37.06052,923.358,271.29,85.3,694.8,3.63,0.73,-58.28,106.02,77.02,297.45,311.24,105.09,76.59,297.18,310.94,1.0
2018-08-18 11:25:00,89.55899,37.06043,923.334,271.29,85.3,695.0,3.3,0.92,-57.16,105.37,76.88,297.55,311.33,105.14,76.46,297.19,310.93,1.0
2018-08-18 11:25:00,89.55899,37.06034,923.383,271.29,85.3,694.6,2.05,0.71,-56.93,105.37,77.02,297.44,311.24,105.17,76.38,297.22,310.92,1.0
2018-08-18 11:25:00,89.55899,37.06025,923.383,271.29,85.3,694.6,0.0,0.83,-56.49,105.37,76.88,297.44,311.24,105.18,76.34,297.27,310.91,1.0
2018-08-18 11:25:00,89.55899,37.06016,923.385,271.29,85.3,694.6,-0.15,0.94,-56.53,105.24,76.74,297.44,311.14,105.17,76.35,297.34,310.91,1.0
2018-08-18 11:25:00,89.55899,37.06007,923.436,271.29,85.3,694.1,2.12,0.9,-57.03,105.5,76.88,297.23,311.14,105.14,76.42,297.42,310.9,1.0
2018-08-18 11:25:00,89.55899,37.05998,923.499,271.3,85.3,693.6,4.7,0.86,-57.11,104.78,76.54,297.31,311.05,105.08,76.53,297.47,310.9,1.0
2018-08-18 11:25:00,89.55899,37.05989,923.463,271.3,85.3,693.9,6.9,0.96,-56.82,104.84,76.67,296.85,310.72,105.01,76.67,297.49,310.88,1.0
2018-08-18 11:25:00,89.55899,37.0598,923.511,271.3,85.3,693.5,6.4,0.95,-56.09,105.63,76.67,296.93,311.05,104.91,76.82,297.47,310.87,1.0
2018-08-18 11:25:00,89.55899,37.05972,923.508,271.3,85.3,693.5,4.54,1.33,-55.09,105.37,76.88,297.06,310.96,104.8,76.96,297.42,310.86,1.0
2018-08-18 11:25:00,89.55898,37.05966,923.427,271.3,85.3,694.2,3.24,1.71,-54.39,105.82,76.81,297.44,311.34,104.68,77.07,297.36,310.85,1.0
2018-08-18 11:25:00,89.55898,37.05959,923.483,271.29,85.3,693.7,4.12,1.5,-54.41,104.84,76.88,297.25,311.04,104.56,77.15,297.29,310.85,1.0
2018-08-18 11:25:00,89.55898,37.05952,923.512,271.3,85.3,693.5,5.96,1.54,-54.15,105.56,76.88,297.16,311.05,104.45,77.18,297.23,310.86,1.0
2018-08-18 11:25:00,89.55898,37.05945,923.471,271.29,85.3,693.8,7.63,1.35,-54.22,104.84,76.88,297.44,311.05,104.37,77.18,297.2,310.89,1.0
2018-08-18 11:25:00,89.55898,37.05938,923.437,271.29,85.3,694.1,9.29,1.48,-54.18,105.04,76.95,297.35,311.04,104.32,77.14,297.2,310.93,1.0
2018-08-18 11:25:00,89.55898,37.05931,923.43,271.3,85.3,694.2,10.48,1.66,-53.97,105.63,76.81,297.44,311.13,104.33,77.08,297.19,310.98,1.0
2018-08-18 11:25:00,89.55898,37.05925,923.438,271.3,85.3,694.1,11.01,1.62,-53.74,105.56,76.88,297.44,311.04,104.39,77.01,297.18,311.02,1.0
2018-08-18 11:25:00,89.55898,37.05918,923.418,271.3,85.3,694.3,11.38,1.46,-54.02,104.78,76.74,297.44,311.04,104.52,76.94,297.18,311.07,1.0
2018-08-18 11:25:00,89.55898,37.05911,923.477,271.29,85.3,693.8,9.59,1.56,-54.64,104.32,76.88,297.24,311.13,104.71,76.89,297.25,311.11,1.0
2018-08-18 11:25:00,89.55898,37.05904,923.475,271.3,85.3,693.8,8.16,1.7,-55.86,105.17,76.81,297.24,311.04,104.95,76.86,297.26,311.15,1.0
2018-08-18 11:25:00,89.55898,37.05897,923.438,271.3,85.3,694.1,6.92,1.98,-55.9,104.97,77.02,297.52,311.33,105.23,76.85,297.25,311.17,1.0
2018-08-18 11:25:00,89.55898,37.0589,923.441,271.3,85.3,694.1,5.96,2.28,-55.14,105.43,76.81,297.34,311.23,105.53,76.84,297.22,311.18,1.0
2018-08-18 11:25:00,89.55898,37.05884,923.525,271.3,85.3,693.4,6.1,2.26,-55.37,104.97,76.81,297.52,310.84,105.84,76.84,297.19,311.18,1.0
2018-08-18 11:25:00,89.55898,37.05877,923.484,271.3,85.3,693.7,7.98,2.35,-55.51,104.84,76.81,298.06,311.13,106.12,76.82,297.17,311.17,1.0
2018-08-18 11:25:00,89.55898,37.05869,923.526,271.3,85.3,693.4,8.94,2.55,-55.34,105.17,76.81,297.45,310.95,106.36,76.79,297.15,311.15,1.0
2018-08-18 11:25:00,89.55898,37.05861,923.527,271.3,85.3,693.3,8.34,2.89,-55.19,106.15,76.88,297.41,311.04,106.53,76.74,297.15,311.12,1.0
2018-08-18 11:25:00,89.55897,37.05853,923.463,271.3,85.3,693.9,7.93,3.02,-55.26,105.24,76.81,297.41,311.03,106.63,76.66,297.16,311.1,1.0
2018-08-18 11:25:00,89.55897,37.05845,923.392,271.3,85.3,694.5,8.71,2.83,-55.6,104.97,77.02,297.22,311.13,106.63,76.57,297.18,311.09,1.0
2018-08-18 11:25:00,89.55897,37.05837,923.469,271.3,85.3,693.8,9.08,2.86,-56.13,105.37,76.81,297.32,311.32,106.53,76.47,297.18,311.12,1.0
2018-08-18 11:25:00,89.55897,37.05829,923.489,271.3,85.3,693.7,4.96,2.42,-55.87,105.04,76.95,297.22,311.23,106.32,76.37,297.14,311.09,1.0
2018-08-18 11:25:00,89.55897,37.05821,923.478,271.3,85.3,693.8,3.09,2.6,-55.5,105.56,76.81,297.23,310.94,106.02,76.3,297.15,311.06,1.0
2018-08-18 11:25:00,89.55897,37.05814,923.484,271.3,85.3,693.7,1.93,2.96,-54.92,104.52,76.74,297.24,311.03,105.63,76.25,297.18,311.03,1.0
2018-08-18 11:26:00,89.55897,37.05806,923.529,271.3,85.3,693.3,0.58,3.26,-54.22,106.09,76.74,297.16,311.42,105.2,76.24,297.19,311.0,1.0
2018-08-18 11:26:00,89.55897,37.05798,923.545,271.29,85.3,693.2,-2.21,2.98,-54.24,105.3,76.67,296.86,311.59,104.74,76.27,297.19,310.96,1.0
2018-08-18 11:26:00,89.55896,37.05792,923.479,271.3,85.3,693.8,-2.45,3.14,-54.69,106.09,76.81,296.82,310.99,104.31,76.35,297.18,310.96,1.0
2018-08-18 11:26:00,89.55896,37.05786,923.526,271.3,85.3,693.4,-0.05,3.13,-55.07,105.82,76.74,297.32,311.02,103.95,76.45,297.16,310.96,1.0
2018-08-18 11:26:00,89.55896,37.0578,923.531,271.3,85.3,693.3,1.17,3.11,-55.03,105.04,76.81,297.33,311.32,103.7,76.58,297.14,310.98,1.0
2018-08-18 11:26:00,89.55896,37.05774,923.494,271.3,85.3,693.6,1.21,3.22,-54.78,104.78,76.47,297.27,311.03,103.6,76.72,297.15,311.01,1.0
2018-08-18 11:26:00,89.55896,37.05768,923.525,271.3,85.3,693.4,1.11,3.49,-54.63,105.37,76.67,297.11,310.53,103.66,76.85,297.17,311.03,1.0
2018-08-18 11:26:00,89.55896,37.05762,923.48,271.3,85.3,693.7,-0.02,3.45,-54.46,104.91,76.67,297.15,311.21,103.9,76.98,297.24,311.03,1.0
2018-08-18 11:26:00,89.55896,37.05756,923.549,271.3,85.3,693.2,-0.24,3.47,-53.51,104.91,76.95,297.24,310.93,104.28,77.08,297.31,311.0,1.0
2018-08-18 11:26:00,89.55896,37.0575,923.548,271.3,85.3,693.2,-0.37,3.72,-52.87,104.71,76.95,297.43,311.22,104.78,77.17,297.39,310.91,1.0
2018-08-18 11:26:00,89.55896,37.05744,923.493,271.3,85.3,693.6,-0.89,3.89,-52.0,104.84,76.67,297.43,311.12,105.33,77.23,297.46,310.84,1.0
2018-08-18 11:26:00,89.55896,37.05737,923.48,271.31,85.3,693.7,-1.56,3.86,-50.68,105.17,76.88,297.34,311.08,105.88,77.26,297.53,310.8,1.0
2018-08-18 11:26:00,89.55896,37.05731,923.54,271.3,85.3,693.2,-1.06,3.95,-49.7,104.97,76.74,297.43,311.49,106.35,77.27,297.58,310.72,1.0
2018-08-18 11:26:00,89.55896,37.05725,923.527,271.3,85.3,693.3,-0.58,4.18,-49.26,106.02,76.81,297.55,310.21,106.69,77.27,297.61,310.63,1.0
2018-08-18 11:26:00,89.55895,37.05719,923.493,271.3,85.3,693.6,2.03,4.15,-49.26,104.91,76.67,297.13,309.49,106.85,77.25,297.62,310.54,1.0
2018-08-18 11:26:00,89.55895,37.05713,923.49,271.3,85.3,693.7,1.88,3.89,-49.6,105.1,76.88,297.12,310.28,106.82,77.22,297.61,310.49,1.0
2018-08-18 11:26:00,89.55895,37.05707,923.496,271.3,85.3,693.6,-0.29,3.73,-50.19,105.3,76.88,297.15,310.79,106.61,77.17,297.58,310.47,1.0
2018-08-18 11:26:00,89.55895,37.05702,923.447,271.3,85.3,694.0,-1.64,3.87,-50.82,105.56,76.88,297.51,310.6,106.26,77.12,297.54,310.47,1.0
2018-08-18 11:26:00,89.55895,37.05696,923.489,271.31,85.3,693.7,-2.09,3.56,-50.76,105.5,77.02,297.23,310.68,105.81,77.05,297.49,310.49,1.0
2018-08-18 11:26:00,89.55895,37.0569,923.522,271.3,85.3,693.4,-4.15,3.75,-52.02,105.56,76.67,297.23,310.87,105.34,76.99,297.44,310.61,1.0
2018-08-18 11:26:00,89.55895,37.05684,923.532,271.3,85.3,693.3,-6.1,3.65,-52.5,105.56,76.88,297.51,310.98,104.91,76.93,297.41,310.8,1.0
2018-08-18 11:26:00,89.55895,37.05678,923.519,271.3,85.3,693.4,-6.1,3.53,-52.6,105.63,76.88,297.42,311.01,104.58,76.87,297.39,310.91,1.0
2018-08-18 11:26:00,89.55895,37.05672,923.491,271.3,85.3,693.7,-4.12,3.57,-52.86,105.5,76.88,297.43,311.01,104.38,76.83,297.38,310.94,1.0
2018-08-18 11:26:00,89.55894,37.05667,923.481,271.3,85.3,693.7,-3.4,3.47,-53.53,104.52,77.02,297.23,311.2,104.33,76.81,297.36,311.05,1.0
2018-08-18 11:26:00,89.55894,37.05661,923.479,271.3,85.3,693.8,-1.31,3.58,-52.97,105.24,76.88,297.32,310.72,104.44,76.81,297.37,311.13,1.0
2018-08-18 11:26:00,89.55894,37.05655,923.481,271.3,85.3,693.7,0.05,3.59,-52.54,104.78,76.95,297.33,311.02,104.65,76.84,297.38,311.17,1.0
2018-08-18 11:26:00,89.55894,37.0565,923.498,271.3,85.3,693.6,-0.08,3.38,-52.19,105.04,76.67,297.33,310.5,104.94,76.88,297.39,311.15,1.0
2018-08-18 11:26:00,89.55894,37.05644,923.539,271.3,85.4,693.2,-0.81,3.21,-51.8,105.17,76.81,297.19,309.92,105.25,76.94,297.4,311.11,1.0
2018-08-18 11:26:00,89.55894,37.05639,923.6,271.29,85.4,692.7,-0.21,3.5,-51.26,105.96,76.6,297.26,310.8,105.53,77.01,297.42,311.06,1.0
2018-08-18 11:26:00,89.55894,37.05634,923.592,271.29,85.4,692.8,2.26,3.63,-51.05,105.56,76.88,297.2,311.0,105.75,77.09,297.45,311.01,1.0
2018-08-18 11:26:00,89.55894,37.05628,923.523,271.3,85.4,693.4,4.04,3.61,-51.01,104.97,76.95,297.4,311.19,105.88,77.17,297.47,310.98,1.0
2018-08-18 11:26:00,89.55894,37.05623,923.491,271.3,85.4,693.7,3.7,3.46,-50.55,104.71,77.02,297.4,311.0,105.93,77.24,297.5,310.98,1.0
2018-08-18 11:26:00,89.55894,37.05618,923.495,271.3,85.4,693.6,3.45,3.31,-50.12,105.5,76.81,297.21,311.1,105.9,77.3,297.53,311.08,1.0
2018-08-18 11:26:00,89.55894,37.05612,923.494,271.29,85.4,693.6,4.68,3.22,-50.3,105.76,77.02,297.21,311.1,105.81,77.36,297.55,311.23,1.0
2018-08-18 11:26:00,89.55894,37.05607,923.472,271.3,85.4,693.8,4.35,3.02,-51.35,104.78,77.02,297.31,311.18,105.7,77.4,297.59,311.31,1.0
2018-08-18 11:26:00,89.55893,37.05602,923.489,271.3,85.4,693.7,4.93,3.29,-52.15,105.89,76.81,297.49,311.09,105.58,77.43,297.59,311.39,1.0
2018-08-18 11:26:00,89.55893,37.05597,923.467,271.3,85.4,693.9,3.32,3.0,-52.82,104.97,77.02,297.4,310.9,105.48,77.45,297.58,311.45,1.0
2018-08-18 11:26:00,89.55893,37.05591,923.454,271.29,85.4,694.0,1.55,2.59,-53.13,105.04,76.88,297.36,311.13,105.41,77.45,297.55,311.49,1.0
2018-08-18 11:26:00,89.55893,37.05584,923.498,271.3,85.4,693.6,1.55,2.38,-53.03,106.35,76.81,297.15,311.41,105.37,77.43,297.51,311.49,1.0
2018-08-18 11:26:00,89.55893,37.05577,923.547,271.3,85.4,693.2,3.71,2.28,-52.8,104.84,77.09,297.2,311.18,105.36,77.39,297.46,311.45,1.0
2018-08-18 11:26:00,89.55893,37.05569,923.515,271.3,85.4,693.4,4.38,2.53,-52.56,105.63,76.95,297.4,310.98,105.36,77.32,297.42,311.37,1.0
2018-08-18 11:26:00,89.55893,37.05561,923.536,271.29,85.4,693.3,2.16,2.82,-52.25,105.04,77.09,297.3,311.08,105.36,77.23,297.39,311.28,1.0
2018-08-18 11:26:00,89.55893,37.05553,923.576,271.29,85.4,692.9,2.01,2.81,-51.79,105.1,77.02,297.39,311.18,105.35,77.11,297.38,311.19,1.0
2018-08-18 11:26:00,89.55893,37.05545,923.589,271.3,85.4,692.8,3.92,2.8,-51.26,104.91,77.02,297.38,310.99,105.34,76.97,297.38,311.08,1.0
2018-08-18 11:26:00,89.55892,37.05537,923.54,271.3,85.4,693.2,6.31,3.12,-50.9,105.69,76.95,297.67,311.28,105.32,76.82,297.4,310.99,1.0
2018-08-18 11:26:00,89.55892,37.05529,923.579,271.3,85.4,692.9,9.83,3.13,-50.98,105.04,77.09,297.31,311.17,105.3,76.67,297.44,310.96,1.0
2018-08-18 11:26:00,89.55892,37.05521,923.564,271.29,85.4,693.0,9.4,3.14,-51.01,106.02,77.02,297.59,311.09,105.29,76.55,297.5,310.96,1.0
2018-08-18 11:26:00,89.55892,37.05513,923.578,271.29,85.4,692.9,8.63,3.0,-51.32,105.1,77.02,297.4,311.09,105.3,76.45,297.54,310.99,1.0
2018-08-18 11:26:00,89.55892,37.05506,923.597,271.29,85.4,692.7,8.81,2.89,-51.89,105.89,77.02,297.33,311.17,105.32,76.4,297.56,311.04,1.0
2018-08-18 11:26:00,89.55892,37.05498,923.561,271.29,85.4,693.1,10.08,2.91,-52.5,106.02,76.95,297.08,310.87,105.35,76.41,297.56,311.08,1.0
2018-08-18 11:26:00,89.55892,37.0549,923.498,271.29,85.4,693.6,10.91,2.85,-52.79,104.12,76.88,297.38,311.27,105.39,76.46,297.52,311.12,1.0
2018-08-18 11:26:00,89.55892,37.05482,923.554,271.29,85.4,693.1,10.61,3.08,-52.62,105.37,76.81,297.38,310.83,105.41,76.55,297.45,311.13,1.0
2018-08-18 11:26:00,89.55892,37.05471,923.491,271.29,85.4,693.7,11.81,2.65,-51.42,104.32,76.81,297.38,311.02,105.41,76.68,297.37,311.11,1.0
2018-08-18 11:26:00,89.55892,37.05459,923.476,271.29,85.4,693.8,12.91,2.64,-51.03,106.28,76.67,297.2,311.17,105.38,76.82,297.28,311.06,1.0
2018-08-18 11:26:00,89.55892,37.05446,923.582,271.3,85.4,692.9,13.71,2.88,-51.39,105.1,76.81,297.21,310.69,105.31,76.96,297.21,311.0,1.0
2018-08-18 11:26:00,89.55891,37.05434,923.539,271.3,85.4,693.2,14.65,2.46,-51.26,105.37,77.02,297.29,311.07,105.23,77.09,297.19,310.95,1.0
2018-08-18 11:26:00,89.55891,37.05421,923.698,271.3,85.4,691.9,12.58,2.6,-51.66,105.1,77.02,297.38,310.98,105.16,77.18,297.18,310.86,1.0
2018-08-18 11:26:00,89.55891,37.05409,923.654,271.3,85.4,692.3,9.16,3.0,-52.23,105.96,77.02,297.48,310.98,105.11,77.23,297.2,310.84,1.0
2018-08-18 11:26:00,89.55891,37.05396,923.599,271.3,85.4,692.7,6.06,2.96,-53.0,106.02,76.88,297.48,311.07,105.13,77.26,297.26,310.86,1.0
2018-08-18 11:26:00,89.55891,37.05383,923.592,271.29,85.4,692.8,3.63,2.67,-53.95,105.3,77.09,297.48,311.17,105.23,77.25,297.34,310.91,1.0
2018-08-18 11:26:00,89.55891,37.05371,923.607,271.29,85.4,692.7,1.58,2.47,-54.96,105.1,76.95,297.48,311.1,105.44,77.23,297.41,310.99,1.0
2018-08-18 11:26:00,89.55891,37.05358,923.7,271.29,85.4,691.9,-2.0,2.21,-55.83,104.71,77.02,297.38,310.79,105.74,77.2,297.47,311.08,1.0
2018-08-18 11:26:00,89.55891,37.05348,923.62,271.3,85.4,692.6,-4.29,2.1,-55.75,104.71,76.88,297.48,310.9,106.13,77.18,297.48,311.16,1.0
2018-08-18 11:26:00,89.5589,37.0534,923.589,271.29,85.4,692.8,-3.41,2.04,-56.15,105.17,76.88,297.29,310.96,106.55,77.18,297.44,311.2,1.0
2018-08-18 11:26:00,89.5589,37.05332,923.591,271.29,85.4,692.8,-2.27,2.01,-56.67,105.76,76.81,297.09,311.06,106.97,77.18,297.35,311.2,1.0
2018-08-18 11:26:00,89.5589,37.05324,923.568,271.3,85.4,693.0,-1.89,1.93,-56.96,105.82,76.95,297.37,310.98,107.31,77.19,297.22,311.13,1.0
2018-08-18 11:26:00,89.5589,37.05316,923.511,271.3,85.4,693.5,-0.8,1.7,-56.71,104.91,77.09,297.27,311.17,107.54,77.19,297.06,311.02,1.0
2018-08-18 11:26:00,89.5589,37.05308,923.552,271.3,85.4,693.1,-2.37,1.61,-56.55,105.69,76.95,297.27,310.96,107.59,77.16,296.9,310.93,1.0
2018-08-18 11:26:00,89.5589,37.053,923.589,271.29,85.4,692.8,-2.83,1.39,-56.47,105.89,77.09,297.19,311.15,107.46,77.1,296.75,310.75,1.0
2018-08-18 11:26:00,89.5589,37.05292,923.584,271.29,85.4,692.9,-3.86,1.33,-56.28,106.15,77.09,297.55,311.15,107.13,77.0,296.66,310.55,1.0
2018-08-18 11:26:00,89.5589,37.05284,923.569,271.3,85.4,693.0,-5.97,1.22,-56.06,105.63,77.09,297.45,310.96,106.64,76.85,296.63,310.39,1.0
2018-08-18 11:26:00,89.5589,37.05276,923.629,271.29,85.4,692.5,-8.35,0.76,-55.96,105.76,76.88,297.46,311.23,106.03,76.66,296.67,310.28,1.0
2018-08-18 11:26:00,89.5589,37.05268,923.566,271.29,85.4,693.0,-6.85,0.91,-55.48,105.5,76.95,297.46,311.69,105.37,76.44,296.76,310.25,1.0
2018-08-18 11:26:00,89.5589,37.0526,923.624,271.3,85.4,692.5,-7.12,1.03,-54.31,105.69,77.09,297.26,311.3,104.74,76.22,296.9,310.27,1.0
2018-08-18 11:26:00,89.5589,37.05252,923.643,271.3,85.4,692.4,-5.9,1.11,-53.51,105.89,76.81,297.4,311.02,104.19,76.03,297.19,310.43,1.0
2018-08-18 11:26:00,89.55889,37.05245,923.633,271.29,85.4,692.4,-4.56,1.24,-53.08,106.48,77.02,297.35,311.24,103.8,75.88,297.44,310.67,1.0
2018-08-18 11:26:00,89.55889,37.05239,923.66,271.3,85.4,692.2,-4.11,1.48,-52.91,105.1,76.88,297.17,311.14,103.59,75.82,297.51,310.92,1.0
2018-08-18 11:26:00,89.55889,37.05232,923.671,271.3,85.4,692.1,-3.06,1.92,-53.04,105.3,76.88,297.16,311.13,103.59,75.84,297.58,311.14,1.0
2018-08-18 11:26:00,89.55889,37.05225,923.638,271.29,85.4,692.4,-3.94,2.03,-53.48,105.24,76.88,296.9,310.68,103.77,75.96,297.61,311.3,1.0
2018-08-18 11:26:00,89.55889,37.05218,923.64,271.3,85.5,692.4,-2.86,2.32,-54.21,104.91,76.88,298.41,311.07,104.12,76.17,297.57,311.42,1.0
2018-08-18 11:26:00,89.55889,37.05211,923.649,271.3,85.5,692.3,-2.65,2.71,-54.41,104.97,76.47,298.16,310.87,104.56,76.45,297.49,311.49,1.0
2018-08-18 11:26:00,89.55889,37.05204,923.635,271.3,85.5,692.4,-4.01,2.91,-54.66,105.3,76.6,296.38,310.51,105.05,76.78,297.4,311.48,1.0
2018-08-18 11:26:00,89.55889,37.05198,923.576,271.29,85.5,692.9,-5.73,2.46,-56.57,106.15,76.6,297.03,310.36,105.53,77.12,297.32,311.4,1.0
2018-08-18 11:26:00,89.55889,37.05191,923.601,271.3,85.4,692.7,-9.43,2.11,-56.89,105.17,76.81,297.26,310.46,105.93,77.46,297.26,311.27,1.0
2018-08-18 11:26:00,89.55888,37.05184,923.558,271.3,85.5,693.1,-10.17,2.08,-56.48,104.84,76.88,297.12,310.41,106.22,77.74,297.26,311.17,1.0
2018-08-18 11:26:00,89.55888,37.05177,923.586,271.3,85.5,692.8,-9.9,1.95,-56.41,105.96,77.02,296.96,310.81,106.37,77.96,297.17,311.02,1.0
2018-08-18 11:26:00,89.55888,37.0517,923.653,271.3,85.5,692.3,-8.37,1.56,-56.82,105.56,76.81,297.43,310.85,106.38,78.11,297.17,310.9,1.0
2018-08-18 11:26:00,89.55888,37.05163,923.608,271.3,85.5,692.7,-5.88,1.07,-57.26,105.56,77.02,297.15,310.94,106.28,78.17,297.34,310.88,1.0
2018-08-18 11:26:00,89.55888,37.05156,923.562,271.3,85.5,693.1,-6.43,1.42,-56.6,104.97,77.02,297.43,311.23,106.09,78.15,297.49,310.96,1.0
2018-08-18 11:26:00,89.55888,37.05149,923.572,271.29,85.5,693.0,-5.65,1.36,-56.31,106.09,77.02,297.16,311.14,105.84,78.07,297.63,311.1,1.0
2018-08-18 11:26:00,89.55888,37.05142,923.632,271.3,85.5,692.5,-4.18,1.36,-55.92,105.37,77.09,297.44,311.23,105.59,77.94,297.76,311.3,1.0
2018-08-18 11:26:00,89.55888,37.05135,923.695,271.3,85.5,691.9,-2.87,1.44,-55.58,105.63,77.02,297.34,311.23,105.37,77.79,297.86,311.52,1.0
2018-08-18 11:26:00,89.55888,37.05128,923.71,271.3,85.5,691.8,-2.77,1.62,-55.34,105.5,76.95,297.43,311.23,105.21,77.63,297.89,311.74,1.0
2018-08-18 11:26:00,89.55888,37.0512,923.643,271.29,85.5,692.4,-4.99,1.92,-55.02,105.63,77.16,297.34,311.22,105.13,77.48,297.88,311.93,1.0
2018-08-18 11:26:00,89.55888,37.05113,923.754,271.3,85.5,691.4,-5.49,2.02,-54.84,105.37,77.16,297.15,311.33,105.13,77.35,297.83,312.06,1.0
2018-08-18 11:26:00,89.55887,37.05106,923.786,271.3,85.5,691.1,-8.49,2.03,-54.95,104.84,77.16,297.43,311.23,105.19,77.26,297.74,312.11,1.0
2018-08-18 11:26:00,89.55887,37.05099,923.739,271.3,85.5,691.5,-12.13,2.1,-55.73,106.22,76.95,297.43,311.12,105.29,77.19,297.64,312.07,1.0
2018-08-18 11:26:00,89.55887,37.05092,923.679,271.3,85.5,692.1,-14.13,1.99,-56.71,104.78,77.02,297.34,311.32,105.4,77.15,297.53,311.96,1.0
2018-08-18 11:26:00,89.55887,37.05085,923.714,271.29,85.5,691.8,-12.45,1.46,-56.97,105.63,76.95,297.62,311.12,105.49,77.13,297.44,311.79,1.0
2018-08-18 11:26:00,89.55887,37.05078,923.672,271.29,85.5,692.1,-9.93,2.09,-56.68,106.02,77.23,297.15,311.22,105.52,77.13,297.37,311.58,1.0
2018-08-18 11:26:00,89.55887,37.05071,923.698,271.3,85.5,691.9,-8.71,1.94,-56.34,105.1,77.09,297.34,310.94,105.48,77.13,297.31,311.36,1.0
2018-08-18 11:26:00,89.55887,37.05064,923.705,271.3,85.5,691.8,-8.96,2.18,-56.35,105.63,77.23,297.34,311.03,105.35,77.13,297.2,311.17,1.0
2018-08-18 11:26:00,89.55887,37.05056,923.679,271.3,85.5,692.1,-9.83,2.24,-56.39,105.1,77.02,297.34,311.32,105.15,77.13,297.13,311.01,1.0
2018-08-18 11:26:00,89.55887,37.05049,923.655,271.3,85.5,692.3,-10.46,1.87,-56.36,105.63,77.02,297.71,310.93,104.9,77.11,297.13,310.9,1.0
2018-08-18 11:26:00,89.55887,37.05042,923.703,271.29,85.5,691.8,-10.25,1.92,-56.85,105.24,77.02,297.24,311.21,104.63,77.08,297.14,310.84,1.0
2018-08-18 11:26:00,89.55886,37.05035,923.658,271.3,85.5,692.2,-11.06,2.08,-55.95,106.22,77.16,297.33,311.21,104.39,77.03,297.15,310.84,1.0
2018-08-18 11:26:00,89.55886,37.05028,923.669,271.3,85.5,692.1,-13.53,1.91,-56.1,105.17,77.16,296.24,311.36,104.22,76.98,297.16,310.89,1.0
2018-08-18 11:26:00,89.55886,37.05021,923.7,271.3,85.5,691.9,-16.39,1.66,-56.47,105.17,76.95,296.57,310.95,104.15,76.92,297.12,310.96,1.0
2018-08-18 11:26:00,89.55886,37.05014,923.694,271.29,85.5,691.9,-18.38,1.48,-56.73,104.97,77.16,297.15,311.12,104.23,76.85,297.02,311.03,1.0
2018-08-18 11:26:00,89.55886,37.05007,923.625,271.3,85.5,692.5,-18.94,1.34,-57.22,106.02,76.95,297.43,311.21,104.46,76.79,296.95,311.11,1.0
2018-08-18 11:26:00,89.55886,37.05,923.62,271.29,85.5,692.6,-17.07,1.31,-57.87,104.71,77.16,297.42,311.32,104.83,76.75,296.96,311.17,1.0
2018-08-18 11:26:00,89.55886,37.04993,923.688,271.29,85.5,692.0,-13.56,1.15,-57.6,105.24,77.16,297.23,311.21,105.31,76.71,296.97,311.21,1.0
2018-08-18 11:26:00,89.55886,37.04986,923.719,271.29,85.5,691.7,-11.39,1.25,-57.26,105.17,77.09,296.68,310.86,105.85,76.7,297.06,311.2,1.0
2018-08-18 11:26:00,89.55886,37.04979,923.691,271.3,85.5,691.9,-10.72,1.25,-57.13,104.78,76.95,296.16,311.02,106.41,76.71,297.13,311.16,1.0
2018-08-18 11:26:00,89.55886,37.0497,923.649,271.3,85.5,692.3,-10.52,0.86,-57.27,105.82,76.95,296.19,310.94,106.9,76.74,297.12,311.1,1.0
2018-08-18 11:26:00,89.55886,37.04957,923.751,271.29,85.5,691.4,-8.04,0.68,-57.54,105.1,77.02,297.12,310.91,107.27,76.79,297.1,311.02,1.0
2018-08-18 11:26:00,89.55886,37.04944,923.705,271.3,85.5,691.8,-8.74,0.86,-59.05,105.04,76.88,297.6,311.11,107.48,76.84,297.07,310.92,1.0
2018-08-18 11:26:00,89.55885,37.0493,923.762,271.29,85.5,691.3,-8.21,0.84,-59.01,106.02,77.09,297.14,311.2,107.48,76.9,297.04,310.82,1.0
2018-08-18 11:26:00,89.55885,37.04917,923.792,271.29,85.5,691.1,-7.78,0.87,-58.24,105.3,77.02,297.42,311.2,107.29,76.94,297.06,310.73,1.0
2018-08-18 11:26:00,89.55885,37.04904,923.692,271.29,85.5,691.9,-7.05,1.05,-57.64,105.82,76.95,297.32,311.11,106.9,76.98,297.13,310.66,1.0
2018-08-18 11:26:00,89.55885,37.04891,923.703,271.29,85.5,691.8,-3.0,1.22,-57.59,105.89,77.02,297.4,311.2,106.35,76.99,297.19,310.62,1.0
2018-08-18 11:26:00,89.55885,37.04877,923.752,271.29,85.5,691.4,-3.51,1.34,-57.16,105.76,77.09,297.31,310.91,105.71,76.97,297.17,310.59,1.0
2018-08-18 11:26:00,89.55885,37.04864,923.762,271.29,85.5,691.3,-4.0,1.54,-57.52,105.89,77.09,297.4,311.3,105.03,76.93,297.18,310.59,1.0
2018-08-18 11:26:00,89.55885,37.04853,923.773,271.29,85.5,691.3,-6.36,1.42,-57.69,106.02,76.81,297.32,311.1,104.39,76.88,297.19,310.71,1.0
2018-08-18 11:26:00,89.55884,37.04846,923.797,271.3,85.5,691.0,-8.96,1.19,-57.92,105.17,77.02,297.41,311.1,103.84,76.81,297.21,310.85,1.0
2018-08-18 11:26:00,89.55884,37.04838,923.799,271.3,85.5,691.0,-9.21,1.23,-58.9,105.96,76.95,297.3,311.3,103.44,76.75,297.26,310.92,1.0
2018-08-18 11:26:00,89.55884,37.0483,923.739,271.29,85.5,691.5,-8.09,1.14,-59.94,105.76,77.3,297.57,311.21,103.21,76.7,297.31,311.0,1.0
2018-08-18 11:26:00,89.55884,37.04823,923.759,271.3,85.5,691.4,-9.25,1.17,-60.35,104.32,77.02,297.39,310.92,103.16,76.67,297.36,311.07,1.0
2018-08-18 11:26:00,89.55884,37.04815,923.772,271.3,85.5,691.3,-10.36,1.11,-60.78,104.84,76.81,297.0,311.68,103.3,76.68,297.35,311.24,1.0
2018-08-18 11:26:00,89.55884,37.04807,923.738,271.29,85.5,691.6,-11.37,1.19,-60.53,104.58,76.88,296.89,311.83,103.6,76.72,297.38,311.37,1.0
2018-08-18 11:26:00,89.55884,37.048,923.66,271.29,85.5,692.2,-12.11,1.46,-59.51,105.76,76.95,297.11,310.81,104.01,76.8,297.43,311.4,1.0
2018-08-18 11:26:00,89.55884,37.04792,923.755,271.3,85.5,691.4,-11.17,1.44,-59.77,105.56,77.02,297.29,311.1,104.51,76.9,297.38,311.41,1.0
2018-08-18 11:26:00,89.55884,37.04784,923.769,271.29,85.5,691.3,-7.98,1.45,-59.65,105.43,76.81,297.4,311.12,105.04,77.01,297.33,311.39,1.0
2018-08-18 11:26:00,89.55884,37.04777,923.804,271.3,85.6,691.0,-6.55,1.4,-59.06,105.17,76.81,296.96,312.08,105.56,77.12,297.27,311.37,1.0
2018-08-18 11:26:00,89.55883,37.04769,923.83,271.3,85.6,690.8,-6.17,1.44,-58.86,105.82,77.02,297.4,311.76,106.03,77.22,297.24,311.26,1.0
2018-08-18 11:26:00,89.55883,37.04761,923.818,271.29,85.5,690.9,-6.1,1.67,-58.98,104.65,77.02,297.9,310.71,106.43,77.29,297.23,311.15,1.0
2018-08-18 11:26:00,89.55883,37.04756,923.837,271.29,85.5,690.7,-6.1,2.05,-58.35,104.19,77.02,297.1,310.51,106.73,77.33,297.23,311.15,1.0
2018-08-18 11:26:00,89.55883,37.0475,923.773,271.29,85.5,691.3,-8.22,2.4,-57.48,105.63,77.02,297.38,310.81,106.93,77.33,297.25,311.17,1.0
2018-08-18 11:26:00,89.55883,37.04745,923.878,271.29,85.5,690.4,-12.4,2.78,-55.82,105.76,77.16,297.39,311.09,107.03,77.29,297.29,311.21,1.0
2018-08-18 11:26:00,89.55883,37.0474,923.895,271.29,85.5,690.2,-16.05,2.58,-55.69,105.43,77.02,297.39,311.1,107.03,77.22,297.36,311.16,1.0
2018-08-18 11:26:00,89.55883,37.04734,923.832,271.29,85.5,690.8,-18.66,2.22,-56.44,105.17,76.95,297.38,311.29,106.94,77.14,297.39,311.14,1.0
2018-08-18 11:26:00,89.55883,37.04729,923.845,271.29,85.5,690.6,-20.19,2.12,-56.92,106.15,77.02,297.29,311.0,106.78,77.05,297.36,311.2,1.0
2018-08-18 11:26:00,89.55883,37.04723,923.903,271.29,85.6,690.1,-20.81,1.81,-57.3,105.56,76.88,297.38,311.1,106.57,76.97,297.38,311.25,1.0
2018-08-18 11:26:00,89.55882,37.04718,923.854,271.29,85.6,690.6,-22.2,1.92,-57.85,105.1,77.09,297.2,311.09,106.33,76.9,297.39,311.27,1.0
2018-08-18 11:26:00,89.55882,37.04712,923.841,271.29,85.6,690.7,-23.03,1.84,-57.89,106.02,77.02,297.2,311.19,106.09,76.85,297.37,311.27,1.0
2018-08-18 11:26:00,89.55882,37.04707,923.834,271.29,85.6,690.7,-24.25,1.68,-58.03,105.63,77.02,297.29,311.19,105.85,76.82,297.34,311.25,1.0
