Date/Time,Latitude,Longitude,PPPP [hPa],TTT grad [K],RH [%],Height [m],Pitch [deg],Roll [deg],Yaw [deg],SWD [W/m**2] (raw),SWU [W/m**2] (raw),LWD [W/m**2] (raw),LWU [W/m**2] (raw),SWD [W/m**2] (corrected),SWU [W/m**2] (corrected),LWD [W/m**2] (corrected),LWU [W/m**2] (corrected),Flag
2018-08-18 15:03:00,89.56584,38.42677,899.048,269.09,91.3,910.5,-1.39,0.7,-60.74,90.9,78.81,294.67,301.6,90.29,78.95,294.48,301.77,1.0
2018-08-18 15:03:00,89.56584,38.42669,899.099,269.09,91.3,910.0,-0.94,0.71,-60.36,92.34,78.74,294.39,301.69,90.83,78.86,294.46,301.71,1.0
2018-08-18 15:03:00,89.56584,38.4266,899.152,269.09,91.3,909.6,-0.67,0.8,-59.92,91.95,78.68,294.39,301.49,91.44,78.78,294.4,301.63,1.0
2018-08-18 15:03:00,89.56584,38.42652,899.133,269.09,91.3,909.8,-0.24,0.8,-59.78,91.3,78.88,294.48,301.78,92.05,78.71,294.33,301.54,1.0
2018-08-18 15:03:00,89.56584,38.42644,899.089,269.1,91.3,910.1,-0.21,0.66,-59.96,91.75,78.68,294.67,301.88,92.6,78.66,294.29,301.44,1.0
2018-08-18 15:03:00,89.56584,38.42636,899.098,269.09,91.3,910.1,-0.5,0.44,-60.34,92.21,78.88,294.39,301.58,93.03,78.63,294.29,301.35,1.0
2018-08-18 15:03:00,89.56584,38.42627,899.085,269.09,91.3,910.2,0.8,0.26,-60.82,92.02,78.68,294.55,301.37,93.33,78.62,294.3,301.28,1.0
2018-08-18 15:03:00,89.56584,38.42619,899.102,269.09,91.3,910.0,1.98,0.47,-60.99,90.64,78.74,293.92,301.77,93.48,78.63,294.32,301.24,1.0
2018-08-18 15:03:00,89.56584,38.4261,899.151,269.09,91.3,909.6,3.13,0.41,-61.3,91.56,78.68,293.85,301.69,93.51,78.65,294.36,301.24,1.0
2018-08-18 15:03:00,89.56584,38.42602,899.153,269.09,91.3,909.6,3.37,0.39,-61.63,91.69,78.74,294.2,301.49,93.45,78.68,294.42,301.27,1.0
2018-08-18 15:03:00,89.56584,38.42594,899.09,269.09,91.3,910.1,2.77,0.5,-61.93,92.93,78.74,294.4,301.78,93.34,78.72,294.46,301.33,1.0
2018-08-18 15:03:00,89.56583,38.42585,899.092,269.09,91.3,910.1,2.26,0.55,-62.2,92.8,78.74,294.58,301.79,93.22,78.76,294.47,301.4,1.0
2018-08-18 15:03:00,89.56583,38.42577,899.124,269.09,91.3,909.8,2.32,0.28,-62.33,91.49,78.81,294.39,301.68,93.13,78.8,294.52,301.47,1.0
2018-08-18 15:03:00,89.56583,38.42569,899.154,269.1,91.3,909.6,2.51,0.16,-62.63,91.95,78.74,294.57,301.59,93.09,78.84,294.6,301.53,1.0
2018-08-18 15:03:00,89.56583,38.4256,899.16,269.1,91.3,909.5,2.92,0.12,-62.83,91.95,78.88,294.28,301.69,93.11,78.89,294.67,301.55,1.0
2018-08-18 15:03:00,89.56583,38.42548,899.149,269.1,91.3,909.6,3.19,0.13,-62.81,93.32,78.68,294.17,301.28,93.16,78.93,294.69,301.55,1.0
2018-08-18 15:03:00,89.56583,38.42537,899.146,269.09,91.3,909.6,3.0,0.17,-62.57,91.75,78.68,294.11,301.54,93.23,78.97,294.68,301.51,1.0
2018-08-18 15:03:00,89.56583,38.42525,899.1,269.09,91.3,910.0,3.59,-0.06,-62.51,91.23,78.68,294.04,301.48,93.29,79.01,294.64,301.45,1.0
2018-08-18 15:03:00,89.56583,38.42514,899.111,269.09,91.3,909.9,4.58,-0.14,-61.99,91.16,78.81,294.28,301.0,93.3,79.03,294.61,301.37,1.0
2018-08-18 15:03:00,89.56583,38.42502,899.124,269.09,91.3,909.8,3.22,-0.21,-61.54,92.87,78.88,294.56,301.58,93.24,79.03,294.57,301.31,1.0
2018-08-18 15:03:00,89.56583,38.42491,899.118,269.09,91.3,909.9,1.85,-0.19,-61.14,91.75,78.68,294.66,301.58,93.1,79.02,294.55,301.26,1.0
2018-08-18 15:03:00,89.56583,38.42479,899.106,269.1,91.3,910.0,2.38,-0.15,-60.79,92.54,78.88,294.56,301.58,92.88,78.98,294.55,301.24,1.0
2018-08-18 15:03:00,89.56583,38.42467,899.134,269.09,91.3,909.7,4.18,-0.51,-60.79,94.18,78.74,294.66,301.78,92.61,78.92,294.61,301.26,1.0
2018-08-18 15:03:00,89.56583,38.42456,899.143,269.09,91.3,909.7,1.88,-0.38,-61.33,91.88,78.88,294.58,301.5,92.3,78.84,294.63,301.32,1.0
2018-08-18 15:03:00,89.56583,38.42444,899.116,269.09,91.3,909.9,0.48,-0.44,-61.91,91.75,78.74,294.57,301.5,92.02,78.76,294.67,301.4,1.0
2018-08-18 15:03:00,89.56583,38.42433,899.12,269.09,91.3,909.9,-0.27,-0.68,-62.46,92.08,78.88,294.76,301.39,91.79,78.67,294.72,301.52,1.0
2018-08-18 15:03:00,89.56583,38.42421,899.159,269.1,91.3,909.5,-0.21,-0.89,-62.92,92.28,78.81,294.48,301.68,91.65,78.6,294.77,301.67,1.0
2018-08-18 15:03:00,89.56583,38.4241,899.158,269.09,91.3,909.5,1.01,-0.84,-63.24,92.54,78.88,294.56,301.78,91.62,78.55,294.8,301.79,1.0
2018-08-18 15:03:00,89.56583,38.42399,899.187,269.09,91.3,909.3,2.88,-0.34,-63.57,91.82,78.88,294.66,301.68,91.72,78.53,294.81,301.85,1.0
2018-08-18 15:03:00,89.56582,38.42388,899.17,269.1,91.3,909.4,5.01,-0.43,-63.32,92.47,78.54,294.85,301.39,91.94,78.54,294.81,301.86,1.0
2018-08-18 15:03:00,89.56582,38.42377,899.144,269.1,91.3,909.6,5.62,-0.6,-63.09,92.47,78.74,294.51,301.99,92.24,78.59,294.78,301.84,1.0
2018-08-18 15:03:00,89.56582,38.42365,899.124,269.1,91.3,909.8,5.27,-0.51,-63.01,90.77,78.68,294.62,302.16,92.61,78.67,294.73,301.79,1.0
2018-08-18 15:03:00,89.56582,38.42354,899.113,269.09,91.3,909.9,4.89,-0.12,-63.03,91.49,78.74,294.59,302.01,93.0,78.77,294.67,301.73,1.0
2018-08-18 15:03:00,89.56582,38.42343,899.147,269.09,91.3,909.6,5.29,0.01,-62.86,93.26,78.74,294.28,301.53,93.38,78.86,294.61,301.68,1.0
2018-08-18 15:03:00,89.56582,38.42332,899.16,269.09,91.3,909.5,3.51,-0.2,-63.05,92.67,78.74,294.56,301.53,93.71,78.94,294.55,301.64,1.0
2018-08-18 15:03:00,89.56582,38.4232,899.177,269.09,91.3,909.4,2.32,-0.1,-63.55,91.88,78.88,294.47,301.87,93.98,79.0,294.5,301.62,1.0
2018-08-18 15:03:00,89.56582,38.42309,899.173,269.09,91.3,909.4,0.65,-0.01,-63.89,93.19,78.74,294.38,301.58,94.16,79.02,294.45,301.6,1.0
2018-08-18 15:03:00,89.56582,38.42298,899.141,269.09,91.3,909.7,-0.85,-0.03,-63.66,92.34,78.88,294.66,301.58,94.25,79.01,294.38,301.62,1.0
2018-08-18 15:03:00,89.56582,38.42287,899.126,269.09,91.3,909.8,-0.17,0.04,-62.72,92.02,78.68,294.75,301.59,94.25,78.97,294.33,301.74,1.0
2018-08-18 15:03:00,89.56582,38.4228,899.158,269.09,91.3,909.5,0.65,0.36,-62.3,92.67,78.88,294.47,301.29,94.17,78.91,294.34,301.78,1.0
2018-08-18 15:03:00,89.56582,38.42274,899.192,269.09,91.3,909.2,0.91,0.48,-62.26,92.15,78.81,294.67,301.77,94.02,78.83,294.4,301.84,1.0
2018-08-18 15:03:00,89.56582,38.42267,899.212,269.09,91.3,909.0,1.61,0.42,-62.38,92.93,78.88,294.32,301.58,93.8,78.76,294.47,301.88,1.0
2018-08-18 15:03:00,89.56582,38.4226,899.198,269.09,91.3,909.2,1.18,0.27,-62.63,92.54,78.81,293.66,302.07,93.53,78.71,294.54,301.89,1.0
2018-08-18 15:03:00,89.56582,38.42253,899.134,269.09,91.3,909.7,-1.53,0.14,-63.01,92.54,78.74,293.59,302.53,93.21,78.68,294.61,301.89,1.0
2018-08-18 15:03:00,89.56582,38.42246,899.175,269.09,91.3,909.4,-1.69,0.03,-63.35,92.34,78.74,293.99,301.43,92.86,78.68,294.66,301.86,1.0
2018-08-18 15:03:00,89.56582,38.42239,899.169,269.09,91.3,909.4,-1.72,0.11,-63.29,93.59,78.74,294.49,301.39,92.5,78.71,294.69,301.82,1.0
2018-08-18 15:03:00,89.56582,38.42232,899.17,269.09,91.3,909.4,-0.75,0.02,-63.41,92.54,78.81,294.75,301.49,92.15,78.77,294.71,301.79,1.0
2018-08-18 15:03:00,89.56582,38.42225,899.165,269.09,91.3,909.5,1.4,-0.1,-63.67,92.34,78.68,294.65,301.68,91.86,78.85,294.74,301.77,1.0
2018-08-18 15:03:00,89.56582,38.42218,899.133,269.09,91.3,909.7,3.64,-0.06,-63.98,92.54,78.81,294.65,301.87,91.64,78.93,294.8,301.72,1.0
2018-08-18 15:03:00,89.56582,38.42212,899.093,269.1,91.3,910.1,3.44,0.24,-64.31,92.28,78.74,294.65,301.49,91.54,79.02,294.85,301.62,1.0
2018-08-18 15:03:00,89.56582,38.42205,899.164,269.09,91.3,909.5,2.63,0.43,-64.62,93.06,78.88,294.57,301.49,91.58,79.1,294.87,301.66,1.0
2018-08-18 15:03:00,89.56582,38.42198,899.156,269.09,91.3,909.5,1.43,0.22,-64.74,92.74,78.81,294.66,301.58,91.77,79.17,294.85,301.72,1.0
2018-08-18 15:03:00,89.56582,38.42191,899.147,269.09,91.3,909.6,0.06,0.38,-64.63,92.47,78.88,294.47,301.78,92.11,79.22,294.84,301.77,1.0
2018-08-18 15:03:00,89.56582,38.42184,899.171,269.09,91.3,909.4,-0.92,0.76,-64.43,92.15,78.74,294.75,301.78,92.56,79.24,294.83,301.82,1.0
2018-08-18 15:03:00,89.56582,38.42177,899.166,269.09,91.3,909.4,-1.0,0.72,-64.33,91.82,78.88,294.56,301.49,93.09,79.25,294.83,301.86,1.0
2018-08-18 15:03:00,89.56581,38.42165,899.197,269.09,91.3,909.2,-1.84,0.39,-63.93,92.34,78.74,294.66,301.49,93.64,79.24,294.83,301.86,1.0
2018-08-18 15:03:00,89.56581,38.42153,899.18,269.1,91.3,909.3,-0.87,0.44,-63.39,92.41,78.88,294.84,301.39,94.14,79.21,294.84,301.83,1.0
2018-08-18 15:03:00,89.56581,38.42142,899.172,269.1,91.3,909.4,0.7,0.63,-62.91,92.08,79.02,294.65,301.78,94.54,79.17,294.86,301.78,1.0
2018-08-18 15:03:00,89.56581,38.4213,899.175,269.1,91.3,909.4,1.89,0.69,-62.6,93.52,78.81,294.84,301.78,94.79,79.12,294.88,301.71,1.0
2018-08-18 15:03:00,89.56581,38.42118,899.168,269.09,91.3,909.4,2.16,0.58,-62.5,92.74,78.95,294.74,301.49,94.86,79.06,294.9,301.63,1.0
2018-08-18 15:03:00,89.56581,38.42106,899.171,269.1,91.3,909.4,2.47,0.77,-62.53,93.39,78.88,294.65,301.58,94.76,78.99,294.92,301.55,1.0
2018-08-18 15:03:00,89.56581,38.42094,899.131,269.09,91.3,909.7,2.44,0.93,-62.15,92.41,78.88,294.65,301.49,94.52,78.91,294.94,301.49,1.0
2018-08-18 15:03:00,89.56581,38.42082,899.153,269.09,91.3,909.6,2.88,1.01,-61.85,92.28,78.88,294.56,301.87,94.18,78.84,294.94,301.47,1.0
2018-08-18 15:03:00,89.56581,38.42072,899.18,269.1,91.3,909.3,3.26,1.04,-61.56,93.98,78.74,294.65,301.58,93.8,78.76,294.95,301.53,1.0
2018-08-18 15:03:00,89.5658,38.42062,899.136,269.09,91.3,909.7,3.63,1.0,-61.21,92.93,78.95,294.84,301.76,93.47,78.7,294.93,301.64,1.0
2018-08-18 15:03:00,89.5658,38.42053,899.143,269.09,91.3,909.6,5.13,0.78,-60.9,93.52,78.88,294.65,301.48,93.22,78.66,294.88,301.7,1.0
2018-08-18 15:03:00,89.5658,38.42043,899.154,269.09,91.3,909.5,8.52,1.06,-61.06,92.08,79.02,294.56,301.67,93.09,78.64,294.83,301.77,1.0
2018-08-18 15:03:00,89.5658,38.42034,899.107,269.09,91.3,910.0,9.61,1.05,-60.98,92.47,78.88,294.56,301.65,93.1,78.65,294.76,301.83,1.0
2018-08-18 15:03:00,89.5658,38.42024,899.109,269.09,91.3,909.9,10.29,0.81,-60.81,92.93,78.88,294.94,302.23,93.23,78.68,294.7,301.88,1.0
2018-08-18 15:03:00,89.5658,38.42015,899.166,269.1,91.3,909.4,10.61,0.63,-60.57,92.47,78.74,294.74,302.6,93.43,78.74,294.63,301.92,1.0
2018-08-18 15:03:00,89.5658,38.42005,899.184,269.09,91.3,909.3,9.91,0.86,-60.21,93.32,78.61,294.44,301.54,93.63,78.82,294.57,301.96,1.0
2018-08-18 15:03:00,89.5658,38.41996,899.157,269.09,91.3,909.5,11.41,0.67,-60.43,93.52,78.95,294.63,301.79,93.79,78.92,294.53,301.94,1.0
2018-08-18 15:03:00,89.5658,38.41986,899.142,269.09,91.3,909.7,12.24,0.52,-60.72,93.06,78.74,294.74,301.57,93.83,79.01,294.51,301.9,1.0
2018-08-18 15:03:00,89.5658,38.41977,899.155,269.09,91.3,909.5,12.38,0.58,-60.59,92.15,79.02,294.84,301.47,93.74,79.1,294.5,301.85,1.0
2018-08-18 15:03:00,89.5658,38.41967,899.169,269.09,91.3,909.4,12.48,0.74,-60.24,92.74,78.88,294.84,301.39,93.48,79.18,294.51,301.73,1.0
2018-08-18 15:03:00,89.5658,38.41958,899.158,269.09,91.3,909.5,12.88,0.89,-59.93,93.46,78.74,294.84,301.76,93.1,79.23,294.56,301.6,1.0
2018-08-18 15:03:00,89.5658,38.41949,899.203,269.09,91.4,909.1,13.65,0.4,-60.7,93.78,78.95,294.75,301.76,92.64,79.26,294.66,301.55,1.0
2018-08-18 15:03:00,89.5658,38.41941,899.174,269.09,91.3,909.4,13.17,0.81,-61.03,93.46,78.88,294.65,301.76,92.15,79.26,294.74,301.53,1.0
2018-08-18 15:03:00,89.56579,38.41932,899.138,269.09,91.3,909.7,13.14,0.85,-61.42,92.87,78.95,294.46,301.58,91.74,79.24,294.81,301.52,1.0
2018-08-18 15:03:00,89.56579,38.41923,899.126,269.09,91.3,909.8,11.51,0.71,-61.54,92.54,78.95,294.44,301.48,91.45,79.21,294.86,301.54,1.0
2018-08-18 15:03:00,89.56579,38.41914,899.154,269.09,91.3,909.5,8.51,0.71,-61.5,92.93,78.95,294.46,301.86,91.35,79.16,294.88,301.55,1.0
2018-08-18 15:03:00,89.56579,38.41906,899.216,269.09,91.3,909.0,6.21,1.18,-61.62,93.13,78.88,294.73,301.57,91.47,79.12,294.86,301.55,1.0
2018-08-18 15:03:00,89.56579,38.41897,899.201,269.09,91.3,909.1,6.59,1.16,-61.23,92.67,78.95,294.65,301.57,91.8,79.07,294.77,301.58,1.0
2018-08-18 15:03:00,89.56579,38.41888,899.172,269.09,91.3,909.4,8.99,0.9,-61.34,91.69,78.95,294.84,301.67,92.31,79.03,294.7,301.61,1.0
2018-08-18 15:03:00,89.56579,38.41879,899.144,269.09,91.3,909.6,10.06,0.86,-61.19,93.32,78.95,294.65,301.67,92.96,78.99,294.67,301.62,1.0
2018-08-18 15:03:00,89.56579,38.4187,899.136,269.09,91.3,909.7,10.06,0.93,-60.8,92.54,78.88,294.56,301.58,93.67,78.96,294.62,301.63,1.0
2018-08-18 15:03:00,89.56579,38.41862,899.161,269.09,91.3,909.5,10.18,0.93,-60.54,92.28,79.02,294.64,301.77,94.37,78.92,294.57,301.63,1.0
2018-08-18 15:03:00,89.56579,38.41853,899.171,269.09,91.3,909.4,10.69,0.99,-60.87,93.72,78.81,293.96,301.58,95.0,78.9,294.55,301.62,1.0
2018-08-18 15:03:00,89.56579,38.41844,899.161,269.09,91.3,909.5,9.41,1.06,-61.21,92.15,78.88,294.23,301.57,95.5,78.87,294.55,301.6,1.0
2018-08-18 15:03:00,89.56579,38.41834,899.151,269.09,91.3,909.6,7.76,1.1,-61.35,93.32,78.95,294.64,301.58,95.86,78.85,294.59,301.58,1.0
2018-08-18 15:03:00,89.56579,38.41825,899.137,269.09,91.3,909.7,5.94,1.03,-61.52,93.85,78.88,294.73,301.58,96.05,78.85,294.64,301.56,1.0
2018-08-18 15:03:00,89.56579,38.41816,899.122,269.09,91.3,909.8,4.38,0.93,-61.94,92.6,79.09,294.82,301.57,96.1,78.85,294.71,301.53,1.0
2018-08-18 15:03:00,89.56578,38.41807,899.147,269.09,91.3,909.6,4.06,1.02,-62.74,93.59,78.95,295.01,301.58,96.03,78.87,294.79,301.5,1.0
2018-08-18 15:03:00,89.56578,38.41798,899.135,269.09,91.3,909.7,3.67,1.0,-62.91,93.78,79.02,294.93,301.38,95.87,78.9,294.9,301.48,1.0
2018-08-18 15:03:00,89.56578,38.41788,899.149,269.09,91.3,909.6,3.4,0.88,-63.01,93.13,78.88,294.83,301.58,95.66,78.95,294.97,301.48,1.0
2018-08-18 15:03:00,89.56578,38.41779,899.157,269.09,91.3,909.5,2.64,0.73,-63.11,93.06,78.88,294.82,301.77,95.42,79.0,295.0,301.47,1.0
2018-08-18 15:03:00,89.56578,38.4177,899.147,269.08,91.3,909.6,1.6,0.69,-63.19,93.78,78.68,294.64,301.57,95.18,79.07,294.99,301.47,1.0
2018-08-18 15:03:00,89.56578,38.41761,899.148,269.09,91.3,909.6,1.36,0.83,-63.15,93.52,78.95,294.54,301.39,94.96,79.13,294.97,301.49,1.0
2018-08-18 15:03:00,89.56578,38.41752,899.156,269.09,91.3,909.5,2.96,0.46,-62.69,93.65,78.95,294.54,301.57,94.77,79.18,294.93,301.51,1.0
2018-08-18 15:03:00,89.56578,38.41743,899.189,269.09,91.3,909.2,4.52,0.62,-62.28,93.65,78.88,295.03,301.8,94.6,79.21,294.9,301.53,1.0
2018-08-18 15:03:00,89.56578,38.41734,899.212,269.09,91.3,909.0,7.29,0.61,-62.16,93.65,79.02,294.74,301.75,94.48,79.23,294.89,301.56,1.0
2018-08-18 15:03:00,89.56578,38.41726,899.196,269.09,91.3,909.2,9.67,0.52,-62.04,93.39,78.95,294.72,301.72,94.39,79.22,294.88,301.59,1.0
2018-08-18 15:03:00,89.56578,38.41718,899.137,269.09,91.3,909.7,10.26,0.47,-61.79,93.06,79.09,294.73,302.01,94.34,79.2,294.89,301.62,1.0
2018-08-18 15:03:00,89.56578,38.4171,899.13,269.09,91.3,909.7,9.31,0.29,-61.87,94.18,79.09,294.92,301.96,94.35,79.16,294.92,301.67,1.0
2018-08-18 15:03:00,89.56578,38.41703,899.125,269.09,91.3,909.8,8.28,0.32,-61.96,94.11,79.02,294.93,301.51,94.4,79.11,294.97,301.72,1.0
2018-08-18 15:03:00,89.56578,38.41695,899.141,269.09,91.3,909.6,6.94,0.08,-62.34,94.9,78.95,295.03,301.77,94.51,79.07,294.96,301.72,1.0
2018-08-18 15:03:00,89.56578,38.41687,899.155,269.09,91.3,909.5,5.41,0.04,-62.62,92.41,78.88,294.61,301.35,94.67,79.02,294.94,301.72,1.0
2018-08-18 15:03:00,89.56578,38.41679,899.151,269.09,91.3,909.6,4.62,0.13,-62.81,93.72,78.81,294.38,301.08,94.87,78.98,294.91,301.7,1.0
2018-08-18 15:03:00,89.56578,38.41672,899.137,269.09,91.3,909.7,5.87,-0.12,-63.18,92.6,78.95,294.64,301.49,95.09,78.95,294.85,301.64,1.0
2018-08-18 15:03:00,89.56578,38.41664,899.106,269.08,91.3,909.9,8.52,-0.13,-62.63,94.24,79.09,294.64,301.58,95.32,78.92,294.77,301.57,1.0
2018-08-18 15:03:00,89.56577,38.41656,899.138,269.09,91.3,909.7,11.21,-0.27,-62.09,94.63,79.09,294.32,301.66,95.53,78.88,294.68,301.46,1.0
2018-08-18 15:03:00,89.56577,38.41648,899.174,269.09,91.3,909.4,14.35,-0.57,-61.83,93.06,78.95,294.5,301.65,95.7,78.85,294.59,301.37,1.0
2018-08-18 15:03:00,89.56577,38.4164,899.192,269.09,91.3,909.2,16.67,-0.63,-61.77,93.98,78.95,294.3,301.56,95.82,78.8,294.52,301.32,1.0
2018-08-18 15:03:00,89.56577,38.41633,899.196,269.09,91.3,909.2,16.64,-0.21,-61.84,94.9,78.88,294.46,301.47,95.89,78.75,294.46,301.29,1.0
2018-08-18 15:03:00,89.56577,38.41625,899.179,269.09,91.3,909.3,14.14,-0.13,-62.33,94.24,79.02,294.56,301.67,95.9,78.7,294.42,301.27,1.0
2018-08-18 15:03:00,89.56577,38.41617,899.148,269.09,91.3,909.6,10.88,-0.32,-62.4,94.31,78.95,294.69,300.91,95.88,78.65,294.43,301.27,1.0
2018-08-18 15:03:00,89.56577,38.41604,899.174,269.09,91.3,909.4,9.17,-0.39,-62.26,92.67,78.95,294.9,301.28,95.83,78.61,294.42,301.22,1.0
2018-08-18 15:03:00,89.56577,38.4159,899.216,269.08,91.3,909.0,9.82,-0.36,-62.15,94.5,78.95,294.84,301.86,95.78,78.6,294.44,301.2,1.0
2018-08-18 15:03:00,89.56577,38.41575,899.171,269.09,91.3,909.4,11.05,-0.44,-62.1,94.44,78.88,294.74,301.28,95.74,78.62,294.52,301.25,1.0
2018-08-18 15:03:00,89.56577,38.41561,899.153,269.1,91.3,909.5,10.05,-0.85,-61.65,94.9,79.09,294.94,301.67,95.72,78.68,294.66,301.31,1.0
2018-08-18 15:03:00,89.56577,38.41547,899.174,269.09,91.3,909.4,9.06,-0.83,-61.52,94.24,78.95,295.11,301.67,95.73,78.77,294.81,301.36,1.0
2018-08-18 15:03:00,89.56577,38.41533,899.193,269.1,91.3,909.2,9.36,-0.66,-61.26,93.85,78.61,293.99,300.85,95.75,78.9,294.9,301.44,1.0
2018-08-18 15:03:00,89.56576,38.41519,899.183,269.1,91.3,909.3,9.65,-0.56,-60.99,94.63,78.74,293.64,300.8,95.78,79.04,294.94,301.49,1.0
2018-08-18 15:03:00,89.56576,38.41505,899.149,269.09,91.3,909.6,9.54,-0.56,-60.77,93.91,79.09,294.09,301.4,95.79,79.18,294.93,301.49,1.0
2018-08-18 15:03:00,89.56576,38.41491,899.149,269.09,91.3,909.6,9.18,-0.54,-60.68,94.24,78.95,294.76,301.58,95.77,79.32,294.89,301.47,1.0
2018-08-18 15:03:00,89.56576,38.41478,899.178,269.09,91.4,909.3,7.97,-0.26,-60.32,94.7,78.74,294.94,301.17,95.7,79.43,294.82,301.44,1.0
2018-08-18 15:03:00,89.56576,38.41465,899.15,269.09,91.3,909.6,9.88,-0.54,-60.0,95.29,78.95,294.63,301.47,95.58,79.51,294.73,301.41,1.0
2018-08-18 15:03:00,89.56576,38.41453,899.156,269.09,91.3,909.5,12.15,-0.43,-59.8,93.32,79.09,294.74,301.57,95.4,79.56,294.72,301.46,1.0
2018-08-18 15:03:00,89.56576,38.4144,899.179,269.1,91.3,909.3,13.35,-0.26,-59.64,95.35,79.16,294.83,301.57,95.19,79.57,294.74,301.5,1.0
2018-08-18 15:03:00,89.56576,38.41428,899.157,269.09,91.3,909.5,13.09,-0.38,-59.47,94.76,78.88,294.64,301.47,94.97,79.55,294.74,301.49,1.0
2018-08-18 15:03:00,89.56576,38.41415,899.152,269.09,91.3,909.5,12.92,-0.47,-59.31,94.76,79.09,294.92,301.55,94.76,79.5,294.72,301.5,1.0
2018-08-18 15:03:00,89.56576,38.41403,899.154,269.09,91.3,909.5,13.61,-0.54,-59.63,94.44,78.95,295.01,301.55,94.6,79.45,294.71,301.51,1.0
2018-08-18 15:03:00,89.56576,38.4139,899.152,269.09,91.3,909.5,13.37,-0.28,-59.73,94.04,79.16,294.74,301.47,94.52,79.4,294.74,301.52,1.0
2018-08-18 15:03:00,89.56576,38.41378,899.162,269.09,91.3,909.5,12.67,-0.19,-59.6,94.9,78.95,294.74,301.48,94.54,79.35,294.8,301.53,1.0
2018-08-18 15:03:00,89.56576,38.41366,899.184,269.09,91.3,909.3,11.88,-0.29,-59.47,94.24,79.09,294.92,301.57,94.68,79.32,294.87,301.54,1.0
2018-08-18 15:03:00,89.56576,38.41353,899.174,269.09,91.3,909.4,11.02,-0.05,-59.64,94.44,79.16,294.82,301.86,94.92,79.3,294.93,301.54,1.0
2018-08-18 15:03:00,89.56576,38.4134,899.126,269.09,91.3,909.8,11.37,-0.4,-59.66,94.24,79.02,295.11,301.56,95.27,79.29,294.99,301.52,1.0
2018-08-18 15:03:00,89.56576,38.41327,899.149,269.09,91.3,909.6,11.74,-0.21,-60.01,95.03,78.88,294.74,301.46,95.7,79.28,295.02,301.5,1.0
2018-08-18 15:03:00,89.56576,38.41314,899.174,269.09,91.3,909.3,11.52,-0.11,-60.1,95.03,79.02,295.02,301.47,96.16,79.27,295.03,301.47,1.0
2018-08-18 15:03:00,89.56576,38.413,899.174,269.09,91.3,909.3,10.88,-0.08,-59.85,93.52,79.09,294.74,301.77,96.63,79.25,295.02,301.44,1.0
2018-08-18 15:03:00,89.56576,38.41286,899.168,269.09,91.3,909.4,10.04,0.04,-59.52,95.29,79.09,294.92,301.47,97.07,79.21,294.99,301.42,1.0
2018-08-18 15:03:00,89.56576,38.41272,899.178,269.09,91.3,909.3,8.1,-0.06,-59.65,95.03,79.3,294.92,301.57,97.42,79.17,294.91,301.41,1.0
2018-08-18 15:03:00,89.56576,38.41258,899.185,269.09,91.3,909.3,7.15,0.11,-60.22,94.37,79.09,294.92,301.47,97.67,79.12,294.81,301.41,1.0
2018-08-18 15:03:00,89.56576,38.41245,899.149,269.09,91.3,909.6,5.62,0.01,-60.22,95.09,79.09,294.64,301.46,97.8,79.07,294.74,301.42,1.0
2018-08-18 15:03:00,89.56576,38.41231,899.139,269.09,91.3,909.7,5.52,0.0,-60.09,94.5,79.09,294.74,301.84,97.79,79.03,294.7,301.44,1.0
2018-08-18 15:03:00,89.56576,38.41217,899.203,269.09,91.3,909.1,7.27,0.28,-60.17,95.68,79.09,294.8,301.45,97.66,79.01,294.69,301.48,1.0
2018-08-18 15:03:00,89.56575,38.41203,899.176,269.1,91.3,909.3,7.83,0.47,-60.36,95.35,79.16,294.38,301.66,97.43,79.02,294.68,301.53,1.0
2018-08-18 15:03:00,89.56575,38.41189,899.181,269.1,91.3,909.3,8.52,0.34,-60.44,95.88,78.88,294.1,301.47,97.12,79.05,294.68,301.58,1.0
2018-08-18 15:03:00,89.56575,38.41176,899.225,269.1,91.3,908.9,9.38,0.36,-60.18,94.63,79.09,294.31,301.19,96.77,79.1,294.65,301.57,1.0
2018-08-18 15:03:00,89.56575,38.41164,899.239,269.09,91.3,908.8,9.44,0.49,-59.8,94.9,78.88,294.59,300.99,96.43,79.17,294.64,301.52,1.0
2018-08-18 15:03:00,89.56575,38.41153,899.167,269.09,91.3,909.4,8.93,0.71,-59.52,96.2,79.16,294.85,301.36,96.12,79.25,294.65,301.48,1.0
2018-08-18 15:03:00,89.56575,38.41142,899.203,269.1,91.3,909.1,10.07,0.86,-59.44,94.31,79.09,294.82,301.56,95.88,79.33,294.7,301.48,1.0
2018-08-18 15:03:00,89.56575,38.41131,899.149,269.09,91.3,909.6,8.33,0.81,-59.44,95.94,79.16,294.83,301.46,95.71,79.4,294.8,301.46,1.0
2018-08-18 15:03:00,89.56575,38.41119,899.164,269.09,91.3,909.4,6.56,0.99,-59.17,95.55,79.16,294.45,301.28,95.64,79.46,294.92,301.45,1.0
2018-08-18 15:03:00,89.56575,38.41108,899.183,269.09,91.3,909.3,4.56,1.05,-58.75,95.81,79.09,294.52,300.46,95.64,79.49,295.03,301.45,1.0
2018-08-18 15:03:00,89.56575,38.41097,899.202,269.09,91.3,909.1,3.61,1.02,-58.76,94.5,79.09,294.63,300.68,95.7,79.51,295.1,301.46,1.0
2018-08-18 15:03:00,89.56575,38.41086,899.241,269.09,91.3,908.8,4.13,1.01,-59.47,94.7,79.16,294.83,301.46,95.78,79.51,295.14,301.46,1.0
2018-08-18 15:03:00,89.56575,38.41075,899.184,269.09,91.3,909.3,2.81,0.94,-60.06,95.62,79.23,294.81,301.65,95.87,79.51,295.2,301.47,1.0
2018-08-18 15:03:00,89.56575,38.41064,899.162,269.09,91.3,909.4,0.57,1.1,-60.09,95.81,79.09,294.92,301.75,95.94,79.49,295.25,301.48,1.0
2018-08-18 15:03:00,89.56575,38.41053,899.144,269.09,91.3,909.6,0.25,0.99,-60.8,95.55,79.16,294.92,301.65,95.96,79.48,295.31,301.55,1.0
2018-08-18 15:03:00,89.56575,38.41042,899.138,269.09,91.3,909.7,1.98,0.81,-61.72,95.35,79.16,294.71,301.66,95.94,79.47,295.34,301.64,1.0
2018-08-18 15:03:00,89.56575,38.41032,899.147,269.09,91.3,909.6,4.17,0.7,-62.49,95.09,79.23,294.56,301.56,95.89,79.46,295.32,301.72,1.0
2018-08-18 15:03:00,89.56575,38.41024,899.16,269.09,91.4,909.5,3.28,0.67,-63.01,95.48,79.09,295.02,301.84,95.82,79.45,295.27,301.73,1.0
2018-08-18 15:03:00,89.56575,38.41015,899.136,269.09,91.3,909.7,2.19,0.84,-63.29,95.35,79.16,295.02,301.66,95.78,79.43,295.19,301.74,1.0
2018-08-18 15:03:00,89.56575,38.41007,899.149,269.09,91.3,909.6,1.35,0.81,-63.08,95.62,79.3,294.64,301.46,95.8,79.41,295.12,301.73,1.0
2018-08-18 15:03:00,89.56575,38.40999,899.15,269.09,91.3,909.5,0.37,0.69,-63.16,95.35,79.09,295.1,301.46,95.91,79.38,295.05,301.72,1.0
2018-08-18 15:03:00,89.56575,38.40991,899.135,269.09,91.3,909.7,-0.43,0.55,-63.39,96.07,79.36,295.09,301.75,96.14,79.33,295.02,301.7,1.0
2018-08-18 15:03:00,89.56575,38.40982,899.149,269.09,91.3,909.6,-0.73,0.41,-63.29,95.29,79.23,295.1,301.75,96.49,79.28,295.03,301.67,1.0
2018-08-18 15:03:00,89.56575,38.40974,899.159,269.09,91.3,909.5,-1.21,0.08,-63.01,95.29,79.16,295.01,301.46,96.95,79.23,295.04,301.64,1.0
2018-08-18 15:03:00,89.56575,38.40966,899.115,269.09,91.3,909.9,-0.71,0.39,-62.37,95.68,79.16,295.11,301.65,97.49,79.17,295.02,301.55,1.0
2018-08-18 15:03:00,89.56575,38.40957,899.127,269.09,91.3,909.8,-0.75,0.65,-61.8,94.76,79.23,295.02,301.55,98.07,79.14,295.05,301.47,1.0
2018-08-18 15:03:00,89.56575,38.40949,899.162,269.09,91.3,909.4,-1.41,0.72,-61.49,95.55,79.3,295.01,301.65,98.61,79.12,295.11,301.39,1.0
2018-08-18 15:03:00,89.56575,38.40941,899.162,269.09,91.3,909.4,-2.44,0.61,-61.49,95.75,79.09,295.19,301.46,99.08,79.13,295.17,301.32,1.0
2018-08-18 15:03:00,89.56575,38.40933,899.191,269.09,91.3,909.2,-3.44,0.48,-61.71,95.68,79.23,295.09,301.72,99.41,79.17,295.21,301.29,1.0
2018-08-18 15:03:00,89.56575,38.40924,899.213,269.09,91.3,909.0,-4.27,0.37,-61.72,96.53,79.3,294.52,300.83,99.58,79.24,295.22,301.27,1.0
2018-08-18 15:03:00,89.56574,38.40916,899.225,269.09,91.3,908.9,-5.48,0.57,-61.55,96.2,79.3,294.48,300.58,99.58,79.32,295.19,301.26,1.0
2018-08-18 15:03:00,89.56574,38.40908,899.217,269.09,91.3,909.0,-6.18,0.61,-61.36,95.81,78.95,294.93,300.9,99.41,79.42,295.13,301.25,1.0
2018-08-18 15:03:00,89.56574,38.40897,899.184,269.09,91.3,909.2,-5.84,0.2,-61.28,96.99,79.02,294.82,301.0,99.11,79.51,295.06,301.25,1.0
2018-08-18 15:03:00,89.56574,38.40883,899.183,269.09,91.3,909.3,-5.55,-0.22,-61.3,96.4,79.16,294.91,301.94,98.75,79.59,294.97,301.26,1.0
2018-08-18 15:03:00,89.56574,38.40869,899.192,269.09,91.3,909.2,-6.56,0.04,-61.47,96.01,79.3,295.0,301.26,98.39,79.65,294.86,301.28,1.0
2018-08-18 15:03:00,89.56574,38.40855,899.26,269.1,91.3,908.6,-5.88,0.12,-61.25,96.92,79.43,294.81,301.74,98.08,79.68,294.85,301.37,1.0
2018-08-18 15:03:00,89.56574,38.40841,899.253,269.1,91.3,908.6,-3.75,0.35,-61.11,96.53,79.23,295.09,301.36,97.89,79.69,294.85,301.46,1.0
2018-08-18 15:03:00,89.56574,38.40828,899.204,269.1,91.3,909.1,-0.82,0.6,-61.05,95.81,79.5,294.91,301.74,97.84,79.67,294.86,301.55,1.0
2018-08-18 15:03:00,89.56574,38.40814,899.248,269.09,91.3,908.7,1.88,0.68,-60.93,96.07,79.16,295.04,301.75,97.96,79.64,294.9,301.63,1.0
2018-08-18 15:03:00,89.56574,38.408,899.262,269.1,91.3,908.6,1.78,0.76,-60.69,97.12,79.3,294.71,301.65,98.2,79.59,294.97,301.67,1.0
2018-08-18 15:03:00,89.56574,38.40786,899.259,269.09,91.3,908.6,1.07,0.32,-61.0,96.01,79.3,295.04,301.55,98.55,79.55,295.05,301.69,1.0
2018-08-18 15:03:00,89.56574,38.40775,899.234,269.1,91.3,908.8,1.07,0.27,-61.61,96.34,79.16,295.0,301.35,98.93,79.51,295.13,301.71,1.0
2018-08-18 15:03:00,89.56574,38.40765,899.204,269.1,91.3,909.1,0.2,0.15,-62.27,97.51,79.3,295.09,301.44,99.28,79.49,295.2,301.71,1.0
2018-08-18 15:03:00,89.56574,38.40755,899.194,269.1,91.3,909.2,-2.16,-0.2,-62.83,96.47,79.36,295.09,301.54,99.55,79.47,295.24,301.69,1.0
2018-08-18 15:03:00,89.56574,38.40746,899.227,269.1,91.3,908.9,-5.08,-0.4,-63.33,96.6,79.3,295.0,301.73,99.67,79.47,295.25,301.66,1.0
2018-08-18 15:03:00,89.56574,38.40736,899.273,269.1,91.3,908.5,-5.53,-0.45,-63.27,96.99,79.3,295.19,301.55,99.64,79.47,295.24,301.63,1.0
2018-08-18 15:03:00,89.56574,38.40726,899.286,269.1,91.3,908.4,-5.02,-0.44,-64.41,96.86,79.36,294.91,301.75,99.44,79.47,295.2,301.59,1.0
2018-08-18 15:03:00,89.56574,38.40716,899.257,269.1,91.3,908.6,-4.28,-0.53,-65.04,97.25,79.3,294.91,301.45,99.12,79.47,295.12,301.51,1.0
2018-08-18 15:03:00,89.56574,38.40707,899.221,269.09,91.3,908.9,-3.9,-0.74,-65.15,97.38,79.3,294.92,301.73,98.71,79.46,295.04,301.44,1.0
2018-08-18 15:03:00,89.56574,38.40697,899.255,269.09,91.3,908.6,-4.09,-0.96,-65.55,97.58,79.3,295.19,301.54,98.29,79.45,294.99,301.39,1.0
2018-08-18 15:03:00,89.56574,38.40687,899.239,269.09,91.3,908.8,-2.68,-0.85,-65.46,96.99,79.43,295.09,301.46,97.93,79.43,294.97,301.36,1.0
2018-08-18 15:03:00,89.56574,38.40678,899.247,269.1,91.3,908.7,-0.95,-1.28,-65.28,96.86,79.43,295.09,301.65,97.69,79.42,294.97,301.32,1.0
2018-08-18 15:03:00,89.56574,38.40668,899.248,269.1,91.3,908.7,-1.04,-1.62,-65.06,97.38,79.3,294.87,301.14,97.62,79.42,295.0,301.29,1.0
2018-08-18 15:03:00,89.56574,38.40661,899.224,269.09,91.3,908.9,-2.25,-1.96,-65.21,96.99,79.3,294.95,301.39,97.74,79.43,295.06,301.26,1.0
2018-08-18 15:03:00,89.56574,38.40654,899.176,269.09,91.3,909.3,-3.58,-2.46,-65.93,97.25,79.3,295.09,301.54,98.06,79.46,295.12,301.24,1.0
2018-08-18 15:03:00,89.56574,38.40647,899.153,269.09,91.3,909.5,-4.68,-2.97,-66.5,97.38,79.36,295.09,301.55,98.54,79.52,295.19,301.23,1.0
2018-08-18 15:03:00,89.56574,38.4064,899.182,269.08,91.3,909.3,-5.02,-3.54,-68.78,96.6,79.16,295.19,301.64,99.14,79.59,295.24,301.23,1.0
2018-08-18 15:03:00,89.56574,38.40633,899.207,269.09,91.3,909.0,-5.08,-3.95,-69.96,96.79,79.36,294.81,301.36,99.79,79.68,295.28,301.24,1.0
2018-08-18 15:03:00,89.56574,38.40625,899.2,269.09,91.3,909.1,-5.34,-4.2,-70.28,96.66,79.36,294.91,301.45,100.42,79.77,295.31,301.28,1.0
2018-08-18 15:03:00,89.56574,38.40618,899.173,269.09,91.3,909.3,-5.45,-4.22,-70.1,98.43,79.5,295.0,301.64,100.96,79.86,295.32,301.34,1.0
2018-08-18 15:03:00,89.56574,38.40611,899.201,269.09,91.3,909.1,-4.46,-3.95,-69.64,97.58,79.36,294.9,301.73,101.37,79.93,295.31,301.37,1.0
2018-08-18 15:03:00,89.56574,38.40604,899.183,269.09,91.3,909.3,-3.17,-4.22,-69.36,98.17,79.43,294.98,301.46,101.62,79.99,295.28,301.39,1.0
2018-08-18 15:03:00,89.56574,38.40597,899.204,269.09,91.3,909.1,-2.02,-4.39,-69.09,97.45,79.43,295.18,301.56,101.68,80.02,295.25,301.42,1.0
2018-08-18 15:03:00,89.56574,38.4059,899.23,269.09,91.3,908.8,-0.65,-4.43,-68.85,97.91,79.43,295.0,301.45,101.58,80.02,295.22,301.43,1.0
2018-08-18 15:03:00,89.56574,38.40583,899.243,269.09,91.3,908.7,0.83,-4.48,-68.55,98.43,79.43,295.09,301.25,101.34,80.0,295.2,301.43,1.0
2018-08-18 15:03:00,89.56574,38.40576,899.24,269.09,91.3,908.8,2.26,-4.66,-68.12,97.45,79.36,295.09,301.54,101.01,79.96,295.19,301.4,1.0
2018-08-18 15:03:00,89.56574,38.40569,899.264,269.09,91.3,908.5,3.63,-4.5,-67.8,98.36,79.43,295.0,301.15,100.63,79.91,295.18,301.35,1.0
2018-08-18 15:03:00,89.56574,38.40562,899.25,269.09,91.3,908.7,2.66,-4.01,-67.7,98.04,79.57,295.18,301.44,100.24,79.86,295.18,301.28,1.0
2018-08-18 15:03:00,89.56574,38.40555,899.265,269.09,91.3,908.5,-0.17,-3.88,-67.34,98.5,79.57,295.18,301.54,99.9,79.81,295.17,301.2,1.0
2018-08-18 15:03:00,89.56574,38.40548,899.292,269.09,91.3,908.3,-2.7,-3.74,-67.09,98.3,79.57,295.19,301.54,99.62,79.77,295.15,301.12,1.0
2018-08-18 15:03:00,89.56574,38.40541,899.303,269.09,91.3,908.2,-3.57,-3.34,-67.13,98.43,79.57,295.18,301.54,99.42,79.74,295.12,301.05,1.0
2018-08-18 15:03:00,89.56574,38.40534,899.319,269.08,91.3,908.1,-2.85,-2.68,-67.22,98.17,79.43,295.36,301.53,99.3,79.71,295.09,300.99,1.0
2018-08-18 15:03:00,89.56574,38.40527,899.319,269.09,91.3,908.1,-5.35,-2.76,-66.81,98.5,79.43,295.08,301.44,99.28,79.7,295.05,300.97,1.0
2018-08-18 15:03:00,89.56574,38.4052,899.322,269.09,91.3,908.0,-8.93,-2.69,-66.4,97.97,79.57,295.08,301.4,99.33,79.69,295.02,300.99,1.0
2018-08-18 15:03:00,89.56574,38.40513,899.309,269.09,91.3,908.1,-10.42,-2.64,-66.23,98.69,79.5,295.0,301.32,99.45,79.68,295.0,301.03,1.0
2018-08-18 15:03:00,89.56574,38.40506,899.3,269.09,91.3,908.2,-9.15,-2.69,-66.14,98.17,79.5,295.18,301.54,99.63,79.66,295.0,301.11,1.0
2018-08-18 15:03:00,89.56574,38.40499,899.363,269.09,91.3,907.7,-6.56,-2.82,-65.79,98.3,79.43,295.17,301.73,99.85,79.65,295.01,301.21,1.0
2018-08-18 15:03:00,89.56574,38.40492,899.353,269.09,91.3,907.8,-4.43,-2.77,-65.55,98.1,79.57,295.09,301.35,100.12,79.64,295.04,301.31,1.0
2018-08-18 15:03:00,89.56574,38.40487,899.314,269.09,91.3,908.1,-3.27,-2.42,-64.89,98.56,79.57,295.09,301.44,100.41,79.63,295.1,301.44,1.0
2018-08-18 15:03:00,89.56574,38.40482,899.337,269.09,91.3,907.9,-1.96,-2.47,-64.54,98.23,79.57,295.19,301.34,100.74,79.63,295.15,301.55,1.0
2018-08-18 15:03:00,89.56574,38.40476,899.379,269.09,91.3,907.5,-1.2,-2.6,-64.69,98.69,79.57,295.19,301.54,101.07,79.64,295.19,301.61,1.0
2018-08-18 15:03:00,89.56574,38.40471,899.358,269.09,91.3,907.7,-1.89,-2.46,-65.25,99.41,79.64,295.09,301.45,101.4,79.68,295.21,301.61,1.0
2018-08-18 15:03:00,89.56574,38.40466,899.324,269.09,91.3,908.0,-4.71,-2.23,-65.92,99.74,79.57,294.99,301.56,101.71,79.72,295.21,301.57,1.0
2018-08-18 15:03:00,89.56574,38.4046,899.328,269.09,91.3,908.0,-5.11,-2.38,-66.3,97.97,79.5,295.04,301.35,101.98,79.79,295.19,301.51,1.0
2018-08-18 15:03:00,89.56574,38.40455,899.328,269.09,91.3,908.0,-2.97,-2.31,-66.63,98.1,79.43,294.83,301.42,102.18,79.86,295.18,301.43,1.0
2018-08-18 15:03:00,89.56574,38.4045,899.339,269.09,91.3,907.9,0.02,-2.2,-66.86,98.82,79.36,294.95,301.5,102.3,79.94,295.17,301.35,1.0
2018-08-18 15:03:00,89.56574,38.40445,899.367,269.09,91.3,907.6,2.04,-2.2,-66.93,99.61,79.5,294.8,301.15,102.32,80.01,295.15,301.28,1.0
2018-08-18 15:03:00,89.56574,38.40439,899.318,269.09,91.3,908.1,1.93,-2.23,-66.85,98.43,79.78,295.17,301.45,102.25,80.08,295.14,301.24,1.0
2018-08-18 15:03:00,89.56574,38.40434,899.336,269.09,91.3,907.9,2.11,-2.1,-67.06,100.13,79.71,295.07,301.54,102.1,80.14,295.15,301.19,1.0
2018-08-18 15:03:00,89.56574,38.40429,899.336,269.09,91.3,907.9,1.2,-2.12,-67.32,99.61,79.64,295.24,301.55,101.9,80.19,295.17,301.18,1.0
2018-08-18 15:03:00,89.56574,38.40424,899.342,269.09,91.3,907.9,-0.35,-2.12,-67.37,99.54,79.64,295.62,301.45,101.66,80.22,295.23,301.2,1.0
2018-08-18 15:03:00,89.56574,38.40418,899.351,269.09,91.3,907.8,-2.49,-2.16,-67.46,99.08,79.5,295.48,301.35,101.43,80.25,295.3,301.26,1.0
2018-08-18 15:03:00,89.56574,38.40413,899.34,269.09,91.3,907.9,-5.03,-2.32,-67.83,99.35,79.71,295.17,301.48,101.25,80.27,295.39,301.35,1.0
2018-08-18 15:03:00,89.56574,38.40407,899.351,269.09,91.3,907.8,-5.69,-2.53,-67.89,99.67,79.71,294.98,301.12,101.15,80.29,295.46,301.44,1.0
2018-08-18 15:03:00,89.56574,38.40398,899.354,269.09,91.3,907.8,-5.35,-2.8,-68.17,99.87,79.71,294.98,301.06,101.15,80.31,295.52,301.59,1.0
2018-08-18 15:03:00,89.56573,38.4039,899.342,269.09,91.3,907.9,-5.1,-2.9,-68.1,99.87,79.71,295.17,301.54,101.25,80.33,295.51,301.67,1.0
2018-08-18 15:03:00,89.56573,38.40381,899.329,269.09,91.3,908.0,-4.65,-2.99,-67.88,99.54,79.64,295.35,301.35,101.46,80.34,295.46,301.69,1.0
2018-08-18 15:03:00,89.56573,38.40373,899.338,269.09,91.3,907.9,-4.6,-3.11,-67.63,98.89,79.85,295.07,301.55,101.74,80.34,295.39,301.67,1.0
2018-08-18 15:03:00,89.56573,38.40364,899.414,269.09,91.3,907.2,-7.63,-2.92,-67.14,100.0,79.78,295.17,301.39,102.07,80.31,295.31,301.64,1.0
2018-08-18 15:03:00,89.56573,38.40355,899.418,269.09,91.3,907.2,-8.57,-3.03,-67.09,99.48,79.71,295.17,302.46,102.41,80.26,295.21,301.63,1.0
2018-08-18 15:03:00,89.56573,38.40347,899.438,269.09,91.3,907.0,-7.51,-2.87,-66.73,99.28,79.78,295.17,301.79,102.7,80.18,295.11,301.58,1.0
2018-08-18 15:03:00,89.56573,38.40338,899.455,269.09,91.3,906.9,-5.45,-2.61,-66.23,99.74,79.78,295.16,301.24,102.93,80.07,295.02,301.52,1.0
2018-08-18 15:03:00,89.56573,38.4033,899.464,269.09,91.3,906.8,-3.07,-2.45,-65.53,100.39,79.78,295.25,301.54,103.05,79.93,294.96,301.47,1.0
2018-08-18 15:03:00,89.56573,38.40324,899.49,269.09,91.3,906.6,-0.77,-2.45,-64.45,101.18,79.85,295.07,301.06,103.06,79.78,294.96,301.44,1.0
2018-08-18 15:03:00,89.56573,38.40318,899.403,269.09,91.3,907.3,0.12,-2.16,-63.29,100.0,79.92,295.07,301.64,102.94,79.63,295.1,301.48,1.0
2018-08-18 15:03:00,89.56573,38.40312,899.431,269.09,91.3,907.1,1.25,-1.86,-62.48,101.24,79.78,295.17,301.25,102.73,79.49,295.15,301.41,1.0
2018-08-18 15:03:00,89.56573,38.40306,899.423,269.09,91.3,907.2,3.15,-1.81,-61.6,99.61,79.85,295.26,301.54,102.45,79.38,295.2,301.38,1.0
2018-08-18 15:03:00,89.56573,38.403,899.405,269.09,91.3,907.3,3.84,-1.87,-60.84,99.61,79.78,295.17,301.26,102.12,79.32,295.24,301.4,1.0
2018-08-18 15:03:00,89.56573,38.40295,899.479,269.09,91.3,906.7,2.48,-1.81,-60.31,100.33,79.85,295.54,301.59,101.8,79.3,295.26,301.41,1.0
2018-08-18 15:03:00,89.56573,38.40289,899.489,269.1,91.3,906.6,3.14,-1.53,-59.9,101.18,79.5,296.46,301.92,101.53,79.33,295.19,301.36,1.0
2018-08-18 15:03:00,89.56573,38.40283,899.443,269.1,91.3,907.0,3.61,-0.99,-59.36,100.59,79.78,295.18,301.6,101.34,79.41,295.19,301.39,1.0
2018-08-18 15:03:00,89.56573,38.40277,899.464,269.1,91.3,906.8,3.91,-0.51,-59.2,99.87,79.57,295.16,301.73,101.27,79.53,295.18,301.44,1.0
2018-08-18 15:03:00,89.56573,38.40271,899.494,269.1,91.3,906.5,4.26,-0.16,-59.13,99.94,79.71,294.88,301.25,101.31,79.66,295.16,301.48,1.0
2018-08-18 15:03:00,89.56573,38.40265,899.488,269.09,91.3,906.6,4.74,0.07,-59.05,101.05,79.71,294.8,301.2,101.47,79.8,295.13,301.52,1.0
2018-08-18 15:03:00,89.56573,38.40258,899.564,269.09,91.3,905.9,5.22,0.26,-59.17,100.72,79.57,293.82,300.35,101.75,79.93,295.08,301.53,1.0
2018-08-18 15:03:00,89.56573,38.40249,899.503,269.1,91.3,906.5,6.21,0.23,-59.26,100.46,79.78,294.76,301.34,102.09,80.04,294.92,301.47,1.0
2018-08-18 15:03:00,89.56573,38.4024,899.504,269.09,91.3,906.4,5.68,0.37,-59.71,101.18,79.78,295.35,301.25,102.48,80.11,294.88,301.44,1.0
2018-08-18 15:03:00,89.56573,38.4023,899.495,269.09,91.3,906.5,3.91,0.46,-60.37,100.2,79.92,295.17,301.25,102.86,80.15,294.87,301.4,1.0
2018-08-18 15:03:00,89.56573,38.40222,899.48,269.09,91.3,906.7,1.76,0.38,-61.17,100.0,79.71,295.07,301.64,103.19,80.15,294.9,301.32,1.0
2018-08-18 15:03:00,89.56573,38.40212,899.537,269.09,91.3,906.2,0.1,0.06,-62.1,101.18,79.85,295.17,301.44,103.43,80.11,295.01,301.23,1.0
2018-08-18 15:03:00,89.56573,38.40203,899.463,269.09,91.3,906.8,-0.93,-0.44,-62.96,100.26,79.71,295.26,301.54,103.54,80.05,295.17,301.13,1.0
2018-08-18 15:03:00,89.56573,38.40194,899.474,269.1,91.3,906.7,-0.25,-0.45,-62.99,101.37,79.78,295.17,301.25,103.51,79.96,295.22,301.0,1.0
2018-08-18 15:03:00,89.56573,38.40185,899.491,269.1,91.3,906.6,-0.15,-0.5,-63.33,100.65,79.92,294.98,301.55,103.35,79.85,295.23,300.87,1.0
2018-08-18 15:03:00,89.56573,38.40176,899.483,269.09,91.3,906.6,-1.05,-0.9,-63.63,101.83,79.78,295.44,301.46,103.06,79.73,295.22,300.77,1.0
2018-08-18 15:03:00,89.56573,38.40167,899.454,269.1,91.3,906.9,-2.8,-1.67,-63.77,100.98,79.85,296.13,301.23,102.7,79.6,295.21,300.71,1.0
2018-08-18 15:03:00,89.56573,38.40158,899.463,269.09,91.3,906.8,-4.6,-2.24,-64.48,101.37,79.71,295.76,300.88,102.3,79.48,295.21,300.71,1.0
2018-08-18 15:03:00,89.56573,38.40149,899.474,269.09,91.3,906.7,-6.56,-2.34,-63.76,101.24,79.78,295.45,301.36,101.93,79.36,295.25,300.83,1.0
2018-08-18 15:03:00,89.56573,38.40138,899.498,269.09,91.3,906.5,-6.38,-2.82,-64.2,100.78,79.43,295.54,301.54,101.64,79.26,295.37,301.03,1.0
2018-08-18 15:03:00,89.56573,38.40126,899.504,269.09,91.3,906.4,-4.85,-3.19,-64.64,101.64,79.92,295.17,301.44,101.5,79.19,295.48,301.24,1.0
2018-08-18 15:03:00,89.56573,38.40113,899.505,269.09,91.3,906.4,-3.11,-3.23,-64.57,101.11,79.78,295.26,301.44,101.52,79.16,295.51,301.45,1.0
2018-08-18 15:03:00,89.56573,38.40101,899.597,269.09,91.3,905.6,-2.2,-2.96,-64.09,100.78,79.78,295.28,301.43,101.73,79.17,295.42,301.65,1.0
2018-08-18 15:03:00,89.56573,38.40088,899.581,269.09,91.3,905.8,0.81,-3.06,-63.48,101.57,79.85,295.27,302.29,102.11,79.24,295.4,301.8,1.0
2018-08-18 15:03:00,89.56573,38.40076,899.588,269.09,91.3,905.7,2.55,-2.85,-62.73,100.52,79.71,295.76,302.48,102.64,79.37,295.39,301.87,1.0
2018-08-18 15:03:00,89.56573,38.40064,899.587,269.09,91.3,905.7,3.12,-2.68,-61.83,101.5,79.71,295.55,302.09,103.27,79.55,295.4,301.89,1.0
2018-08-18 15:03:00,89.56573,38.40051,899.585,269.09,91.3,905.7,2.95,-2.36,-60.89,101.31,79.64,294.94,301.53,103.92,79.76,295.4,301.87,1.0
2018-08-18 15:03:00,89.56573,38.40039,899.613,269.1,91.3,905.5,2.47,-1.73,-59.93,100.46,79.43,294.09,301.78,104.53,80.0,295.37,301.8,1.0
2018-08-18 15:03:00,89.56573,38.40027,899.646,269.09,91.3,905.2,1.3,-1.73,-58.8,101.24,79.23,294.4,300.81,105.03,80.24,295.33,301.71,1.0
2018-08-18 15:03:00,89.56573,38.40014,899.672,269.09,91.3,905.0,-1.24,-1.45,-58.52,101.77,79.78,294.82,300.82,105.38,80.45,295.26,301.55,1.0
2018-08-18 15:03:00,89.56573,38.40002,899.664,269.09,91.3,905.0,-0.84,-0.9,-58.43,102.42,79.85,295.16,301.14,105.54,80.63,295.15,301.38,1.0
2018-08-18 15:03:00,89.56573,38.3999,899.647,269.09,91.3,905.2,1.04,-0.53,-58.5,102.36,79.71,295.16,301.33,105.51,80.74,295.08,301.27,1.0
2018-08-18 15:03:00,89.56573,38.39983,899.647,269.09,91.3,905.2,2.35,-0.59,-58.82,101.44,79.99,295.05,301.43,105.3,80.78,295.12,301.24,1.0
2018-08-18 15:03:00,89.56573,38.39975,899.636,269.09,91.3,905.3,1.2,-0.95,-59.55,102.49,79.99,295.34,301.34,104.97,80.75,295.27,301.26,1.0
2018-08-18 15:03:00,89.56573,38.39968,899.625,269.09,91.3,905.4,2.3,-0.03,-60.58,102.03,79.92,295.06,301.44,104.56,80.66,295.4,301.39,1.0
2018-08-18 15:03:00,89.56573,38.3996,899.652,269.09,91.3,905.1,5.57,0.04,-61.34,101.64,79.99,295.15,301.34,104.14,80.52,295.53,301.52,1.0
2018-08-18 15:03:00,89.56573,38.39953,899.653,269.09,91.3,905.1,6.95,-0.04,-61.84,101.64,79.92,295.15,301.44,103.77,80.36,295.66,301.64,1.0
2018-08-18 15:03:00,89.56573,38.39945,899.628,269.09,91.3,905.4,6.39,0.15,-62.15,103.21,79.71,295.43,301.34,103.48,80.2,295.78,301.74,1.0
2018-08-18 15:03:00,89.56573,38.39938,899.653,269.09,91.3,905.1,5.81,0.69,-62.26,102.55,79.85,295.34,301.73,103.3,80.06,295.86,301.79,1.0
2018-08-18 15:03:00,89.56573,38.3993,899.643,269.09,91.3,905.2,4.46,0.68,-61.13,101.77,79.92,295.15,301.53,103.25,79.95,295.89,301.78,1.0
2018-08-18 15:03:00,89.56573,38.39923,899.654,269.09,91.3,905.1,3.37,0.78,-61.03,101.64,79.78,295.34,301.44,103.32,79.88,295.87,301.71,1.0
2018-08-18 15:03:00,89.56573,38.39916,899.663,269.09,91.3,905.0,3.23,1.22,-60.45,102.16,79.99,295.07,301.44,103.47,79.86,295.8,301.61,1.0
2018-08-18 15:03:00,89.56573,38.39908,899.661,269.1,91.3,905.1,3.72,1.58,-59.66,102.88,79.92,295.16,301.25,103.67,79.87,295.7,301.48,1.0
2018-08-18 15:03:00,89.56573,38.39901,899.644,269.09,91.3,905.2,4.42,1.56,-59.03,101.96,79.78,295.25,301.53,103.89,79.9,295.57,301.35,1.0
2018-08-18 15:03:00,89.56573,38.39893,899.628,269.1,91.3,905.4,5.11,1.35,-58.35,101.57,79.92,295.44,301.44,104.09,79.95,295.44,301.24,1.0
2018-08-18 15:03:00,89.56573,38.39886,899.677,269.1,91.3,904.9,5.39,1.94,-57.24,103.66,79.92,295.06,301.33,104.26,79.98,295.34,301.18,1.0
2018-08-18 15:03:00,89.56573,38.3988,899.723,269.1,91.3,904.5,6.59,2.16,-56.63,102.22,79.78,295.34,301.53,104.39,80.0,295.27,301.16,1.0
2018-08-18 15:03:00,89.56573,38.39876,899.713,269.1,91.3,904.6,6.33,2.23,-56.59,102.36,79.99,295.34,301.24,104.47,79.99,295.24,301.17,1.0
2018-08-18 15:03:00,89.56573,38.39871,899.643,269.1,91.3,905.2,4.78,2.43,-57.01,102.75,79.99,295.34,301.53,104.53,79.97,295.28,301.24,1.0
2018-08-18 15:03:00,89.56573,38.39867,899.609,269.1,91.3,905.5,4.72,2.96,-57.61,102.94,79.85,295.36,301.24,104.58,79.93,295.4,301.41,1.0
2018-08-18 15:03:00,89.56573,38.39863,899.645,269.1,91.3,905.2,5.61,2.67,-58.28,102.22,79.85,295.44,301.45,104.63,79.88,295.5,301.52,1.0
2018-08-18 15:03:00,89.56573,38.39858,899.674,269.09,91.3,905.0,5.3,2.64,-59.25,102.75,79.99,295.37,301.44,104.68,79.84,295.56,301.59,1.0
2018-08-18 15:03:00,89.56573,38.39854,899.686,269.09,91.3,904.8,4.4,2.63,-60.13,102.75,79.99,295.35,300.89,104.74,79.81,295.6,301.63,1.0
2018-08-18 15:03:00,89.56573,38.39849,899.688,269.1,91.3,904.8,3.33,2.64,-60.8,102.29,79.85,295.82,301.31,104.79,79.8,295.61,301.63,1.0
2018-08-18 15:03:00,89.56573,38.39845,899.7,269.1,91.3,904.7,2.45,2.71,-61.2,103.53,79.78,296.16,301.93,104.83,79.82,295.59,301.58,1.0
2018-08-18 15:03:00,89.56573,38.39841,899.676,269.1,91.3,904.9,2.12,2.32,-61.43,102.49,79.78,295.72,301.04,104.82,79.86,295.54,301.51,1.0
2018-08-18 15:03:00,89.56573,38.39838,899.706,269.1,91.3,904.7,2.02,2.46,-61.22,102.94,79.99,295.27,300.94,104.75,79.92,295.47,301.43,1.0
2018-08-18 15:03:00,89.56573,38.39835,899.703,269.1,91.3,904.7,2.75,2.46,-60.64,103.21,79.85,295.34,301.24,104.6,79.99,295.41,301.35,1.0
2018-08-18 15:03:00,89.56573,38.39832,899.709,269.1,91.3,904.6,3.72,2.46,-60.03,103.53,79.85,295.24,301.34,104.39,80.06,295.34,301.33,1.0
2018-08-18 15:03:00,89.56573,38.39829,899.765,269.1,91.3,904.2,4.53,2.55,-59.42,103.14,79.99,295.15,301.73,104.11,80.12,295.27,301.32,1.0
2018-08-18 15:03:00,89.56573,38.39826,899.705,269.1,91.3,904.7,5.17,2.33,-58.52,103.14,79.78,295.24,301.44,103.79,80.17,295.17,301.28,1.0
2018-08-18 15:03:00,89.56573,38.39823,899.678,269.1,91.3,904.9,5.08,2.54,-57.47,103.27,79.99,295.24,301.73,103.47,80.2,295.14,301.35,1.0
2018-08-18 15:03:00,89.56573,38.3982,899.745,269.1,91.3,904.3,4.74,2.53,-56.4,102.49,79.99,295.15,301.33,103.18,80.21,295.19,301.46,1.0
2018-08-18 15:03:00,89.56573,38.39817,899.785,269.1,91.3,904.0,5.78,2.62,-55.18,102.81,80.06,295.24,301.52,102.94,80.21,295.25,301.58,1.0
2018-08-18 15:03:00,89.56573,38.39814,899.744,269.1,91.3,904.3,7.91,2.83,-54.06,103.34,79.78,295.52,301.53,102.8,80.2,295.32,301.7,1.0
2018-08-18 15:03:00,89.56573,38.39811,899.698,269.1,91.3,904.7,9.37,3.0,-53.44,102.88,79.92,295.24,301.51,102.75,80.18,295.38,301.78,1.0
2018-08-18 15:03:00,89.56573,38.39808,899.775,269.1,91.3,904.1,9.26,3.1,-52.74,103.73,79.99,295.34,301.51,102.79,80.16,295.42,301.82,1.0
2018-08-18 15:03:00,89.56572,38.39805,899.778,269.1,91.3,904.0,8.61,3.16,-52.03,103.8,79.92,295.34,301.14,102.9,80.13,295.43,301.81,1.0
2018-08-18 15:03:00,89.56572,38.39802,899.78,269.1,91.3,904.0,8.55,3.51,-51.89,102.49,79.99,295.06,301.72,103.06,80.1,295.42,301.76,1.0
2018-08-18 15:03:00,89.56572,38.39797,899.795,269.1,91.3,903.9,8.44,3.9,-52.23,102.81,79.99,295.15,301.33,103.25,80.06,295.39,301.67,1.0
2018-08-18 15:03:00,89.56572,38.39792,899.807,269.1,91.3,903.8,7.38,4.07,-52.91,102.22,79.99,295.15,301.33,103.42,80.01,295.35,301.55,1.0
2018-08-18 15:03:00,89.56572,38.39787,899.794,269.1,91.3,903.9,6.21,4.18,-53.88,103.14,79.92,295.15,301.34,103.57,79.95,295.31,301.43,1.0
2018-08-18 15:03:00,89.56572,38.39782,899.777,269.1,91.3,904.0,3.73,4.35,-55.29,103.01,79.92,295.15,301.24,103.68,79.89,295.28,301.33,1.0
2018-08-18 15:03:00,89.56572,38.39776,899.763,269.1,91.3,904.2,1.97,4.57,-57.07,103.53,79.99,295.62,301.44,103.75,79.83,295.27,301.25,1.0
2018-08-18 15:03:00,89.56572,38.39771,899.784,269.1,91.3,904.0,0.34,4.51,-58.65,103.08,80.06,295.24,301.62,103.81,79.77,295.28,301.17,1.0
2018-08-18 15:03:00,89.56572,38.39766,899.836,269.1,91.3,903.5,-0.85,4.28,-59.66,103.6,79.92,295.43,301.42,103.87,79.72,295.27,301.11,1.0
2018-08-18 15:03:00,89.56572,38.39761,899.821,269.1,91.3,903.7,-0.22,4.43,-59.89,103.34,79.92,295.43,301.24,103.96,79.7,295.18,301.09,1.0
2018-08-18 15:04:00,89.56572,38.39756,899.798,269.11,91.3,903.9,1.79,4.09,-60.2,103.8,80.06,295.15,301.62,104.1,79.7,295.22,301.11,1.0
2018-08-18 15:04:00,89.56572,38.39751,899.782,269.1,91.3,904.0,1.08,3.56,-60.06,102.75,79.92,295.34,301.24,104.28,79.74,295.26,301.07,1.0
2018-08-18 15:04:00,89.56572,38.39746,899.773,269.1,91.3,904.1,0.45,2.89,-60.37,102.16,79.99,295.38,301.14,104.52,79.8,295.29,301.01,1.0
2018-08-18 15:04:00,89.56572,38.39741,899.768,269.1,91.3,904.1,0.55,2.18,-60.86,103.4,79.71,294.86,300.73,104.79,79.89,295.29,300.96,1.0
2018-08-18 15:04:00,89.56572,38.39737,899.76,269.1,91.3,904.2,1.35,1.58,-60.87,103.27,79.78,293.52,300.88,105.07,79.99,295.27,300.92,1.0
2018-08-18 15:04:00,89.56572,38.39733,899.79,269.1,91.3,903.9,5.75,0.74,-60.51,102.88,79.85,295.08,301.31,105.32,80.08,295.23,300.89,1.0
2018-08-18 15:04:00,89.56572,38.39729,899.804,269.1,91.3,903.8,8.08,-0.56,-60.35,103.99,79.99,295.24,300.63,105.52,80.17,295.17,300.89,1.0
2018-08-18 15:04:00,89.56572,38.39726,899.824,269.1,91.3,903.6,8.74,-1.38,-60.04,104.19,79.99,295.34,300.45,105.65,80.24,295.12,300.98,1.0
2018-08-18 15:04:00,89.56572,38.39722,899.849,269.1,91.3,903.4,8.3,-1.9,-60.02,103.6,79.99,295.43,300.32,105.69,80.27,294.93,301.12,1.0
2018-08-18 15:04:00,89.56572,38.39718,899.864,269.1,91.3,903.3,8.37,-2.42,-60.34,103.21,80.12,295.28,300.82,105.66,80.27,294.7,301.21,1.0
2018-08-18 15:04:00,89.56572,38.39714,899.838,269.1,91.3,903.5,12.11,-2.84,-59.89,103.53,79.99,295.6,300.97,105.56,80.23,294.8,301.21,1.0
2018-08-18 15:04:00,89.56572,38.39711,899.818,269.1,91.3,903.7,13.37,-2.76,-58.87,103.73,79.92,295.27,301.45,105.44,80.17,294.79,301.22,1.0
2018-08-18 15:04:00,89.56572,38.39707,899.825,269.1,91.3,903.6,15.55,-2.68,-57.81,103.53,79.92,295.67,302.56,105.32,80.08,294.79,301.3,1.0
2018-08-18 15:04:00,89.56572,38.39703,899.859,269.1,91.3,903.3,16.82,-2.28,-56.83,103.99,80.12,294.01,302.17,105.24,79.98,294.81,301.4,1.0
2018-08-18 15:04:00,89.56572,38.397,899.887,269.1,91.3,903.1,17.17,-1.46,-56.07,103.99,79.78,292.96,301.9,105.21,79.88,294.84,301.46,1.0
2018-08-18 15:04:00,89.56572,38.39696,899.824,269.11,91.3,903.6,18.41,-0.58,-55.62,104.06,80.06,295.06,300.95,105.25,79.78,294.85,301.5,1.0
2018-08-18 15:04:00,89.56572,38.39693,899.884,269.11,91.3,903.1,18.54,-0.13,-55.26,103.8,79.99,295.34,301.2,105.34,79.7,294.74,301.5,1.0
2018-08-18 15:04:00,89.56572,38.39689,899.844,269.1,91.3,903.5,18.2,0.52,-55.43,103.53,79.92,295.24,301.32,105.45,79.64,294.74,301.46,1.0
2018-08-18 15:04:00,89.56572,38.39686,899.823,269.1,91.3,903.6,16.18,1.19,-55.38,103.73,79.92,295.24,301.61,105.55,79.58,294.75,301.34,1.0
2018-08-18 15:04:00,89.56572,38.39682,899.852,269.11,91.3,903.4,13.47,1.63,-55.3,104.06,79.92,295.43,301.32,105.6,79.54,294.89,301.21,1.0
2018-08-18 15:04:00,89.56572,38.39679,899.894,269.11,91.3,903.0,11.49,1.65,-55.49,104.71,80.19,295.08,301.5,105.58,79.52,295.12,301.17,1.0
2018-08-18 15:04:00,89.56572,38.39676,899.844,269.11,91.3,903.5,10.14,1.65,-55.64,103.99,79.92,293.7,301.29,105.47,79.5,295.12,301.22,1.0
2018-08-18 15:04:00,89.56571,38.39672,899.817,269.11,91.3,903.7,10.0,1.38,-55.45,103.21,79.71,294.85,301.3,105.26,79.48,295.12,301.26,1.0
2018-08-18 15:04:00,89.56571,38.39669,899.844,269.11,91.3,903.5,11.13,1.08,-55.69,104.12,79.92,295.07,301.18,104.98,79.47,295.12,301.3,1.0
2018-08-18 15:04:00,89.56571,38.39666,899.876,269.11,91.3,903.2,12.23,0.92,-56.02,104.38,79.64,295.07,301.33,104.67,79.47,295.11,301.37,1.0
2018-08-18 15:04:00,89.56571,38.39662,899.871,269.11,91.3,903.2,11.75,0.95,-56.32,104.58,79.99,295.25,301.13,104.38,79.47,295.08,301.46,1.0
2018-08-18 15:04:00,89.56571,38.39659,899.9,269.11,91.3,903.0,8.95,0.95,-56.84,104.84,79.92,295.44,301.41,104.16,79.49,295.03,301.48,1.0
2018-08-18 15:04:00,89.56571,38.39655,899.884,269.1,91.3,903.1,9.6,0.94,-56.91,104.38,79.92,295.16,301.41,104.06,79.53,295.16,301.49,1.0
2018-08-18 15:04:00,89.56571,38.39652,899.889,269.11,91.3,903.1,10.0,1.2,-57.49,103.73,79.85,295.35,301.41,104.12,79.57,295.18,301.47,1.0
2018-08-18 15:04:00,89.56571,38.39649,899.9,269.11,91.3,903.0,9.69,1.42,-58.04,103.73,79.99,295.24,301.91,104.34,79.63,295.18,301.44,1.0
2018-08-18 15:04:00,89.56571,38.39645,899.903,269.1,91.3,902.9,8.88,1.51,-58.58,104.12,79.71,295.15,301.95,104.71,79.7,295.18,301.39,1.0
2018-08-18 15:04:00,89.56571,38.39642,899.872,269.1,91.3,903.2,8.23,1.45,-59.56,104.52,79.71,294.44,300.83,105.18,79.78,295.2,301.34,1.0
2018-08-18 15:04:00,89.56571,38.39637,899.858,269.1,91.3,903.3,8.98,1.82,-60.53,103.4,79.71,295.12,301.12,105.69,79.85,295.24,301.32,1.0
2018-08-18 15:04:00,89.56571,38.39632,899.878,269.11,91.3,903.2,11.13,1.64,-61.37,103.73,79.85,295.35,301.22,106.18,79.92,295.29,301.32,1.0
2018-08-18 15:04:00,89.56571,38.39627,899.9,269.11,91.3,903.0,11.68,1.7,-62.24,103.6,79.92,295.35,301.7,106.57,79.97,295.34,301.36,1.0
2018-08-18 15:04:00,89.56571,38.39622,899.92,269.11,91.3,902.8,11.56,1.81,-62.88,104.78,79.78,295.62,301.5,106.8,80.0,295.38,301.44,1.0
2018-08-18 15:04:00,89.56571,38.39617,899.938,269.1,91.3,902.6,11.43,1.8,-63.13,105.43,79.92,295.43,301.4,106.83,80.02,295.41,301.56,1.0
2018-08-18 15:04:00,89.56571,38.39612,899.94,269.11,91.3,902.6,9.45,2.0,-63.19,104.97,79.92,295.25,301.32,106.66,80.0,295.52,301.66,1.0
2018-08-18 15:04:00,89.56571,38.39607,899.918,269.11,91.3,902.8,8.0,1.53,-63.6,104.06,79.92,295.25,301.41,106.29,79.97,295.53,301.76,1.0
2018-08-18 15:04:00,89.56571,38.39602,899.945,269.11,91.3,902.6,6.34,1.41,-64.02,105.17,79.92,295.35,301.5,105.77,79.93,295.52,301.84,1.0
2018-08-18 15:04:00,89.56571,38.39597,899.985,269.11,91.3,902.2,4.41,1.48,-64.44,105.3,79.71,295.1,301.8,105.16,79.87,295.47,301.89,1.0
2018-08-18 15:04:00,89.56571,38.39595,900.003,269.11,91.3,902.1,2.77,1.47,-64.88,104.19,79.99,294.68,302.09,104.54,79.8,295.4,301.9,1.0
2018-08-18 15:04:00,89.56571,38.39594,899.998,269.11,91.3,902.1,2.62,1.05,-65.32,104.38,79.71,295.25,301.11,103.97,79.73,295.31,301.87,1.0
2018-08-18 15:04:00,89.56571,38.39592,900.019,269.11,91.3,901.9,4.2,1.12,-64.32,103.8,79.92,295.35,301.11,103.51,79.65,295.21,301.81,1.0
2018-08-18 15:04:00,89.56571,38.3959,900.012,269.11,91.3,902.0,7.06,0.71,-63.82,104.65,79.78,295.43,301.41,103.22,79.57,295.12,301.73,1.0
2018-08-18 15:04:00,89.56571,38.39589,900.01,269.11,91.3,902.0,8.36,0.3,-63.26,104.58,79.92,295.15,301.51,103.11,79.49,295.04,301.66,1.0
2018-08-18 15:04:00,89.56571,38.39587,900.019,269.11,91.3,901.9,7.76,0.21,-62.54,104.84,79.85,295.43,301.61,103.17,79.41,295.03,301.56,1.0
2018-08-18 15:04:00,89.56571,38.39585,900.025,269.11,91.3,901.9,5.7,0.56,-61.65,104.78,79.78,295.34,301.32,103.37,79.34,295.04,301.47,1.0
2018-08-18 15:04:00,89.56571,38.39584,900.004,269.11,91.3,902.1,2.01,0.9,-59.94,103.99,79.85,295.34,301.61,103.67,79.27,295.0,301.5,1.0
2018-08-18 15:04:00,89.56571,38.39582,899.936,269.11,91.3,902.6,2.27,1.23,-58.2,104.58,79.92,295.34,301.21,104.0,79.22,295.04,301.56,1.0
2018-08-18 15:04:00,89.56571,38.3958,899.949,269.11,91.3,902.5,2.74,1.34,-56.51,103.73,79.78,295.43,301.5,104.3,79.18,295.12,301.7,1.0
2018-08-18 15:04:00,89.5657,38.39578,899.968,269.11,91.3,902.4,3.1,1.42,-55.13,104.19,79.57,295.43,301.51,104.52,79.16,295.15,301.9,1.0
2018-08-18 15:04:00,89.5657,38.39577,899.935,269.11,91.3,902.7,3.87,1.53,-54.24,104.52,79.78,295.06,301.53,104.61,79.17,295.12,302.13,1.0
2018-08-18 15:04:00,89.5657,38.39574,899.979,269.11,91.3,902.3,6.26,1.49,-53.94,104.71,79.64,294.37,301.8,104.57,79.21,295.08,302.31,1.0
2018-08-18 15:04:00,89.5657,38.39571,899.967,269.11,91.3,902.4,5.71,1.24,-54.1,103.8,79.78,295.22,301.42,104.39,79.27,295.08,302.34,1.0
2018-08-18 15:04:00,89.5657,38.39568,899.953,269.11,91.3,902.5,5.26,1.3,-55.09,104.97,79.71,295.24,301.9,104.11,79.34,295.05,302.32,1.0
2018-08-18 15:04:00,89.5657,38.39565,899.943,269.11,91.3,902.6,4.16,1.1,-56.24,104.84,79.64,294.85,302.62,103.78,79.43,294.98,302.24,1.0
2018-08-18 15:04:00,89.5657,38.39562,899.947,269.11,91.3,902.5,2.46,0.78,-57.76,104.52,79.64,294.17,303.0,103.45,79.53,294.87,302.12,1.0
2018-08-18 15:04:00,89.5657,38.39559,899.988,269.11,91.3,902.2,0.86,0.79,-60.1,103.8,79.64,294.49,302.57,103.19,79.61,294.71,302.0,1.0
2018-08-18 15:04:00,89.5657,38.39556,899.959,269.11,91.3,902.4,1.86,0.38,-61.72,105.17,79.78,295.0,301.59,103.06,79.66,294.61,301.84,1.0
2018-08-18 15:04:00,89.5657,38.39553,899.965,269.11,91.3,902.4,3.91,0.37,-62.63,103.93,79.71,295.16,301.4,103.1,79.69,294.51,301.78,1.0
2018-08-18 15:04:00,89.5657,38.3955,899.983,269.11,91.3,902.2,5.8,0.39,-63.54,103.73,79.78,295.35,301.5,103.33,79.69,294.47,301.68,1.0
2018-08-18 15:04:00,89.5657,38.39547,899.979,269.11,91.3,902.3,7.37,0.43,-64.42,103.93,79.57,294.96,301.63,103.75,79.65,294.55,301.55,1.0
2018-08-18 15:04:00,89.5657,38.39544,899.935,269.11,91.3,902.7,8.43,0.41,-65.07,104.52,79.78,294.35,301.66,104.32,79.59,294.69,301.44,1.0
2018-08-18 15:04:00,89.5657,38.39541,899.955,269.11,91.3,902.5,8.46,0.04,-65.29,103.66,79.57,294.34,301.7,104.98,79.51,294.81,301.41,1.0
2018-08-18 15:04:00,89.5657,38.39538,899.95,269.11,91.3,902.5,9.4,0.34,-65.62,104.19,79.57,294.55,302.53,105.67,79.43,294.87,301.57,1.0
2018-08-18 15:04:00,89.5657,38.39534,899.994,269.1,91.3,902.1,10.33,0.14,-65.77,104.19,79.78,294.89,301.73,106.28,79.36,294.94,301.77,1.0
2018-08-18 15:04:00,89.5657,38.3953,900.036,269.1,91.3,901.8,10.42,-0.12,-65.58,104.84,79.71,295.35,301.5,106.74,79.31,294.99,301.99,1.0
2018-08-18 15:04:00,89.5657,38.39527,900.042,269.11,91.3,901.7,9.32,-0.4,-65.11,104.78,79.92,295.19,301.79,106.98,79.29,295.05,302.15,1.0
2018-08-18 15:04:00,89.5657,38.39523,900.055,269.11,91.3,901.6,7.24,-1.06,-64.62,104.45,79.71,294.87,301.46,106.95,79.31,295.16,302.17,1.0
2018-08-18 15:04:00,89.5657,38.39519,900.09,269.11,91.3,901.3,4.99,-1.03,-64.27,104.25,79.5,294.41,301.71,106.63,79.35,295.23,302.17,1.0
2018-08-18 15:04:00,89.5657,38.39516,900.129,269.11,91.3,901.0,4.63,-1.3,-63.46,104.19,79.5,294.74,301.92,106.05,79.41,295.24,302.01,1.0
2018-08-18 15:04:00,89.5657,38.39512,900.126,269.11,91.3,901.0,5.77,-1.23,-62.29,104.32,79.43,294.89,302.2,105.26,79.48,295.19,301.88,1.0
2018-08-18 15:04:00,89.5657,38.39508,900.096,269.11,91.3,901.2,8.49,-1.07,-60.7,105.24,79.5,294.8,302.4,104.34,79.54,295.11,301.76,1.0
2018-08-18 15:04:00,89.5657,38.39505,900.095,269.11,91.3,901.3,12.19,-1.17,-58.73,105.96,79.71,295.34,301.3,103.38,79.58,295.05,301.65,1.0
2018-08-18 15:04:00,89.5657,38.39501,900.105,269.11,91.3,901.2,12.57,-0.89,-56.94,104.84,79.71,295.16,301.69,102.49,79.59,295.04,301.57,1.0
2018-08-18 15:04:00,89.5657,38.39497,900.129,269.11,91.3,901.0,12.37,-1.08,-55.06,105.04,79.64,295.35,300.92,101.75,79.56,295.07,301.48,1.0
2018-08-18 15:04:00,89.5657,38.39494,900.124,269.11,91.3,901.0,9.88,-0.73,-53.26,103.34,79.57,295.34,301.36,101.23,79.51,295.11,301.43,1.0
2018-08-18 15:04:00,89.5657,38.39491,900.094,269.11,91.4,901.3,8.2,-0.26,-52.06,104.97,79.71,295.42,301.69,100.97,79.42,295.15,301.46,1.0
2018-08-18 15:04:00,89.5657,38.39488,900.069,269.12,91.3,901.5,7.89,0.09,-51.58,103.53,79.78,295.43,301.5,100.98,79.32,295.19,301.6,1.0
2018-08-18 15:04:00,89.5657,38.39485,900.057,269.12,91.3,901.6,4.76,0.66,-51.44,103.99,79.57,295.34,301.5,101.23,79.22,295.26,301.73,1.0
2018-08-18 15:04:00,89.5657,38.39482,900.11,269.12,91.4,901.1,5.01,0.34,-51.17,103.34,79.71,295.42,301.7,101.66,79.13,295.34,301.87,1.0
2018-08-18 15:04:00,89.5657,38.39479,900.119,269.12,91.3,901.0,5.88,0.44,-51.86,103.47,79.57,295.42,301.5,102.19,79.07,295.39,302.03,1.0
2018-08-18 15:04:00,89.5657,38.39476,900.106,269.12,91.3,901.2,6.91,0.68,-52.92,103.99,79.5,294.96,302.51,102.76,79.04,295.44,302.17,1.0
2018-08-18 15:04:00,89.5657,38.39473,900.102,269.12,91.3,901.2,7.73,0.86,-54.23,104.78,79.3,294.5,302.71,103.27,79.05,295.46,302.27,1.0
2018-08-18 15:04:00,89.5657,38.3947,900.122,269.12,91.3,901.0,7.93,0.83,-56.02,104.38,79.43,295.14,301.21,103.68,79.09,295.46,302.29,1.0
2018-08-18 15:04:00,89.5657,38.39467,900.104,269.12,91.3,901.2,7.98,0.9,-58.47,103.73,79.57,295.24,301.59,103.94,79.15,295.44,302.3,1.0
2018-08-18 15:04:00,89.5657,38.39464,900.085,269.12,91.3,901.3,8.42,1.33,-60.63,103.8,79.5,295.42,301.59,104.05,79.24,295.35,302.29,1.0
2018-08-18 15:04:00,89.5657,38.39461,900.103,269.12,91.3,901.2,7.66,1.6,-62.34,104.12,79.57,295.36,301.7,104.02,79.32,295.29,302.25,1.0
2018-08-18 15:04:00,89.5657,38.39458,900.148,269.11,91.3,900.8,5.83,1.68,-63.89,104.12,79.57,295.37,301.74,103.86,79.4,295.29,302.1,1.0
2018-08-18 15:04:00,89.5657,38.39455,900.184,269.12,91.3,900.5,3.37,1.66,-65.16,103.93,79.57,295.24,301.64,103.64,79.46,295.31,301.93,1.0
2018-08-18 15:04:00,89.5657,38.39452,900.178,269.11,91.3,900.5,0.1,1.77,-64.69,104.32,79.57,295.36,301.84,103.39,79.5,295.3,301.88,1.0
2018-08-18 15:04:00,89.5657,38.39449,900.161,269.12,91.3,900.7,-1.38,1.6,-65.11,103.14,79.43,294.76,301.97,103.15,79.52,295.3,301.86,1.0
2018-08-18 15:04:00,89.5657,38.39443,900.163,269.11,91.4,900.7,-1.87,1.6,-65.48,104.32,79.5,294.78,301.89,102.96,79.51,295.31,301.86,1.0
2018-08-18 15:04:00,89.5657,38.39437,900.182,269.11,91.4,900.5,-2.19,1.39,-65.81,103.6,79.36,295.33,301.69,102.83,79.49,295.33,301.84,1.0
2018-08-18 15:04:00,89.5657,38.39431,900.203,269.12,91.3,900.3,-2.56,0.94,-66.06,103.93,79.57,295.42,301.4,102.77,79.45,295.32,301.83,1.0
2018-08-18 15:04:00,89.56569,38.39425,900.202,269.11,91.4,900.3,-2.23,0.65,-65.93,104.84,79.36,295.42,301.69,102.76,79.4,295.27,301.86,1.0
2018-08-18 15:04:00,89.56569,38.3942,900.171,269.11,91.4,900.6,-3.25,0.94,-63.79,103.14,79.64,295.33,301.5,102.81,79.35,295.26,301.86,1.0
2018-08-18 15:04:00,89.56569,38.39414,900.159,269.12,91.3,900.7,-5.13,0.59,-63.15,103.53,79.64,295.25,301.69,102.88,79.31,295.3,301.84,1.0
2018-08-18 15:04:00,89.56569,38.39408,900.161,269.12,91.3,900.7,-6.64,0.42,-61.88,104.19,79.5,295.53,301.78,102.96,79.27,295.31,301.83,1.0
2018-08-18 15:04:00,89.56569,38.39402,900.176,269.12,91.4,900.5,-6.52,0.54,-60.2,102.75,79.5,295.1,301.77,103.04,79.23,295.28,301.83,1.0
2018-08-18 15:04:00,89.56569,38.39396,900.21,269.11,91.4,900.2,-3.79,0.75,-59.04,104.19,79.43,294.81,301.39,103.1,79.2,295.26,301.83,1.0
2018-08-18 15:04:00,89.56569,38.39396,900.2,269.12,91.4,900.3,1.15,0.54,-57.47,103.4,79.36,295.39,301.69,103.14,79.18,295.24,301.83,1.0
2018-08-18 15:04:00,89.56569,38.39397,900.229,269.12,91.4,900.1,3.81,0.71,-55.95,104.58,79.5,295.33,301.69,103.17,79.17,295.22,301.82,1.0
2018-08-18 15:04:00,89.56569,38.39398,900.243,269.12,91.4,900.0,5.2,1.1,-54.62,103.53,79.5,295.42,301.5,103.17,79.17,295.22,301.82,1.0
