Date/Time,Latitude,Longitude,PPPP [hPa],TTT grad [K],RH [%],Height [m],Pitch [deg],Roll [deg],Yaw [deg],SWD [W/m**2] (raw),SWU [W/m**2] (raw),LWD [W/m**2] (raw),LWU [W/m**2] (raw),SWD [W/m**2] (corrected),SWU [W/m**2] (corrected),LWD [W/m**2] (corrected),LWU [W/m**2] (corrected),Flag
2018-08-18 14:29:00,89.55695,37.68568,1008.227,274.09,89.2,2.8,2.79,5.05,-32.52,99.87,59.97,315.55,322.93,102.43,60.68,316.62,322.98,0.0
2018-08-18 14:29:00,89.55695,37.68568,1008.293,274.09,89.2,2.2,2.45,4.85,-33.76,100.46,60.11,315.63,322.89,102.63,60.7,316.52,322.85,0.0
2018-08-18 14:29:00,89.55695,37.68568,1008.345,274.09,89.2,1.8,2.51,4.76,-34.51,99.8,60.11,316.27,322.49,102.75,60.74,316.42,322.64,0.0
2018-08-18 14:29:00,89.55695,37.68568,1008.306,274.09,89.2,2.1,3.73,4.8,-34.94,101.37,60.11,316.65,321.12,102.76,60.78,316.32,322.4,0.0
2018-08-18 14:29:00,89.55695,37.68568,1008.282,274.09,89.2,2.3,5.79,5.0,-35.64,99.74,60.25,316.71,321.56,102.68,60.84,316.23,322.2,0.0
2018-08-18 14:29:00,89.55695,37.68568,1008.291,274.09,89.1,2.2,4.85,5.28,-36.33,101.11,60.25,317.0,321.25,102.48,60.88,316.24,322.15,0.0
2018-08-18 14:29:00,89.55695,37.68569,1008.292,274.09,89.2,2.2,4.73,5.45,-39.8,100.26,60.32,316.71,321.48,102.2,60.92,316.25,322.18,0.0
2018-08-18 14:29:00,89.55695,37.68569,1008.295,274.09,89.2,2.2,5.02,5.7,-43.48,100.26,60.25,316.82,321.52,101.84,60.96,316.21,322.17,0.0
2018-08-18 14:29:00,89.55695,37.68569,1008.288,274.09,89.2,2.3,5.05,5.95,-45.21,101.31,60.25,316.51,321.97,101.46,60.98,316.12,322.23,0.0
2018-08-18 14:29:00,89.55695,37.68569,1008.239,274.09,89.2,2.7,4.38,6.0,-43.81,100.65,60.32,316.12,322.24,101.07,61.01,316.02,322.41,0.0
2018-08-18 14:29:00,89.55695,37.68569,1008.282,274.09,89.2,2.3,3.99,5.93,-42.54,100.65,60.25,316.06,323.45,100.71,61.03,315.91,322.58,0.0
2018-08-18 14:29:00,89.55695,37.6857,1008.28,274.09,89.2,2.3,4.81,6.09,-40.71,100.39,60.25,315.98,324.73,100.39,61.06,315.86,322.67,0.0
2018-08-18 14:29:00,89.55695,37.68571,1008.281,274.09,89.2,2.3,5.06,6.2,-38.9,100.2,60.25,315.97,324.09,100.15,61.09,315.78,322.77,0.0
2018-08-18 14:29:00,89.55695,37.68572,1008.287,274.08,89.2,2.3,4.05,6.36,-37.08,100.0,60.11,315.33,323.6,99.97,61.13,315.69,322.91,0.0
2018-08-18 14:29:00,89.55695,37.68573,1008.283,274.09,89.2,2.3,2.07,6.56,-35.26,100.33,60.11,315.15,323.54,99.86,61.17,315.64,323.08,0.0
2018-08-18 14:29:00,89.55695,37.68574,1008.294,274.09,89.2,2.2,0.82,6.62,-33.43,101.18,60.66,315.48,323.48,99.79,61.23,315.65,323.24,0.0
2018-08-18 14:29:00,89.55695,37.68575,1008.27,274.08,89.2,2.4,2.01,6.87,-32.09,101.37,60.46,316.09,322.42,99.78,61.31,315.65,323.27,0.0
2018-08-18 14:29:00,89.55695,37.68576,1008.282,274.09,89.2,2.3,2.59,6.86,-32.26,100.59,60.52,315.86,322.38,99.8,61.41,315.71,323.16,0.0
2018-08-18 14:29:00,89.55695,37.68577,1008.29,274.09,89.2,2.3,2.97,6.78,-32.73,99.41,60.73,315.64,322.92,99.84,61.56,315.84,323.1,0.0
2018-08-18 14:29:00,89.55695,37.68578,1008.273,274.09,89.2,2.4,3.62,6.66,-33.16,101.57,60.46,315.75,323.5,99.93,61.76,315.96,323.05,0.0
2018-08-18 14:29:00,89.55695,37.68579,1008.258,274.08,89.2,2.5,5.0,6.44,-33.9,99.48,60.39,315.72,323.84,100.04,62.01,316.01,322.87,0.0
2018-08-18 14:29:00,89.55695,37.6858,1008.271,274.09,89.2,2.4,6.16,6.52,-34.52,99.08,60.39,315.65,323.72,100.2,62.32,316.16,322.77,0.0
2018-08-18 14:29:00,89.55695,37.68581,1008.283,274.09,89.2,2.3,6.28,6.61,-35.31,101.24,60.52,316.17,323.04,100.4,62.69,316.22,322.75,0.0
2018-08-18 14:29:00,89.55695,37.68582,1008.278,274.09,89.2,2.3,6.01,6.6,-35.72,100.13,60.46,316.35,323.22,100.65,63.11,316.22,322.71,0.0
2018-08-18 14:29:00,89.55695,37.68583,1008.264,274.09,89.2,2.5,5.76,6.72,-35.7,102.03,60.66,315.84,322.71,100.94,63.55,316.18,322.62,0.0
2018-08-18 14:29:00,89.55695,37.68584,1008.265,274.08,89.2,2.5,5.71,7.09,-35.56,99.87,60.73,315.63,321.53,101.25,63.99,316.13,322.44,0.0
2018-08-18 14:29:00,89.55695,37.68585,1008.254,274.09,89.2,2.5,5.5,6.97,-35.81,100.39,60.87,316.5,322.32,101.57,64.42,316.13,322.23,0.0
2018-08-18 14:29:00,89.55695,37.68586,1008.228,274.08,89.2,2.7,4.39,6.96,-36.1,100.92,61.08,316.64,322.42,101.86,64.8,316.07,322.03,0.0
2018-08-18 14:29:00,89.55695,37.68587,1008.228,274.09,89.2,2.7,3.97,7.17,-36.39,99.08,61.22,315.94,322.43,102.11,65.12,316.02,321.81,0.0
2018-08-18 14:29:00,89.55695,37.68588,1008.226,274.09,89.2,2.8,3.63,7.17,-36.4,100.26,61.15,315.46,322.34,102.3,65.38,316.02,321.58,0.0
2018-08-18 14:29:00,89.55695,37.6859,1008.217,274.08,89.2,2.8,2.99,7.03,-36.47,101.77,61.35,315.93,322.15,102.41,65.56,316.08,321.41,0.0
2018-08-18 14:29:00,89.55695,37.68591,1008.27,274.09,89.2,2.4,2.21,7.41,-37.52,100.06,61.56,316.65,322.24,102.43,65.68,316.19,321.36,0.0
2018-08-18 14:29:00,89.55695,37.68592,1008.233,274.09,89.2,2.7,3.92,7.64,-38.62,100.85,61.56,315.96,322.34,102.37,65.76,316.31,321.25,0.0
2018-08-18 14:29:00,89.55695,37.68593,1008.218,274.09,89.2,2.8,4.15,8.02,-39.54,101.24,61.63,315.81,321.85,102.23,65.83,316.4,321.34,0.0
2018-08-18 14:29:00,89.55695,37.68594,1008.218,274.09,89.2,2.8,4.08,8.58,-40.6,101.18,61.63,316.26,321.33,102.02,65.9,316.54,321.43,0.0
2018-08-18 14:29:00,89.55695,37.68595,1008.215,274.08,89.2,2.9,4.16,8.89,-41.8,100.85,61.9,316.01,321.19,101.77,66.0,316.65,321.43,0.0
2018-08-18 14:29:00,89.55695,37.68595,1008.191,274.08,89.2,3.0,4.45,8.58,-42.84,101.18,61.97,315.91,321.12,101.49,66.15,316.67,321.35,0.0
2018-08-18 14:29:00,89.55695,37.68596,1008.181,274.09,89.2,3.1,4.54,9.21,-43.49,100.26,62.18,316.5,320.76,101.17,66.35,316.66,321.24,0.0
2018-08-18 14:29:00,89.55695,37.68596,1008.165,274.09,89.2,3.2,4.05,8.57,-44.47,101.64,62.04,316.45,322.91,100.85,66.59,316.68,321.1,0.0
2018-08-18 14:29:00,89.55695,37.68596,1008.16,274.09,89.2,3.3,3.03,8.5,-44.84,99.48,62.11,316.18,322.78,100.5,66.87,316.67,321.01,0.0
2018-08-18 14:29:00,89.55695,37.68597,1008.167,274.08,89.2,3.2,2.49,8.66,-44.96,101.24,62.46,315.83,321.85,100.16,67.17,316.56,320.93,0.0
2018-08-18 14:29:00,89.55695,37.68597,1008.172,274.09,89.2,3.2,3.16,8.42,-45.47,100.2,62.39,315.59,321.03,99.81,67.48,316.39,320.86,0.0
2018-08-18 14:29:00,89.55695,37.68597,1008.144,274.09,89.2,3.4,3.9,7.82,-46.63,101.5,62.8,316.67,320.92,99.47,67.77,316.27,320.81,0.0
2018-08-18 14:29:00,89.55695,37.68597,1008.151,274.09,89.2,3.4,3.15,7.53,-47.71,101.37,62.66,316.57,321.74,99.16,68.04,316.1,320.8,0.0
2018-08-18 14:29:00,89.55695,37.68598,1008.149,274.09,89.2,3.4,3.44,7.25,-48.35,100.72,63.01,316.57,321.35,98.9,68.28,316.0,320.64,0.0
2018-08-18 14:29:00,89.55695,37.68598,1008.144,274.09,89.2,3.4,3.77,6.98,-48.24,100.26,63.08,316.27,321.87,98.71,68.49,315.95,320.51,0.0
2018-08-18 14:29:00,89.55695,37.68598,1008.14,274.09,89.2,3.4,3.69,6.82,-47.96,101.11,63.22,315.4,321.95,98.61,68.68,315.94,320.48,0.0
2018-08-18 14:29:00,89.55695,37.68598,1008.128,274.08,89.2,3.5,3.09,7.2,-49.89,100.92,63.42,315.38,321.86,98.65,68.85,315.96,320.53,0.0
2018-08-18 14:29:00,89.55695,37.68599,1008.116,274.08,89.2,3.6,3.97,7.7,-51.28,99.48,63.49,315.51,321.85,98.82,69.01,315.91,320.6,0.0
2018-08-18 14:29:00,89.55695,37.68599,1008.12,274.08,89.2,3.6,4.15,8.54,-52.78,99.87,63.7,315.59,322.02,99.14,69.17,315.84,320.66,0.0
2018-08-18 14:29:00,89.55695,37.68599,1008.121,274.08,89.2,3.6,4.15,8.75,-54.52,101.24,63.7,315.63,321.8,99.6,69.34,315.76,320.69,0.0
2018-08-18 14:29:00,89.55695,37.68599,1008.109,274.08,89.2,3.7,4.67,8.88,-56.29,99.94,63.7,315.55,321.79,100.17,69.51,315.7,320.69,0.0
2018-08-18 14:29:00,89.55695,37.68597,1008.088,274.08,89.2,3.9,5.8,9.62,-57.98,100.46,63.98,315.54,321.95,100.83,69.69,315.71,320.62,0.0
2018-08-18 14:29:00,89.55695,37.68595,1008.072,274.08,89.2,4.0,6.33,10.09,-59.89,100.33,64.32,315.92,321.76,101.52,69.85,315.71,320.46,0.0
2018-08-18 14:29:00,89.55695,37.68593,1008.059,274.07,89.2,4.1,6.67,10.43,-58.84,99.48,64.32,315.64,321.76,102.2,70.0,315.67,320.36,0.0
2018-08-18 14:29:00,89.55695,37.68592,1008.069,274.07,89.2,4.0,7.43,10.48,-60.4,100.2,64.46,315.73,321.47,102.82,70.12,315.68,320.28,0.0
2018-08-18 14:29:00,89.55695,37.6859,1008.072,274.07,89.2,4.0,7.59,10.79,-61.79,101.9,64.8,315.83,321.57,103.34,70.2,315.68,320.2,0.0
2018-08-18 14:29:00,89.55695,37.68588,1008.045,274.07,89.2,4.2,7.0,11.41,-61.88,101.77,64.73,315.7,321.68,103.73,70.26,315.66,320.14,0.0
2018-08-18 14:29:00,89.55695,37.68586,1008.033,274.07,89.2,4.3,6.83,11.72,-62.72,99.87,64.8,315.76,320.5,103.95,70.29,315.66,320.09,0.0
2018-08-18 14:29:00,89.55695,37.68585,1008.029,274.07,89.2,4.3,6.08,12.32,-62.0,100.39,65.08,315.67,321.6,104.01,70.29,315.66,320.07,0.0
2018-08-18 14:29:00,89.55695,37.68583,1008.005,274.06,89.2,4.5,4.15,12.29,-61.15,101.57,65.22,316.29,321.26,103.9,70.29,315.73,320.14,0.0
2018-08-18 14:29:00,89.55695,37.68582,1007.996,274.06,89.2,4.6,3.22,12.57,-60.08,100.46,65.36,316.05,321.84,103.64,70.3,315.77,320.19,0.0
2018-08-18 14:29:00,89.55695,37.6858,1008.01,274.07,89.2,4.5,2.78,12.76,-59.29,100.98,65.49,315.64,321.36,103.25,70.33,315.77,320.2,0.0
2018-08-18 14:29:00,89.55695,37.68579,1008.008,274.06,89.2,4.5,1.19,12.25,-59.1,101.64,65.42,315.45,321.45,102.75,70.39,315.75,320.2,0.0
2018-08-18 14:29:00,89.55695,37.68578,1007.966,274.07,89.2,4.8,0.19,13.24,-57.62,101.83,65.7,315.64,321.17,102.16,70.49,315.67,320.14,0.0
2018-08-18 14:29:00,89.55695,37.68576,1007.941,274.07,89.2,5.0,0.52,14.14,-56.52,100.39,65.7,316.01,322.0,101.51,70.63,315.65,319.99,0.0
2018-08-18 14:29:00,89.55695,37.68575,1007.919,274.07,89.2,5.2,0.93,14.59,-55.28,100.13,65.7,315.69,321.68,100.82,70.8,315.59,319.88,0.0
2018-08-18 14:29:00,89.55695,37.68573,1007.905,274.06,89.2,5.3,2.1,14.77,-54.88,101.96,66.11,315.56,321.07,100.11,70.98,315.55,319.8,0.0
2018-08-18 14:29:00,89.55695,37.68572,1007.904,274.06,89.2,5.3,3.9,14.68,-55.43,102.22,66.11,315.51,320.94,99.39,71.17,315.58,319.71,0.0
2018-08-18 14:29:00,89.55695,37.6857,1007.907,274.06,89.2,5.3,4.06,13.64,-54.58,101.83,66.32,315.03,319.95,98.7,71.33,315.59,319.62,0.0
2018-08-18 14:29:00,89.55695,37.68569,1007.927,274.06,89.2,5.1,2.35,14.55,-55.98,101.11,66.32,315.7,319.81,98.06,71.45,315.61,319.56,0.0
2018-08-18 14:29:00,89.55695,37.68568,1007.9,274.06,89.2,5.3,1.79,14.13,-55.69,100.78,66.6,315.81,320.61,97.5,71.52,315.6,319.45,0.0
2018-08-18 14:29:00,89.55695,37.68566,1007.863,274.06,89.2,5.6,1.29,14.14,-55.53,99.74,66.81,316.04,321.24,97.04,71.52,315.66,319.4,0.0
2018-08-18 14:29:00,89.55695,37.68566,1007.853,274.05,89.2,5.7,0.88,14.84,-56.0,99.48,66.81,315.65,321.06,96.72,71.46,315.8,319.42,0.0
2018-08-18 14:29:00,89.55695,37.68565,1007.822,274.06,89.2,6.0,2.14,13.73,-55.31,100.33,66.81,315.62,321.17,96.57,71.33,315.92,319.48,0.0
2018-08-18 14:29:00,89.55695,37.68565,1007.81,274.05,89.2,6.1,2.75,14.34,-56.32,101.5,67.01,315.62,320.99,96.59,71.16,316.0,319.66,0.0
2018-08-18 14:29:00,89.55695,37.68564,1007.838,274.05,89.2,5.8,4.0,12.95,-55.75,101.24,67.22,315.62,321.0,96.8,70.96,316.0,319.82,0.0
2018-08-18 14:29:00,89.55696,37.68564,1007.81,274.05,89.2,6.1,4.62,12.76,-56.16,99.87,67.15,316.01,321.18,97.17,70.74,316.0,319.88,0.0
2018-08-18 14:29:00,89.55696,37.68564,1007.758,274.06,89.2,6.5,5.0,12.6,-56.72,99.41,67.43,316.62,321.07,97.67,70.54,315.96,319.87,0.0
2018-08-18 14:29:00,89.55696,37.68563,1007.764,274.05,89.2,6.4,5.51,11.54,-56.61,100.06,67.22,316.59,320.97,98.27,70.36,315.89,319.82,0.0
2018-08-18 14:29:00,89.55696,37.68563,1007.748,274.05,89.2,6.6,5.16,13.07,-57.61,101.31,67.56,315.72,320.88,98.91,70.22,315.89,319.74,0.0
2018-08-18 14:29:00,89.55696,37.68562,1007.748,274.05,89.2,6.6,6.8,11.82,-56.62,100.2,67.43,315.61,320.88,99.53,70.13,315.85,319.64,0.0
2018-08-18 14:29:00,89.55696,37.68562,1007.725,274.04,89.2,6.7,6.96,11.99,-57.18,99.87,67.56,315.78,320.68,100.07,70.09,315.81,319.53,0.0
2018-08-18 14:29:00,89.55696,37.68562,1007.696,274.04,89.2,7.0,7.36,11.93,-57.11,98.95,67.7,315.78,320.68,100.49,70.1,315.74,319.43,0.0
2018-08-18 14:29:00,89.55696,37.68561,1007.68,274.04,89.2,7.1,7.99,11.29,-56.19,99.15,67.63,315.73,320.77,100.77,70.14,315.65,319.36,0.0
2018-08-18 14:29:00,89.55696,37.68561,1007.653,274.04,89.2,7.3,6.11,12.03,-57.46,100.2,67.7,316.05,320.56,100.89,70.2,315.61,319.34,0.0
2018-08-18 14:29:00,89.55696,37.68562,1007.632,274.03,89.2,7.5,6.49,10.93,-58.15,100.65,67.63,315.68,320.49,100.89,70.27,315.69,319.41,0.0
2018-08-18 14:29:00,89.55696,37.68562,1007.646,274.04,89.2,7.4,6.86,11.72,-59.32,101.18,67.77,315.53,320.77,100.78,70.34,315.78,319.58,0.0
2018-08-18 14:29:00,89.55696,37.68562,1007.664,274.04,89.2,7.2,7.33,11.74,-58.65,100.13,67.84,315.43,320.87,100.64,70.39,315.82,319.72,0.0
2018-08-18 14:29:00,89.55696,37.68562,1007.671,274.05,89.2,7.2,7.83,11.42,-57.92,100.65,68.05,315.62,320.68,100.5,70.43,315.8,319.79,0.0
2018-08-18 14:29:00,89.55696,37.68562,1007.66,274.04,89.2,7.2,8.23,11.97,-59.06,100.85,68.18,315.72,320.67,100.42,70.45,315.78,319.86,0.0
2018-08-18 14:29:00,89.55696,37.68563,1007.651,274.05,89.2,7.3,9.14,11.66,-56.39,100.06,68.18,316.32,321.07,100.43,70.45,315.75,319.9,0.0
2018-08-18 14:29:00,89.55696,37.68563,1007.644,274.05,89.3,7.4,8.75,11.51,-57.01,99.87,67.98,316.35,322.12,100.56,70.43,315.68,319.9,0.0
2018-08-18 14:29:00,89.55696,37.68563,1007.623,274.05,89.3,7.5,10.35,11.12,-55.64,99.54,68.32,315.67,321.1,100.78,70.41,315.58,319.85,0.0
2018-08-18 14:29:00,89.55696,37.68564,1007.603,274.05,89.2,7.7,12.23,10.93,-54.14,100.65,68.39,315.62,320.28,101.08,70.38,315.48,319.78,0.0
2018-08-18 14:29:00,89.55696,37.68564,1007.602,274.05,89.2,7.7,12.81,11.14,-53.87,100.2,68.25,315.49,320.1,101.4,70.36,315.39,319.68,0.0
2018-08-18 14:29:00,89.55696,37.68564,1007.567,274.05,89.2,8.0,13.79,10.99,-51.27,98.89,68.39,316.43,320.27,101.67,70.34,315.32,319.56,0.0
2018-08-18 14:29:00,89.55696,37.68565,1007.572,274.05,89.2,7.9,14.12,11.29,-51.44,101.18,68.39,315.74,320.47,101.86,70.34,315.25,319.4,0.0
2018-08-18 14:29:00,89.55697,37.68568,1007.541,274.05,89.2,8.2,14.22,11.71,-51.21,99.67,68.46,315.53,320.57,101.9,70.34,315.19,319.21,0.0
2018-08-18 14:29:00,89.55697,37.6857,1007.511,274.05,89.2,8.4,14.71,12.02,-51.2,100.78,68.39,315.53,320.47,101.77,70.35,315.19,319.13,0.0
2018-08-18 14:29:00,89.55697,37.68572,1007.497,274.05,89.2,8.5,15.13,12.26,-51.4,101.64,68.46,315.6,320.28,101.47,70.37,315.25,319.17,0.0
2018-08-18 14:29:00,89.55697,37.68574,1007.448,274.05,89.2,8.9,14.57,12.6,-51.34,100.65,68.53,315.78,320.27,101.02,70.4,315.32,319.24,0.0
2018-08-18 14:29:00,89.55697,37.68576,1007.439,274.05,89.2,9.0,15.1,12.71,-51.89,101.05,68.67,316.05,320.24,100.48,70.43,315.33,319.34,0.0
2018-08-18 14:29:00,89.55697,37.68578,1007.445,274.05,89.2,9.0,14.55,13.34,-55.08,100.39,68.81,315.71,320.24,99.9,70.47,315.4,319.47,0.0
2018-08-18 14:29:00,89.55697,37.6858,1007.433,274.05,89.2,9.1,14.32,13.84,-58.21,100.78,68.74,315.42,320.28,99.37,70.5,315.43,319.6,0.0
2018-08-18 14:29:00,89.55697,37.68582,1007.406,274.04,89.2,9.3,14.27,14.49,-59.44,100.0,69.01,315.7,320.37,98.94,70.53,315.4,319.69,0.0
2018-08-18 14:29:00,89.55697,37.68584,1007.387,274.04,89.2,9.4,14.16,15.51,-59.13,99.61,68.88,315.6,320.27,98.67,70.55,315.3,319.67,0.0
2018-08-18 14:29:00,89.55697,37.68586,1007.37,274.05,89.2,9.6,15.02,15.93,-63.03,100.59,68.81,314.99,320.04,98.6,70.55,315.1,319.55,0.0
2018-08-18 14:29:00,89.55697,37.68588,1007.384,274.04,89.2,9.4,14.17,16.43,-63.82,99.67,68.74,315.13,320.04,98.72,70.53,315.0,319.46,0.0
2018-08-18 14:29:00,89.55697,37.6859,1007.365,274.04,89.2,9.6,14.3,16.58,-63.98,100.72,68.88,314.87,320.56,99.03,70.49,314.92,319.35,0.0
2018-08-18 14:29:00,89.55697,37.68592,1007.343,274.04,89.2,9.8,14.12,16.94,-64.45,99.87,68.81,314.64,320.43,99.48,70.42,314.87,319.24,0.0
2018-08-18 14:29:00,89.55697,37.68594,1007.35,274.04,89.2,9.7,13.27,17.51,-65.71,100.26,69.15,314.37,319.86,100.01,70.32,314.84,319.15,0.0
2018-08-18 14:29:00,89.55697,37.68597,1007.307,274.05,89.2,10.1,13.37,17.37,-67.64,99.8,69.01,314.41,319.29,100.56,70.19,314.86,319.1,0.0
2018-08-18 14:29:00,89.55697,37.68603,1007.293,274.05,89.2,10.2,11.42,17.76,-70.18,101.18,69.22,315.06,319.57,101.05,70.06,314.98,319.06,0.0
2018-08-18 14:29:00,89.55698,37.6861,1007.276,274.05,89.2,10.3,10.53,17.47,-71.42,99.48,69.15,315.42,320.06,101.45,69.92,314.97,319.02,0.0
2018-08-18 14:29:00,89.55698,37.68616,1007.281,274.05,89.2,10.3,9.77,17.65,-72.23,101.37,69.15,315.61,320.06,101.69,69.78,314.96,319.09,0.0
2018-08-18 14:29:00,89.55698,37.68622,1007.292,274.05,89.3,10.2,8.4,17.8,-73.22,99.94,69.36,315.52,320.26,101.77,69.67,315.0,319.26,0.0
2018-08-18 14:29:00,89.55698,37.68629,1007.255,274.05,89.3,10.5,6.37,17.11,-74.36,100.06,69.08,315.52,319.92,101.68,69.57,315.09,319.48,0.0
2018-08-18 14:29:00,89.55698,37.68635,1007.248,274.05,89.3,10.5,6.21,17.43,-73.24,100.2,69.01,315.98,319.55,101.43,69.51,315.32,319.69,0.0
2018-08-18 14:29:00,89.55698,37.68642,1007.219,274.04,89.3,10.7,5.87,16.73,-73.66,100.2,69.15,314.21,319.26,101.05,69.48,315.42,319.8,0.0
2018-08-18 14:29:00,89.55698,37.68648,1007.199,274.04,89.3,10.9,5.78,16.83,-75.58,101.5,69.08,313.9,319.94,100.57,69.48,315.47,319.86,0.0
2018-08-18 14:29:00,89.55698,37.68654,1007.198,274.04,89.3,10.9,5.85,17.01,-77.12,100.0,69.01,313.89,320.65,100.04,69.49,315.39,319.82,0.0
2018-08-18 14:29:00,89.55698,37.6866,1007.209,274.04,89.3,10.8,5.99,16.9,-77.49,99.67,69.15,313.94,320.36,99.5,69.51,315.24,319.72,0.0
2018-08-18 14:29:00,89.55698,37.68666,1007.197,274.04,89.3,10.9,6.57,18.23,-79.52,101.18,69.36,315.42,319.78,98.99,69.54,315.13,319.66,0.0
2018-08-18 14:29:00,89.55698,37.68672,1007.163,274.04,89.3,11.2,6.39,18.15,-80.43,100.59,69.15,315.61,319.97,98.54,69.56,314.97,319.62,0.0
2018-08-18 14:29:00,89.55698,37.68678,1007.124,274.03,89.2,11.5,5.4,19.0,-81.66,101.05,69.22,315.32,319.96,98.17,69.57,314.98,319.6,0.0
2018-08-18 14:29:00,89.55698,37.68684,1007.097,274.03,89.2,11.7,4.75,19.5,-81.89,100.59,69.01,314.59,319.2,97.92,69.57,314.99,319.47,0.0
2018-08-18 14:29:00,89.55698,37.6869,1007.087,274.03,89.3,11.8,4.59,19.61,-81.76,99.67,69.29,314.22,319.12,97.79,69.56,315.03,319.29,0.0
2018-08-18 14:29:00,89.55698,37.68696,1007.085,274.03,89.3,11.8,4.44,20.05,-82.63,99.54,69.29,314.76,319.94,97.78,69.55,315.14,319.19,0.0
2018-08-18 14:29:00,89.55698,37.68702,1007.082,274.03,89.3,11.8,4.89,19.72,-79.43,99.87,69.36,315.01,319.76,97.88,69.54,315.13,319.17,0.0
2018-08-18 14:29:00,89.55699,37.68708,1007.047,274.02,89.3,12.1,6.06,19.74,-75.64,99.41,69.36,314.9,319.96,98.07,69.52,315.1,319.15,0.0
2018-08-18 14:29:00,89.55699,37.68714,1007.029,274.02,89.3,12.3,6.85,19.61,-71.66,99.28,69.22,314.36,319.6,98.33,69.51,315.06,319.14,0.0
2018-08-18 14:29:00,89.55699,37.6872,1007.026,274.02,89.3,12.3,7.4,19.63,-69.61,100.0,69.22,314.45,319.41,98.63,69.48,315.08,319.13,0.0
2018-08-18 14:29:00,89.55699,37.68726,1007.008,274.02,89.3,12.4,8.17,20.07,-69.91,101.05,69.01,315.7,319.95,98.94,69.45,315.14,319.1,0.0
2018-08-18 14:29:00,89.55699,37.68728,1007.002,274.02,89.3,12.5,8.92,19.99,-65.79,100.0,69.36,315.52,319.66,99.22,69.39,315.11,319.06,0.0
2018-08-18 14:29:00,89.55699,37.6873,1007.002,274.02,89.3,12.5,9.42,19.64,-66.54,99.67,69.15,315.61,319.76,99.46,69.3,315.08,319.03,0.0
2018-08-18 14:29:00,89.55699,37.68731,1006.981,274.02,89.3,12.6,9.77,18.93,-64.74,100.39,69.43,315.63,319.96,99.63,69.18,315.05,318.99,0.0
2018-08-18 14:29:00,89.55699,37.68732,1006.972,274.02,89.3,12.7,9.83,18.48,-63.53,99.35,69.15,315.62,319.36,99.73,69.03,315.09,319.01,0.0
2018-08-18 14:29:00,89.55699,37.68734,1006.99,274.02,89.3,12.6,9.75,18.43,-64.36,99.87,69.15,315.51,318.81,99.77,68.86,315.18,319.04,0.0
2018-08-18 14:29:00,89.55699,37.68735,1006.961,274.02,89.3,12.8,9.96,18.32,-65.37,99.41,69.36,315.5,319.96,99.77,68.69,315.27,319.0,0.0
2018-08-18 14:29:00,89.55699,37.68737,1006.95,274.02,89.3,12.9,9.77,16.7,-61.03,99.22,69.43,315.69,319.48,99.75,68.54,315.38,318.95,0.0
2018-08-18 14:29:00,89.55699,37.68738,1006.932,274.03,89.3,13.0,10.34,16.24,-56.71,99.61,69.29,315.51,319.57,99.76,68.43,315.42,318.98,0.0
2018-08-18 14:29:00,89.55699,37.6874,1006.904,274.03,89.3,13.2,11.22,15.37,-52.72,100.59,69.29,315.6,319.86,99.82,68.37,315.47,319.03,0.0
2018-08-18 14:29:00,89.557,37.68741,1006.876,274.02,89.3,13.5,11.61,14.21,-49.34,100.92,69.22,315.8,319.52,99.96,68.39,315.56,319.11,0.0
2018-08-18 14:29:00,89.557,37.68742,1006.863,274.03,89.3,13.6,11.01,13.49,-46.75,99.48,69.08,316.43,319.14,100.2,68.49,315.63,319.17,0.0
2018-08-18 14:29:00,89.557,37.68744,1006.805,274.02,89.3,14.0,10.98,12.87,-48.59,100.2,68.74,316.29,318.81,100.53,68.64,315.64,319.14,0.0
2018-08-18 14:29:00,89.557,37.68744,1006.79,274.03,89.3,14.2,10.59,12.76,-50.03,99.48,69.01,314.98,319.47,100.95,68.85,315.61,319.09,0.0
2018-08-18 14:29:00,89.557,37.68744,1006.792,274.03,89.3,14.1,10.35,12.08,-51.49,99.02,69.08,315.09,319.63,101.42,69.08,315.56,319.03,0.0
2018-08-18 14:29:00,89.557,37.68743,1006.803,274.03,89.3,14.1,10.24,11.71,-53.05,99.08,68.88,315.55,319.73,101.9,69.31,315.49,318.98,0.0
2018-08-18 14:29:00,89.557,37.68742,1006.82,274.04,89.3,13.9,10.27,11.94,-54.68,101.05,69.08,315.75,319.18,102.34,69.5,315.4,318.96,0.0
2018-08-18 14:29:00,89.557,37.68742,1006.782,274.04,89.3,14.2,10.8,11.02,-56.5,99.87,69.29,315.31,319.65,102.68,69.64,315.26,319.01,0.0
2018-08-18 14:29:00,89.557,37.68741,1006.765,274.04,89.3,14.4,9.64,11.38,-58.53,101.31,69.22,315.49,319.65,102.9,69.72,315.16,319.12,0.0
2018-08-18 14:29:00,89.557,37.68741,1006.738,274.04,89.3,14.6,9.36,11.01,-62.22,98.82,69.29,315.21,319.74,102.95,69.72,315.18,319.21,0.0
2018-08-18 14:29:00,89.557,37.6874,1006.713,274.04,89.3,14.8,8.27,11.07,-65.66,100.92,69.36,315.58,319.65,102.81,69.66,315.21,319.3,0.0
2018-08-18 14:29:00,89.557,37.68739,1006.699,274.04,89.3,14.9,6.54,11.36,-67.34,99.48,69.22,315.58,319.75,102.49,69.56,315.19,319.42,0.0
2018-08-18 14:29:00,89.55701,37.68739,1006.69,274.05,89.3,14.9,5.65,10.78,-66.69,101.9,69.22,315.49,319.65,102.01,69.42,315.14,319.55,0.0
2018-08-18 14:29:00,89.55701,37.68738,1006.71,274.05,89.3,14.8,4.07,11.15,-70.2,100.78,69.22,315.5,319.74,101.41,69.27,315.07,319.57,0.0
2018-08-18 14:29:00,89.55701,37.68738,1006.681,274.05,89.3,15.0,3.93,10.53,-70.99,100.06,69.08,315.49,319.45,100.73,69.12,315.01,319.55,0.0
2018-08-18 14:29:00,89.55701,37.68737,1006.649,274.05,89.3,15.3,3.94,10.77,-71.57,101.24,69.22,315.23,319.53,100.03,68.99,315.04,319.55,0.0
2018-08-18 14:29:00,89.55701,37.68741,1006.642,274.05,89.3,15.3,3.91,11.3,-72.57,99.8,69.15,314.68,319.46,99.36,68.87,315.09,319.52,0.0
2018-08-18 14:29:00,89.55701,37.68744,1006.664,274.05,89.3,15.2,3.87,11.17,-73.91,99.54,69.08,314.26,319.18,98.78,68.77,315.12,319.45,0.0
2018-08-18 14:29:00,89.55701,37.68747,1006.643,274.05,89.3,15.3,3.11,11.77,-75.76,100.06,69.29,313.47,318.58,98.33,68.68,315.11,319.33,0.0
2018-08-18 14:29:00,89.55701,37.6875,1006.662,274.05,89.3,15.2,1.6,11.44,-75.63,102.03,69.08,313.68,318.3,98.02,68.59,315.08,319.2,0.0
2018-08-18 14:29:00,89.55701,37.68754,1006.646,274.05,89.3,15.3,0.11,11.33,-78.64,100.13,69.15,314.74,319.26,97.88,68.49,315.01,319.02,0.0
2018-08-18 14:29:00,89.55701,37.68757,1006.617,274.05,89.3,15.5,-1.15,10.88,-80.79,99.48,69.08,315.4,319.55,97.89,68.38,314.95,318.82,0.0
2018-08-18 14:29:00,89.55701,37.6876,1006.607,274.05,89.3,15.6,-1.86,10.3,-80.62,100.46,69.15,315.3,319.55,98.03,68.27,314.97,318.66,0.0
2018-08-18 14:29:00,89.55701,37.68763,1006.615,274.05,89.3,15.5,-1.47,10.69,-80.51,99.41,69.15,315.49,319.56,98.26,68.15,315.13,318.58,0.0
2018-08-18 14:29:00,89.55701,37.68766,1006.603,274.05,89.3,15.6,-0.39,10.77,-80.84,99.67,69.15,315.4,319.65,98.55,68.05,315.16,318.61,0.0
2018-08-18 14:29:00,89.55701,37.6877,1006.577,274.05,89.3,15.8,-0.28,11.03,-83.94,100.06,69.22,315.35,319.14,98.86,67.98,315.29,318.67,0.0
2018-08-18 14:29:00,89.55701,37.68773,1006.56,274.05,89.3,16.0,-0.03,11.17,-85.06,99.87,68.88,315.21,318.89,99.16,67.93,315.36,318.73,0.0
2018-08-18 14:29:00,89.55702,37.68776,1006.555,274.05,89.3,16.0,0.37,11.15,-84.41,100.65,69.08,315.56,318.88,99.42,67.93,315.37,318.78,0.0
2018-08-18 14:29:00,89.55702,37.68779,1006.532,274.04,89.3,16.2,-0.98,10.74,-88.01,99.35,68.74,316.14,318.82,99.62,67.96,315.39,318.82,0.0
2018-08-18 14:29:00,89.55702,37.68783,1006.522,274.05,89.3,16.3,-1.73,10.93,-87.04,99.28,68.67,314.19,318.82,99.79,68.03,315.4,318.85,0.0
2018-08-18 14:29:00,89.55702,37.68786,1006.497,274.05,89.3,16.5,-2.78,11.12,-85.18,100.92,68.81,315.23,319.21,99.92,68.1,315.41,318.87,0.0
2018-08-18 14:29:00,89.55702,37.68791,1006.481,274.05,89.3,16.6,-3.71,11.68,-82.47,100.06,68.81,315.48,319.23,100.04,68.18,315.44,318.9,0.0
2018-08-18 14:29:00,89.55702,37.68796,1006.483,274.05,89.3,16.6,-4.29,12.1,-81.55,98.89,68.94,315.29,319.44,100.17,68.24,315.46,318.94,0.0
2018-08-18 14:29:00,89.55702,37.68802,1006.49,274.05,89.3,16.5,-4.59,12.27,-83.46,100.72,68.88,315.21,319.34,100.33,68.27,315.43,318.96,0.0
2018-08-18 14:29:00,89.55702,37.68807,1006.45,274.04,89.3,16.9,-5.0,13.4,-84.7,100.59,69.01,315.49,319.15,100.52,68.26,315.34,318.94,0.0
2018-08-18 14:29:00,89.55702,37.68813,1006.416,274.04,89.3,17.1,-4.54,13.32,-80.87,98.89,68.81,315.77,319.34,100.74,68.22,315.48,318.87,0.0
2018-08-18 14:29:00,89.55702,37.68818,1006.4,274.04,89.3,17.3,-3.64,13.85,-76.58,100.46,69.01,315.67,319.34,100.98,68.15,315.5,318.86,0.0
2018-08-18 14:29:00,89.55702,37.68824,1006.396,274.04,89.3,17.3,-2.9,13.88,-72.48,99.87,68.81,315.48,319.44,101.21,68.06,315.47,318.86,0.0
2018-08-18 14:29:00,89.55702,37.68829,1006.392,274.04,89.3,17.3,-2.16,13.68,-69.7,99.48,68.67,315.39,319.33,101.39,67.97,315.38,318.82,0.0
2018-08-18 14:29:00,89.55702,37.68835,1006.376,274.04,89.3,17.4,-0.78,14.68,-69.95,100.33,68.81,315.52,319.25,101.49,67.9,315.21,318.76,0.0
2018-08-18 14:29:00,89.55702,37.68839,1006.384,274.04,89.3,17.4,0.15,13.58,-65.97,100.2,68.6,316.04,318.3,101.49,67.85,315.18,318.79,0.0
2018-08-18 14:29:00,89.55702,37.68842,1006.366,274.04,89.3,17.5,1.1,14.29,-65.41,100.0,68.6,315.25,319.04,101.36,67.85,315.14,318.82,0.0
2018-08-18 14:29:00,89.55702,37.68845,1006.351,274.04,89.3,17.6,1.99,14.08,-63.67,100.06,68.67,315.56,319.14,101.12,67.87,315.11,318.86,0.0
2018-08-18 14:29:00,89.55702,37.68849,1006.349,274.04,89.3,17.7,2.26,13.89,-60.5,101.24,68.67,314.74,319.09,100.77,67.93,315.02,318.88,0.0
2018-08-18 14:29:00,89.55702,37.68852,1006.349,274.04,89.3,17.7,1.52,15.01,-57.51,100.46,68.67,314.01,318.45,100.35,68.0,314.86,318.86,0.0
2018-08-18 14:29:00,89.55702,37.68855,1006.275,274.04,89.3,18.2,0.7,15.04,-57.55,99.41,68.6,315.54,319.43,99.91,68.08,314.72,318.82,0.0
2018-08-18 14:29:00,89.55702,37.68858,1006.256,274.04,89.3,18.4,2.03,16.94,-56.13,100.59,68.39,315.39,319.15,99.48,68.16,314.54,318.87,0.0
2018-08-18 14:29:00,89.55702,37.68862,1006.254,274.04,89.3,18.4,2.01,16.06,-55.37,100.78,68.81,315.48,319.24,99.12,68.22,314.58,318.91,0.0
2018-08-18 14:29:00,89.55702,37.68865,1006.253,274.04,89.3,18.4,1.93,14.92,-54.0,100.26,68.67,314.64,319.36,98.86,68.26,314.64,318.86,0.0
2018-08-18 14:29:00,89.55702,37.68868,1006.246,274.04,89.3,18.5,2.86,14.77,-51.72,99.94,68.6,313.57,318.5,98.72,68.29,314.73,318.78,0.0
2018-08-18 14:29:00,89.55702,37.68871,1006.24,274.04,89.3,18.5,4.56,13.72,-50.26,98.82,68.67,313.88,318.42,98.72,68.31,315.01,318.84,0.0
2018-08-18 14:29:00,89.55702,37.68874,1006.204,274.04,89.3,18.8,4.81,13.21,-48.42,99.8,68.67,313.67,318.7,98.84,68.31,315.05,318.84,0.0
2018-08-18 14:29:00,89.55702,37.68875,1006.158,274.05,89.3,19.2,5.81,13.29,-49.47,100.33,68.46,315.53,318.98,99.06,68.32,315.08,318.83,0.0
2018-08-18 14:29:00,89.55702,37.68873,1006.133,274.05,89.3,19.4,7.22,12.98,-50.26,100.78,68.53,315.73,318.45,99.35,68.33,315.1,318.82,0.0
2018-08-18 14:29:00,89.55702,37.6887,1006.136,274.05,89.3,19.3,8.12,12.7,-50.27,99.74,68.39,315.05,317.98,99.7,68.35,315.17,318.83,0.0
2018-08-18 14:29:00,89.55702,37.68868,1006.144,274.05,89.3,19.3,7.49,13.5,-50.68,98.95,68.53,316.32,318.88,100.07,68.37,315.33,318.88,0.0
2018-08-18 14:29:00,89.55702,37.68866,1006.102,274.05,89.3,19.6,7.54,12.94,-50.81,101.05,68.53,315.55,319.02,100.43,68.39,315.48,318.9,0.0
2018-08-18 14:29:00,89.55702,37.68864,1006.095,274.05,89.3,19.7,6.77,13.4,-51.89,100.39,68.6,315.3,319.51,100.78,68.4,315.6,318.95,0.0
2018-08-18 14:29:00,89.55702,37.68861,1006.094,274.05,89.3,19.7,5.03,13.21,-52.81,99.48,68.6,315.4,319.42,101.11,68.41,315.57,318.96,0.0
2018-08-18 14:29:00,89.55702,37.68859,1006.082,274.05,89.3,19.8,3.54,13.11,-54.06,99.41,68.53,315.59,319.32,101.39,68.39,315.61,319.09,0.0
2018-08-18 14:29:00,89.55703,37.68857,1006.061,274.05,89.3,19.9,2.99,13.54,-56.08,100.46,68.6,315.39,319.18,101.61,68.35,315.72,319.35,0.0
2018-08-18 14:29:00,89.55703,37.68854,1006.062,274.04,89.3,19.9,2.3,13.08,-58.27,99.67,68.67,315.46,318.5,101.75,68.29,315.65,319.37,0.0
2018-08-18 14:29:00,89.55703,37.68852,1006.047,274.04,89.3,20.1,2.65,13.79,-59.76,100.65,68.6,315.15,319.21,101.79,68.22,315.67,319.36,0.0
2018-08-18 14:29:00,89.55703,37.6885,1006.032,274.04,89.3,20.2,3.22,13.67,-61.47,99.67,68.46,315.15,318.92,101.71,68.13,315.68,319.34,0.0
2018-08-18 14:29:00,89.55703,37.68847,1006.02,274.04,89.3,20.3,3.2,13.65,-62.96,100.85,68.46,315.92,319.96,101.48,68.05,315.68,319.3,0.0
2018-08-18 14:29:00,89.55703,37.68843,1006.009,274.04,89.3,20.4,2.57,14.29,-64.22,100.85,68.39,316.46,320.57,101.08,67.97,315.66,319.24,0.0
2018-08-18 14:29:00,89.55703,37.68839,1006.025,274.04,89.3,20.2,2.7,14.5,-66.87,100.39,68.39,315.44,319.23,100.54,67.91,315.63,319.2,0.0
2018-08-18 14:29:00,89.55703,37.68835,1005.983,274.04,89.3,20.6,2.74,14.3,-69.2,99.8,68.53,315.57,319.04,99.87,67.86,315.57,319.2,0.0
2018-08-18 14:29:00,89.55703,37.68831,1005.94,274.03,89.3,20.9,2.46,14.05,-71.53,100.39,68.46,315.46,319.42,99.12,67.83,315.54,319.17,0.0
2018-08-18 14:29:00,89.55703,37.68827,1005.944,274.03,89.3,20.9,2.42,14.38,-73.68,99.8,68.46,315.37,319.42,98.37,67.81,315.49,319.12,0.0
2018-08-18 14:29:00,89.55703,37.68823,1005.972,274.03,89.3,20.7,2.22,14.93,-74.99,101.5,68.53,315.56,319.32,97.69,67.79,315.36,319.0,0.0
2018-08-18 14:29:00,89.55703,37.68818,1005.96,274.03,89.3,20.8,1.34,15.2,-74.88,100.06,68.25,315.36,319.4,97.18,67.77,315.24,318.84,0.0
2018-08-18 14:29:00,89.55703,37.68814,1005.935,274.02,89.3,20.9,-0.06,15.5,-74.13,99.67,68.46,315.56,319.12,96.91,67.74,315.33,319.02,0.0
2018-08-18 14:29:00,89.55704,37.6881,1005.928,274.02,89.3,21.0,-1.04,15.18,-76.17,100.2,68.39,315.46,319.51,96.92,67.7,315.14,319.0,0.0
2018-08-18 14:29:00,89.55704,37.68806,1005.914,274.02,89.3,21.1,-1.72,15.44,-78.89,98.43,68.25,315.64,318.94,97.23,67.65,315.04,319.02,0.0
2018-08-18 14:29:00,89.55704,37.68802,1005.893,274.02,89.3,21.3,-1.77,15.59,-81.57,100.92,68.39,315.36,318.65,97.83,67.58,315.06,319.02,0.0
2018-08-18 14:29:00,89.55704,37.68798,1005.875,274.02,89.3,21.4,-1.41,15.49,-83.47,98.95,68.25,315.88,318.96,98.65,67.51,315.12,318.99,0.0
2018-08-18 14:29:00,89.55704,37.68796,1005.873,274.01,89.3,21.4,-2.03,16.35,-83.84,100.59,68.39,317.02,320.64,99.6,67.43,315.13,319.04,0.0
2018-08-18 14:29:00,89.55704,37.68795,1005.856,274.01,89.3,21.6,-0.71,17.03,-81.28,98.76,68.32,313.84,318.45,100.58,67.37,315.13,319.12,0.0
2018-08-18 14:29:00,89.55704,37.68794,1005.854,274.02,89.3,21.6,0.2,17.43,-79.08,99.35,68.32,314.65,319.01,101.48,67.33,315.03,319.02,0.0
2018-08-18 14:29:00,89.55704,37.68793,1005.851,274.02,89.3,21.6,0.28,17.27,-78.68,99.74,67.98,315.98,318.53,102.21,67.31,314.96,318.95,0.0
2018-08-18 14:29:00,89.55704,37.68792,1005.839,274.02,89.3,21.7,0.26,16.72,-78.45,99.67,68.25,316.04,318.63,102.69,67.33,314.95,318.96,0.0
2018-08-18 14:29:00,89.55704,37.6879,1005.818,274.02,89.3,21.9,1.31,16.2,-75.74,99.54,68.05,315.56,319.33,102.91,67.37,314.91,318.91,0.0
2018-08-18 14:29:00,89.55704,37.68789,1005.847,274.02,89.3,21.6,1.08,16.78,-77.32,100.78,68.12,315.4,320.08,102.88,67.45,314.75,318.69,0.0
2018-08-18 14:29:00,89.55704,37.68788,1005.795,274.03,89.3,22.1,0.89,16.43,-74.99,101.37,68.25,314.07,318.64,102.64,67.55,314.95,318.8,0.0
2018-08-18 14:29:00,89.55704,37.68787,1005.773,274.03,89.3,22.2,-0.63,15.38,-72.29,100.59,68.25,314.68,318.72,102.27,67.67,315.1,318.79,0.0
2018-08-18 14:29:00,89.55704,37.68786,1005.775,274.03,89.3,22.2,-1.54,15.06,-69.85,100.65,68.18,315.22,319.23,101.85,67.81,315.12,318.78,0.0
2018-08-18 14:29:00,89.55704,37.68785,1005.746,274.02,89.3,22.4,-0.08,16.15,-67.85,99.35,67.91,315.27,318.71,101.46,67.95,315.09,318.85,0.0
2018-08-18 14:29:00,89.55704,37.68784,1005.713,274.02,89.3,22.7,3.05,16.56,-66.95,100.13,68.05,315.04,318.49,101.17,68.08,315.08,318.78,0.0
2018-08-18 14:29:00,89.55704,37.68783,1005.707,274.03,89.3,22.8,5.95,16.94,-65.49,100.26,68.05,315.74,319.77,101.0,68.2,315.12,318.75,0.0
2018-08-18 14:29:00,89.55704,37.68782,1005.704,274.02,89.3,22.8,6.03,16.45,-63.47,99.94,68.12,315.71,318.3,100.95,68.31,315.28,318.88,0.0
2018-08-18 14:29:00,89.55704,37.6878,1005.68,274.02,89.3,23.0,5.63,15.47,-61.74,100.59,68.05,315.86,318.17,101.0,68.39,315.39,318.97,0.0
2018-08-18 14:29:00,89.55704,37.68779,1005.642,274.03,89.3,23.3,5.92,14.24,-61.15,101.18,68.25,315.17,318.69,101.07,68.45,315.44,319.04,0.0
2018-08-18 14:29:00,89.55705,37.68775,1005.696,274.03,89.3,22.8,5.45,12.53,-62.26,100.52,68.18,314.78,317.87,101.12,68.47,315.48,319.18,0.0
2018-08-18 14:29:00,89.55705,37.68771,1005.635,274.03,89.3,23.3,3.19,11.42,-63.71,99.35,68.25,315.22,318.95,101.09,68.47,315.5,319.18,0.0
2018-08-18 14:29:00,89.55705,37.68767,1005.626,274.03,89.3,23.4,3.11,10.96,-65.32,100.39,68.05,315.27,319.38,100.93,68.44,315.46,319.11,0.0
2018-08-18 14:29:00,89.55705,37.68762,1005.627,274.03,89.3,23.4,3.57,10.47,-66.92,99.8,68.25,315.45,319.28,100.63,68.38,315.36,319.12,0.0
2018-08-18 14:29:00,89.55705,37.68758,1005.62,274.03,89.3,23.4,3.72,10.11,-68.12,101.05,68.18,315.17,319.71,100.22,68.31,315.29,319.14,0.0
2018-08-18 14:29:00,89.55705,37.68754,1005.617,274.04,89.3,23.5,3.38,10.2,-68.64,100.39,68.05,315.17,320.6,99.74,68.22,315.3,319.14,0.0
2018-08-18 14:29:00,89.55705,37.6875,1005.587,274.04,89.3,23.7,3.98,9.95,-69.42,102.03,68.39,315.36,319.15,99.26,68.12,315.34,319.23,0.0
2018-08-18 14:29:00,89.55705,37.68746,1005.586,274.04,89.3,23.7,3.45,10.39,-70.33,100.52,68.18,315.55,319.88,98.86,68.02,315.36,319.25,0.0
2018-08-18 14:29:00,89.55705,37.68742,1005.572,274.04,89.3,23.8,2.81,10.23,-71.41,100.2,68.05,315.05,319.46,98.6,67.94,315.32,319.23,0.0
2018-08-18 14:29:00,89.55705,37.68739,1005.552,274.04,89.3,24.0,2.34,10.07,-72.71,99.67,68.12,314.85,318.88,98.54,67.87,315.25,319.29,0.0
2018-08-18 14:29:00,89.55705,37.68736,1005.544,274.03,89.3,24.1,1.74,10.13,-73.98,100.06,68.25,315.35,319.27,98.7,67.82,315.19,319.43,0.0
2018-08-18 14:29:00,89.55705,37.68733,1005.523,274.03,89.3,24.2,0.1,9.43,-74.5,99.8,68.18,315.26,319.19,99.06,67.8,315.22,319.48,0.0
2018-08-18 14:29:00,89.55706,37.6873,1005.508,274.03,89.3,24.3,-0.43,9.76,-74.77,99.8,68.12,315.44,319.0,99.6,67.81,315.25,319.63,0.0
2018-08-18 14:29:00,89.55706,37.68726,1005.507,274.04,89.3,24.3,-0.37,9.82,-75.33,100.33,68.05,314.77,318.69,100.23,67.85,315.19,319.7,0.0
2018-08-18 14:29:00,89.55706,37.68723,1005.512,274.03,89.3,24.3,-0.49,10.08,-75.77,98.95,68.05,314.02,319.0,100.9,67.91,315.16,319.78,0.0
2018-08-18 14:29:00,89.55706,37.6872,1005.513,274.02,89.3,24.3,-0.85,10.51,-76.04,100.52,68.05,314.19,320.36,101.52,67.99,315.17,319.84,0.0
2018-08-18 14:29:00,89.55706,37.68717,1005.481,274.02,89.3,24.6,-0.72,10.27,-76.49,100.59,68.18,315.34,320.26,102.02,68.08,315.13,319.81,0.0
2018-08-18 14:29:00,89.55706,37.68714,1005.477,274.02,89.3,24.6,-0.76,10.01,-77.21,100.59,68.18,315.16,320.17,102.35,68.15,315.07,319.72,0.0
2018-08-18 14:29:00,89.55706,37.68711,1005.473,274.03,89.3,24.6,-1.53,9.92,-76.93,100.39,68.05,314.52,319.94,102.49,68.21,315.0,319.62,0.0
2018-08-18 14:29:00,89.55706,37.68707,1005.459,274.03,89.3,24.7,-2.26,9.9,-76.6,100.39,68.12,314.86,320.1,102.46,68.25,314.9,319.6,0.0
2018-08-18 14:29:00,89.55706,37.68704,1005.446,274.02,89.3,24.8,-2.93,9.86,-76.09,101.77,68.18,315.15,319.91,102.27,68.25,314.8,319.54,0.0
2018-08-18 14:29:00,89.55706,37.68696,1005.453,274.03,89.3,24.8,-3.59,9.83,-75.18,99.94,68.12,315.43,319.49,101.98,68.21,314.75,319.41,0.0
2018-08-18 14:29:00,89.55706,37.68688,1005.414,274.02,89.3,25.1,-3.75,10.45,-74.42,100.65,68.18,315.25,319.35,101.64,68.13,314.72,319.32,0.0
2018-08-18 14:29:00,89.55706,37.6868,1005.42,274.03,89.3,25.0,-3.09,10.78,-72.94,100.0,67.98,315.25,319.27,101.31,68.02,314.71,319.27,0.0
2018-08-18 14:29:00,89.55706,37.68671,1005.403,274.02,89.3,25.2,-2.74,11.17,-71.74,100.39,68.18,314.45,319.27,101.03,67.89,314.8,319.25,0.0
2018-08-18 14:29:00,89.55706,37.68663,1005.38,274.02,89.3,25.4,-2.2,11.46,-70.36,100.39,68.05,313.84,319.27,100.82,67.75,314.87,319.25,0.0
2018-08-18 14:29:00,89.55706,37.68655,1005.369,274.03,89.3,25.4,-1.46,11.6,-68.79,100.78,68.18,314.26,319.08,100.7,67.61,314.91,319.29,0.0
2018-08-18 14:29:00,89.55706,37.68646,1005.354,274.02,89.3,25.6,-1.12,11.62,-67.73,100.46,68.12,315.44,319.56,100.66,67.49,314.97,319.38,0.0
2018-08-18 14:29:00,89.55706,37.68638,1005.368,274.03,89.3,25.4,-0.49,11.29,-64.86,100.98,68.25,315.44,318.97,100.68,67.39,314.93,319.45,0.0
2018-08-18 14:29:00,89.55706,37.6863,1005.353,274.03,89.3,25.6,-0.54,11.62,-62.56,100.59,68.12,315.45,319.27,100.74,67.33,314.98,319.49,0.0
2018-08-18 14:29:00,89.55706,37.68621,1005.341,274.03,89.3,25.7,-0.64,11.65,-60.14,100.72,68.05,315.44,319.17,100.82,67.31,315.07,319.48,0.0
2018-08-18 14:29:00,89.55707,37.68613,1005.327,274.03,89.3,25.8,-0.34,11.54,-57.49,100.85,68.05,315.54,319.25,100.88,67.33,315.16,319.43,0.0
2018-08-18 14:29:00,89.55707,37.68605,1005.268,274.03,89.3,26.2,0.59,11.74,-55.25,100.0,67.7,315.89,319.58,100.91,67.38,315.2,319.35,0.0
2018-08-18 14:29:00,89.55707,37.68596,1005.259,274.03,89.3,26.3,1.83,11.06,-55.4,100.85,67.91,314.4,319.2,100.93,67.46,315.15,319.26,0.0
2018-08-18 14:29:00,89.55707,37.68587,1005.238,274.03,89.3,26.5,2.27,10.9,-56.0,100.98,67.84,315.77,319.49,100.92,67.57,315.1,319.2,0.0
2018-08-18 14:29:00,89.55707,37.68578,1005.229,274.03,89.3,26.6,2.7,10.71,-54.6,100.06,67.91,315.44,319.16,100.92,67.7,315.08,319.11,0.0
2018-08-18 14:29:00,89.55707,37.68569,1005.224,274.03,89.3,26.6,2.72,10.56,-52.22,100.59,67.91,315.23,319.26,100.94,67.84,315.08,319.13,0.0
2018-08-18 14:29:00,89.55707,37.6856,1005.21,274.03,89.3,26.7,2.21,10.58,-50.69,100.85,68.12,315.52,319.07,100.99,67.99,315.04,319.25,0.0
2018-08-18 14:29:00,89.55707,37.68551,1005.221,274.03,89.3,26.6,1.92,10.73,-52.27,100.0,68.18,315.25,319.25,101.1,68.13,314.94,319.35,0.0
2018-08-18 14:29:00,89.55707,37.68542,1005.221,274.04,89.3,26.6,1.84,10.85,-51.02,101.24,67.98,315.44,319.27,101.26,68.28,315.01,319.44,0.0
2018-08-18 14:29:00,89.55707,37.68533,1005.211,274.04,89.3,26.7,1.35,11.26,-51.4,100.46,67.98,315.32,318.87,101.48,68.43,315.01,319.38,0.0
2018-08-18 14:29:00,89.55707,37.68524,1005.183,274.04,89.3,26.9,2.01,12.09,-51.87,100.59,67.84,315.38,319.52,101.73,68.57,314.95,319.36,0.0
2018-08-18 14:29:00,89.55707,37.68515,1005.14,274.04,89.3,27.3,4.37,13.06,-51.61,101.05,67.98,314.92,320.24,102.0,68.7,314.9,319.42,0.0
2018-08-18 14:29:00,89.55707,37.68506,1005.123,274.03,89.3,27.4,7.36,13.44,-50.83,100.78,67.98,314.02,320.18,102.27,68.81,314.92,319.49,0.0
2018-08-18 14:29:00,89.55707,37.68496,1005.114,274.03,89.3,27.5,6.08,13.36,-52.43,101.44,68.05,314.85,319.42,102.5,68.91,314.82,319.51,0.0
2018-08-18 14:29:00,89.55707,37.6849,1005.114,274.04,89.3,27.5,6.61,13.34,-52.62,100.85,67.91,315.25,318.14,102.67,68.98,314.76,319.52,0.0
2018-08-18 14:29:00,89.55707,37.68486,1005.095,274.04,89.3,27.6,7.47,14.1,-51.83,99.8,68.12,314.67,318.53,102.77,69.01,314.72,319.55,0.0
2018-08-18 14:29:00,89.55708,37.68482,1005.06,274.03,89.3,27.9,6.21,15.23,-51.07,100.39,68.25,314.16,319.39,102.79,69.01,314.69,319.47,0.0
2018-08-18 14:29:00,89.55708,37.68478,1005.04,274.04,89.3,28.1,3.08,15.88,-51.05,101.83,68.18,315.12,319.91,102.74,68.96,314.69,319.26,0.0
2018-08-18 14:29:00,89.55708,37.68474,1005.022,274.03,89.3,28.2,6.31,15.65,-50.69,100.98,68.25,314.1,319.8,102.63,68.88,314.73,319.13,0.0
2018-08-18 14:29:00,89.55708,37.6847,1005.02,274.03,89.3,28.2,3.79,16.63,-52.62,101.05,68.25,314.52,319.59,102.46,68.77,314.69,319.2,0.0
2018-08-18 14:29:00,89.55708,37.68466,1005.019,274.03,89.3,28.2,2.58,15.24,-53.32,101.44,68.25,315.14,319.82,102.26,68.63,314.61,319.42,0.0
2018-08-18 14:29:00,89.55708,37.68462,1005.009,274.03,89.3,28.3,0.69,14.2,-54.06,101.18,68.05,315.55,319.38,102.04,68.48,314.6,319.56,0.0
2018-08-18 14:29:00,89.55708,37.68458,1004.983,274.03,89.3,28.5,-1.95,14.36,-55.83,101.57,68.39,314.91,318.59,101.82,68.32,314.61,319.57,0.0
2018-08-18 14:29:00,89.55708,37.68454,1004.94,274.03,89.3,28.9,-1.8,13.55,-58.74,101.24,68.18,314.57,319.52,101.61,68.17,314.55,319.54,0.0
2018-08-18 14:29:00,89.55708,37.6845,1004.953,274.03,89.3,28.8,-0.1,14.2,-61.75,100.92,68.25,314.67,320.41,101.42,68.04,314.7,319.61,0.0
2018-08-18 14:29:00,89.55708,37.68446,1004.926,274.02,89.3,29.0,-0.03,14.4,-63.29,100.92,68.12,314.04,320.43,101.25,67.93,314.73,319.57,0.0
2018-08-18 14:29:00,89.55708,37.68442,1004.897,274.02,89.3,29.2,0.87,14.2,-65.9,101.18,68.18,314.02,319.57,101.11,67.85,314.72,319.48,0.0
2018-08-18 14:29:00,89.55708,37.68438,1004.892,274.02,89.3,29.2,2.14,14.09,-69.25,101.9,68.05,314.1,319.15,101.0,67.8,314.72,319.43,0.0
2018-08-18 14:29:00,89.55708,37.68434,1004.905,274.02,89.3,29.1,1.81,14.53,-71.31,101.31,68.18,314.22,319.12,100.92,67.78,314.73,319.42,0.0
2018-08-18 14:29:00,89.55708,37.6843,1004.925,274.02,89.3,29.0,0.93,14.25,-73.01,100.06,68.25,315.57,320.42,100.87,67.78,314.77,319.37,0.0
2018-08-18 14:29:00,89.55708,37.6843,1004.895,274.02,89.3,29.2,1.4,15.36,-72.19,100.78,68.18,314.83,319.3,100.86,67.82,314.8,319.27,0.0
2018-08-18 14:29:00,89.55708,37.68431,1004.87,274.02,89.3,29.4,1.26,15.34,-71.92,100.92,68.05,314.85,319.05,100.89,67.87,314.85,319.21,0.0
2018-08-18 14:29:00,89.55708,37.68432,1004.856,274.02,89.3,29.5,1.41,14.79,-71.42,101.44,68.12,315.23,319.14,100.97,67.95,314.97,319.25,0.0
2018-08-18 14:29:00,89.55709,37.68432,1004.834,274.02,89.3,29.7,2.36,14.52,-70.21,101.7,68.12,315.4,319.05,101.08,68.04,315.19,319.4,0.0
2018-08-18 14:29:00,89.55709,37.68433,1004.848,274.02,89.3,29.6,2.61,14.3,-70.5,102.03,68.25,315.21,319.25,101.23,68.14,315.41,319.53,0.0
2018-08-18 14:29:00,89.55709,37.68434,1004.847,274.01,89.3,29.6,1.48,13.98,-70.85,101.37,68.05,314.88,319.8,101.4,68.26,315.41,319.49,0.0
2018-08-18 14:29:00,89.55709,37.68435,1004.84,274.01,89.3,29.7,0.71,13.77,-71.73,100.39,68.18,314.33,319.55,101.57,68.37,315.45,319.51,0.0
2018-08-18 14:29:00,89.55709,37.68435,1004.833,274.01,89.3,29.7,0.13,13.82,-72.64,100.2,67.98,315.15,319.65,101.74,68.47,315.48,319.54,0.0
2018-08-18 14:29:00,89.55709,37.68436,1004.835,274.0,89.3,29.7,-0.65,14.16,-72.94,102.03,68.18,316.25,319.89,101.87,68.56,315.47,319.55,0.0
2018-08-18 14:29:00,89.55709,37.68439,1004.784,274.0,89.3,30.1,-1.04,14.16,-73.1,100.85,67.98,316.56,319.9,101.97,68.63,315.46,319.53,0.0
2018-08-18 14:29:00,89.55709,37.68442,1004.732,274.0,89.3,30.5,-1.9,14.98,-72.79,100.26,68.32,315.23,319.03,102.04,68.66,315.44,319.5,0.0
2018-08-18 14:29:00,89.5571,37.68446,1004.712,274.01,89.3,30.7,-2.63,14.88,-72.46,101.44,68.18,315.4,319.33,102.07,68.66,315.4,319.42,0.0
2018-08-18 14:29:00,89.5571,37.6845,1004.696,274.01,89.3,30.8,-3.64,15.18,-72.63,102.09,68.18,315.22,318.84,102.1,68.64,315.4,319.33,0.0
2018-08-18 14:29:00,89.5571,37.68453,1004.684,274.0,89.3,30.9,-4.48,15.32,-73.06,101.31,68.39,315.12,319.23,102.12,68.58,315.38,319.28,0.0
2018-08-18 14:29:00,89.5571,37.68456,1004.698,274.0,89.3,30.8,-4.68,14.75,-73.51,101.11,68.25,315.31,319.03,102.18,68.52,315.29,319.27,0.0
2018-08-18 14:29:00,89.5571,37.6846,1004.69,274.0,89.3,30.8,-4.82,15.24,-74.69,101.77,68.25,315.31,319.52,102.28,68.44,315.16,319.3,0.0
2018-08-18 14:29:00,89.5571,37.68464,1004.689,273.99,89.3,30.8,-3.54,14.84,-74.38,101.37,68.18,314.65,318.95,102.43,68.38,315.15,319.41,0.0
2018-08-18 14:29:00,89.5571,37.68467,1004.687,273.99,89.3,30.9,-2.72,15.05,-74.11,101.11,68.25,314.83,319.23,102.63,68.33,315.05,319.53,0.0
2018-08-18 14:29:00,89.5571,37.68471,1004.674,274.0,89.3,31.0,-2.15,15.16,-74.12,101.83,68.25,315.29,319.52,102.86,68.31,314.95,319.62,0.0
2018-08-18 14:29:00,89.5571,37.68474,1004.654,273.99,89.3,31.1,-1.74,14.81,-74.42,101.18,68.18,315.29,320.18,103.09,68.31,314.91,319.66,0.0
2018-08-18 14:29:00,89.5571,37.68478,1004.67,273.99,89.3,31.0,-1.89,14.63,-74.87,101.31,68.18,315.38,320.2,103.27,68.33,314.86,319.69,0.0
2018-08-18 14:29:00,89.5571,37.6848,1004.634,273.99,89.3,31.3,-2.02,14.43,-75.82,100.52,68.18,315.1,319.76,103.38,68.36,314.79,319.68,0.0
2018-08-18 14:29:00,89.5571,37.68483,1004.6,273.99,89.3,31.6,-1.78,14.13,-76.87,102.16,68.32,314.1,319.95,103.37,68.4,314.79,319.65,0.0
2018-08-18 14:29:00,89.5571,37.68486,1004.577,273.99,89.3,31.7,-1.83,13.84,-77.72,101.83,68.25,314.45,319.09,103.22,68.43,314.68,319.6,0.0
2018-08-18 14:29:00,89.5571,37.68488,1004.558,273.99,89.3,31.9,-2.15,13.69,-78.31,101.57,68.25,315.11,319.21,102.93,68.45,314.51,319.51,0.0
2018-08-18 14:29:00,89.5571,37.68491,1004.536,274.0,89.3,32.1,-2.42,13.78,-78.49,101.83,68.18,315.29,319.12,102.52,68.46,314.36,319.37,0.0
2018-08-18 14:29:00,89.5571,37.68493,1004.55,274.0,89.3,32.0,-2.65,13.99,-77.13,101.77,68.25,315.2,319.01,102.02,68.46,314.26,319.31,0.0
2018-08-18 14:29:00,89.5571,37.68496,1004.535,274.0,89.3,32.1,-2.48,14.11,-75.79,101.7,68.18,315.2,318.92,101.5,68.44,314.26,319.16,0.0
2018-08-18 14:29:00,89.5571,37.68498,1004.525,274.0,89.3,32.2,-2.03,14.21,-74.34,103.34,68.46,314.4,319.21,101.0,68.42,314.39,319.12,0.0
2018-08-18 14:29:00,89.5571,37.68501,1004.518,274.0,89.3,32.2,-1.38,14.23,-72.95,101.57,68.25,313.83,319.21,100.58,68.42,314.5,319.16,0.0
2018-08-18 14:29:00,89.5571,37.68503,1004.497,274.0,89.3,32.4,-0.72,14.08,-71.88,101.37,68.6,314.08,319.37,100.31,68.43,314.55,319.2,0.0
2018-08-18 14:29:00,89.5571,37.68506,1004.472,274.0,89.3,32.6,-0.38,13.78,-71.05,101.37,68.32,314.12,320.22,100.2,68.46,314.59,319.26,0.0
2018-08-18 14:29:00,89.5571,37.68508,1004.455,274.0,89.3,32.7,0.34,13.93,-69.11,100.52,67.98,315.08,318.41,100.27,68.52,314.62,319.31,0.0
2018-08-18 14:29:00,89.5571,37.68509,1004.442,274.0,89.3,32.8,1.5,13.93,-67.72,101.64,68.05,314.96,319.23,100.51,68.61,314.63,319.36,0.0
2018-08-18 14:29:00,89.55711,37.68505,1004.417,274.0,89.3,33.0,1.96,13.5,-66.29,101.7,68.25,314.91,319.61,100.87,68.7,314.69,319.38,0.0
2018-08-18 14:30:00,89.55711,37.68502,1004.372,274.01,89.3,33.4,1.56,13.02,-64.92,100.78,68.39,314.92,319.01,101.3,68.8,314.79,319.39,0.0
2018-08-18 14:30:00,89.55711,37.68498,1004.337,274.0,89.3,33.7,1.59,13.42,-64.65,101.44,68.46,315.2,319.01,101.76,68.88,314.86,319.36,0.0
2018-08-18 14:30:00,89.55711,37.68495,1004.358,274.0,89.3,33.5,3.45,12.62,-60.58,101.77,68.39,315.11,319.2,102.18,68.95,314.91,319.32,0.0
2018-08-18 14:30:00,89.55711,37.68492,1004.366,274.0,89.3,33.4,3.6,12.11,-59.59,101.57,68.39,315.01,319.31,102.51,68.99,314.87,319.37,0.0
2018-08-18 14:30:00,89.55711,37.68488,1004.352,274.0,89.3,33.5,3.91,11.49,-57.57,102.22,68.25,315.1,319.01,102.72,68.99,314.76,319.37,0.0
2018-08-18 14:30:00,89.55711,37.68485,1004.326,274.01,89.3,33.7,5.42,11.24,-54.47,101.18,68.39,315.1,319.2,102.81,68.97,314.72,319.33,0.0
2018-08-18 14:30:00,89.55711,37.68481,1004.31,274.0,89.3,33.9,8.29,11.82,-51.77,103.14,68.39,315.38,319.14,102.77,68.93,314.8,319.28,0.0
2018-08-18 14:30:00,89.55711,37.68478,1004.288,274.0,89.3,34.0,10.26,11.9,-50.21,100.26,68.67,315.08,319.84,102.62,68.87,314.84,319.25,0.0
2018-08-18 14:30:00,89.55711,37.68474,1004.249,274.0,89.3,34.4,11.52,12.21,-49.18,101.37,68.32,315.27,320.0,102.39,68.81,314.85,319.17,0.0
2018-08-18 14:30:00,89.55711,37.68471,1004.235,274.0,89.3,34.5,12.39,13.12,-49.67,101.83,68.53,314.39,320.46,102.13,68.76,314.81,319.05,0.0
2018-08-18 14:30:00,89.55711,37.68468,1004.238,274.01,89.3,34.4,13.14,13.86,-51.05,102.49,68.39,314.88,320.36,101.87,68.73,314.72,318.96,0.0
2018-08-18 14:30:00,89.55711,37.68466,1004.231,274.01,89.3,34.5,13.41,14.02,-52.64,100.78,68.53,315.92,319.75,101.64,68.71,314.65,318.94,0.0
2018-08-18 14:30:00,89.55711,37.68465,1004.212,274.01,89.3,34.6,11.31,14.15,-54.41,102.03,68.39,315.6,319.92,101.47,68.7,314.63,319.0,0.0
2018-08-18 14:30:00,89.55711,37.68464,1004.196,274.0,89.3,34.8,9.22,14.39,-56.69,102.16,68.39,315.44,319.22,101.39,68.69,314.53,319.06,0.0
2018-08-18 14:30:00,89.55711,37.68462,1004.178,274.01,89.3,34.9,7.17,14.39,-59.25,102.16,68.46,314.57,318.66,101.39,68.7,314.5,319.05,0.0
2018-08-18 14:30:00,89.55711,37.68461,1004.167,274.01,89.3,35.0,5.18,14.14,-61.89,100.59,68.32,313.98,318.45,101.5,68.69,314.55,319.02,0.0
2018-08-18 14:30:00,89.55711,37.68459,1004.154,274.01,89.3,35.1,4.42,13.76,-64.14,101.24,68.53,313.91,318.88,101.7,68.68,314.53,319.01,0.0
2018-08-18 14:30:00,89.55711,37.68458,1004.099,274.0,89.3,35.5,6.21,13.69,-65.24,101.96,68.46,314.59,320.16,101.98,68.66,314.39,319.01,0.0
2018-08-18 14:30:00,89.55711,37.68457,1004.084,274.01,89.3,35.7,5.63,15.71,-65.69,102.75,68.6,313.86,320.51,102.33,68.64,314.35,319.02,0.0
2018-08-18 14:30:00,89.55711,37.68455,1004.088,274.01,89.3,35.6,8.3,16.66,-69.13,100.78,68.67,314.58,319.38,102.7,68.62,314.36,319.08,0.0
2018-08-18 14:30:00,89.55711,37.68454,1004.06,274.01,89.3,35.9,7.02,17.76,-71.74,101.7,68.53,315.06,319.72,103.08,68.61,314.39,319.18,0.0
2018-08-18 14:30:00,89.55712,37.68453,1004.016,274.0,89.3,36.2,4.22,18.54,-74.39,102.29,68.53,314.9,318.99,103.41,68.61,314.43,319.24,0.0
2018-08-18 14:30:00,89.55712,37.68451,1004.007,274.0,89.3,36.3,3.82,18.6,-78.46,101.5,68.39,314.77,318.24,103.67,68.62,314.45,319.23,0.0
2018-08-18 14:30:00,89.55712,37.6845,1004.007,274.01,89.3,36.3,5.4,19.02,-82.11,101.5,68.6,315.28,318.86,103.82,68.65,314.45,319.13,0.0
2018-08-18 14:30:00,89.55712,37.68449,1004.019,274.0,89.2,36.2,3.83,18.59,-84.02,101.9,68.25,315.32,318.48,103.82,68.7,314.56,318.98,0.0
2018-08-18 14:30:00,89.55712,37.68447,1003.993,274.0,89.2,36.4,4.05,19.25,-85.79,102.22,68.46,315.06,318.65,103.66,68.76,314.62,318.93,0.0
2018-08-18 14:30:00,89.55712,37.68448,1003.951,274.0,89.3,36.7,5.49,19.69,-87.81,101.44,68.39,314.65,319.01,103.35,68.83,314.68,318.89,0.0
2018-08-18 14:30:00,89.55712,37.6845,1003.949,274.0,89.3,36.7,6.4,19.12,-89.23,102.42,68.6,314.35,318.6,102.9,68.9,314.76,318.87,0.0
2018-08-18 14:30:00,89.55712,37.68452,1003.955,274.0,89.3,36.7,7.43,18.91,-89.11,102.36,68.53,314.62,319.19,102.35,68.96,314.86,318.94,0.0
2018-08-18 14:30:00,89.55712,37.68454,1003.929,273.99,89.3,36.9,9.19,19.6,-89.13,102.75,68.81,315.02,318.88,101.76,69.01,314.92,319.0,0.0
2018-08-18 14:30:00,89.55712,37.68456,1003.915,273.99,89.2,37.0,8.34,19.0,-89.96,102.22,68.53,315.05,319.17,101.19,69.06,314.96,319.09,0.0
2018-08-18 14:30:00,89.55712,37.68458,1003.908,273.99,89.2,37.1,6.9,19.24,-89.61,101.96,68.53,314.87,319.17,100.72,69.1,315.02,319.2,0.0
2018-08-18 14:30:00,89.55712,37.68461,1003.9,273.98,89.3,37.1,6.28,19.58,-88.46,102.03,68.6,314.87,319.18,100.4,69.14,315.12,319.32,0.0
2018-08-18 14:30:00,89.55712,37.68463,1003.883,273.98,89.3,37.3,6.91,18.63,-87.8,102.16,68.6,314.77,318.89,100.28,69.17,315.21,319.42,0.0
2018-08-18 14:30:00,89.55712,37.68465,1003.904,273.98,89.3,37.1,5.08,19.29,-88.24,101.57,68.67,314.77,318.98,100.39,69.21,315.26,319.51,0.0
2018-08-18 14:30:00,89.55712,37.68466,1003.857,273.98,89.2,37.5,5.2,18.92,-88.17,100.52,68.67,314.62,318.96,100.71,69.26,315.26,319.57,0.0
2018-08-18 14:30:00,89.55712,37.68466,1003.839,273.98,89.2,37.6,6.01,18.91,-86.55,102.09,68.53,314.83,319.06,101.21,69.3,315.24,319.59,0.0
2018-08-18 14:30:00,89.55712,37.68466,1003.84,273.98,89.2,37.6,6.57,19.17,-85.21,102.09,68.6,315.05,318.98,101.86,69.33,315.2,319.57,0.0
2018-08-18 14:30:00,89.55712,37.68466,1003.81,273.98,89.2,37.8,6.84,19.3,-85.51,101.18,68.74,315.05,319.17,102.57,69.36,315.16,319.52,0.0
2018-08-18 14:30:00,89.55712,37.68467,1003.781,273.97,89.2,38.1,8.12,19.1,-86.71,102.03,68.6,315.14,318.98,103.27,69.37,315.12,319.44,0.0
2018-08-18 14:30:00,89.55712,37.68467,1003.776,273.98,89.2,38.1,8.9,19.2,-83.25,101.64,68.81,314.77,318.98,103.9,69.36,315.15,319.37,0.0
2018-08-18 14:30:00,89.55712,37.68467,1003.775,273.97,89.3,38.1,9.08,18.68,-80.82,102.29,68.74,314.87,319.18,104.38,69.34,315.18,319.27,0.0
2018-08-18 14:30:00,89.55712,37.68467,1003.763,273.97,89.3,38.2,9.66,18.08,-78.74,102.03,68.67,315.05,319.07,104.67,69.3,315.23,319.17,0.0
2018-08-18 14:30:00,89.55712,37.68467,1003.737,273.97,89.3,38.4,10.15,17.58,-76.59,102.88,68.88,314.95,319.17,104.75,69.25,315.26,319.07,0.0
2018-08-18 14:30:00,89.55712,37.68467,1003.717,273.97,89.3,38.6,9.22,17.08,-74.52,101.7,68.88,315.29,318.92,104.61,69.2,315.2,318.96,0.0
2018-08-18 14:30:00,89.55712,37.68467,1003.706,273.97,89.3,38.7,11.06,16.27,-72.97,102.29,68.88,315.84,319.4,104.27,69.16,314.98,318.79,0.0
2018-08-18 14:30:00,89.55712,37.68467,1003.694,273.98,89.3,38.8,10.68,15.98,-71.42,102.36,68.88,315.78,318.96,103.77,69.14,314.84,318.67,0.0
2018-08-18 14:30:00,89.55712,37.68467,1003.67,273.98,89.3,39.0,10.06,15.43,-69.75,101.96,68.81,315.73,318.88,103.16,69.14,314.77,318.6,0.0
2018-08-18 14:30:00,89.55713,37.68464,1003.647,273.97,89.3,39.1,9.66,14.94,-68.25,102.36,68.6,315.6,319.07,102.5,69.16,314.74,318.56,0.0
2018-08-18 14:30:00,89.55713,37.68461,1003.654,273.98,89.3,39.1,9.21,14.93,-67.18,103.08,68.81,314.66,318.89,101.85,69.19,314.71,318.53,0.0
2018-08-18 14:30:00,89.55713,37.68459,1003.607,273.98,89.3,39.5,8.98,14.49,-66.5,102.36,68.81,313.05,318.55,101.28,69.24,314.68,318.53,0.0
2018-08-18 14:30:00,89.55713,37.68456,1003.593,273.98,89.3,39.6,9.72,14.41,-66.49,102.62,68.6,313.89,318.43,100.83,69.3,314.61,318.53,0.0
2018-08-18 14:30:00,89.55713,37.68453,1003.584,273.98,89.3,39.6,10.47,14.0,-66.77,101.24,68.88,314.52,318.8,100.57,69.34,314.54,318.59,0.0
2018-08-18 14:30:00,89.55713,37.68451,1003.567,273.97,89.3,39.8,10.95,13.53,-67.04,102.55,68.81,315.04,318.85,100.51,69.38,314.43,318.65,0.0
2018-08-18 14:30:00,89.55713,37.68448,1003.547,273.98,89.3,39.9,11.19,13.19,-67.22,102.42,69.08,314.75,318.85,100.69,69.41,314.3,318.69,0.0
2018-08-18 14:30:00,89.55713,37.68446,1003.558,273.99,89.3,39.9,11.36,12.84,-67.63,101.18,68.94,315.03,319.06,101.08,69.42,314.25,318.79,0.0
2018-08-18 14:30:00,89.55713,37.68443,1003.541,273.98,89.3,40.0,10.7,12.21,-68.88,102.68,69.08,314.84,318.93,101.68,69.43,314.41,318.81,0.0
2018-08-18 14:30:00,89.55713,37.6844,1003.522,273.99,89.3,40.1,10.42,11.98,-70.25,101.57,68.88,314.81,319.38,102.42,69.44,314.49,318.89,0.0
2018-08-18 14:30:00,89.55713,37.68438,1003.516,273.99,89.3,40.2,10.2,11.6,-71.68,101.7,69.08,314.24,318.8,103.24,69.46,314.45,318.87,0.0
2018-08-18 14:30:00,89.55713,37.68435,1003.525,273.98,89.3,40.1,9.99,11.1,-73.0,102.75,68.81,314.06,318.52,104.07,69.49,314.36,318.8,0.0
2018-08-18 14:30:00,89.55713,37.6843,1003.526,273.98,89.3,40.1,9.9,10.81,-74.21,101.31,68.88,313.59,318.72,104.81,69.54,314.29,318.78,0.0
2018-08-18 14:30:00,89.55713,37.68424,1003.561,273.98,89.3,39.8,10.07,9.77,-76.97,102.68,68.88,314.62,317.09,105.4,69.6,314.23,318.73,0.0
2018-08-18 14:30:00,89.55713,37.68418,1003.524,273.98,89.3,40.1,8.98,9.2,-77.97,101.83,68.88,314.7,318.17,105.75,69.67,314.18,318.67,0.0
2018-08-18 14:30:00,89.55713,37.68412,1003.499,273.98,89.3,40.3,8.3,9.41,-79.35,102.36,68.88,314.51,318.2,105.83,69.73,314.22,318.49,0.0
2018-08-18 14:30:00,89.55713,37.68406,1003.5,273.98,89.3,40.3,8.14,10.04,-80.79,103.73,69.01,314.49,317.97,105.63,69.78,314.32,318.38,0.0
2018-08-18 14:30:00,89.55713,37.684,1003.498,273.99,89.3,40.3,8.03,10.85,-81.95,101.05,69.15,314.84,319.14,105.17,69.79,314.44,318.39,0.0
2018-08-18 14:30:00,89.55713,37.68394,1003.435,273.98,89.3,40.8,7.01,12.06,-83.22,103.34,69.22,315.12,319.06,104.51,69.76,314.61,318.36,0.0
2018-08-18 14:30:00,89.55713,37.68389,1003.451,273.98,89.3,40.7,7.92,12.38,-85.0,103.47,69.29,314.75,319.06,103.72,69.69,314.71,318.67,0.0
2018-08-18 14:30:00,89.55713,37.68383,1003.451,273.98,89.2,40.7,9.34,13.42,-87.22,103.34,69.01,315.74,318.22,102.89,69.59,314.73,318.77,0.0
2018-08-18 14:30:00,89.55713,37.68377,1003.414,273.98,89.2,41.0,10.76,14.0,-88.68,103.86,69.29,315.63,318.28,102.14,69.46,314.81,318.9,0.0
2018-08-18 14:30:00,89.55713,37.68371,1003.356,273.98,89.3,41.5,11.4,13.91,-89.66,101.64,69.08,314.93,318.74,101.54,69.33,314.93,319.13,0.0
2018-08-18 14:30:00,89.55714,37.68365,1003.355,273.97,89.2,41.5,10.05,13.91,-91.81,103.01,69.01,314.73,318.46,101.17,69.2,314.96,319.33,0.0
2018-08-18 14:30:00,89.55714,37.68361,1003.339,273.97,89.3,41.6,10.47,13.74,-93.56,102.03,69.15,314.62,320.07,101.06,69.09,314.87,319.34,0.0
2018-08-18 14:30:00,89.55714,37.68358,1003.345,273.97,89.3,41.5,9.14,14.12,-92.02,102.16,68.74,313.53,318.79,101.22,69.03,314.82,319.34,0.0
2018-08-18 14:30:00,89.55714,37.68355,1003.349,273.97,89.3,41.5,9.39,15.09,-92.2,100.98,69.36,314.22,318.53,101.6,69.01,314.72,319.39,0.0
2018-08-18 14:30:00,89.55714,37.68352,1003.331,273.97,89.2,41.7,9.86,15.88,-92.66,102.94,69.15,314.67,319.66,102.16,69.04,314.62,319.45,0.0
2018-08-18 14:30:00,89.55714,37.68349,1003.285,273.97,89.2,42.0,8.6,15.95,-90.22,103.14,69.22,314.69,320.18,102.81,69.11,314.55,319.47,0.0
2018-08-18 14:30:00,89.55714,37.68346,1003.289,273.96,89.3,42.0,10.33,16.35,-86.86,102.81,68.88,313.72,318.32,103.45,69.21,314.46,319.51,0.0
2018-08-18 14:30:00,89.55714,37.68344,1003.266,273.97,89.2,42.2,10.52,16.7,-84.31,102.49,69.08,314.38,318.53,104.01,69.32,314.42,319.3,0.0
2018-08-18 14:30:00,89.55714,37.68341,1003.262,273.97,89.2,42.2,9.33,17.08,-84.27,102.16,69.15,315.18,319.2,104.41,69.43,314.48,319.32,0.0
2018-08-18 14:30:00,89.55714,37.68338,1003.263,273.96,89.2,42.2,9.23,17.25,-83.47,102.75,69.08,315.35,319.78,104.58,69.52,314.54,319.39,0.0
2018-08-18 14:30:00,89.55714,37.68335,1003.245,273.96,89.2,42.3,10.04,17.36,-80.95,102.94,69.22,315.22,320.79,104.52,69.58,314.57,319.38,0.0
2018-08-18 14:30:00,89.55714,37.68332,1003.244,273.96,89.2,42.3,7.1,18.04,-80.62,102.75,69.08,314.93,320.16,104.21,69.61,314.65,319.35,0.0
2018-08-18 14:30:00,89.55714,37.68329,1003.211,273.96,89.2,42.6,8.91,18.21,-77.15,102.42,69.29,314.81,319.42,103.7,69.62,314.83,319.45,0.0
2018-08-18 14:30:00,89.55714,37.68326,1003.228,273.95,89.2,42.5,7.76,18.3,-73.81,103.6,69.08,314.77,319.86,103.02,69.61,314.93,319.54,0.0
2018-08-18 14:30:00,89.55714,37.68323,1003.245,273.95,89.2,42.3,5.77,18.24,-70.52,104.06,69.29,314.5,319.87,102.26,69.59,314.95,319.61,0.0
2018-08-18 14:30:00,89.55714,37.6832,1003.218,273.94,89.2,42.6,5.26,18.15,-67.49,101.83,69.15,314.57,319.68,101.49,69.59,314.92,319.62,0.0
2018-08-18 14:30:00,89.55714,37.68317,1003.169,273.94,89.2,42.9,7.09,18.25,-64.91,101.24,69.08,314.85,319.62,100.79,69.6,314.88,319.53,0.0
2018-08-18 14:30:00,89.55714,37.68321,1003.139,273.94,89.2,43.2,5.56,18.06,-62.23,102.94,69.29,314.73,318.78,100.24,69.63,314.83,319.44,0.0
2018-08-18 14:30:00,89.55714,37.68325,1003.152,273.93,89.2,43.1,6.37,17.5,-59.76,103.53,69.29,314.74,319.38,99.9,69.7,314.75,319.42,0.0
2018-08-18 14:30:00,89.55714,37.68329,1003.132,273.93,89.2,43.2,7.48,17.31,-60.86,102.36,69.15,314.78,319.02,99.82,69.78,314.65,319.31,0.0
2018-08-18 14:30:00,89.55714,37.68333,1003.099,273.94,89.2,43.5,7.76,16.96,-63.72,103.08,69.29,314.83,318.92,100.02,69.88,314.56,319.19,0.0
2018-08-18 14:30:00,89.55714,37.68337,1003.097,273.95,89.2,43.5,7.12,16.22,-66.4,103.73,69.29,314.83,318.93,100.48,69.98,314.48,319.1,0.0
2018-08-18 14:30:00,89.55714,37.68341,1003.031,273.94,89.2,44.0,7.0,16.18,-69.52,101.18,69.15,314.83,318.83,101.18,70.07,314.43,319.03,0.0
2018-08-18 14:30:00,89.55714,37.68345,1002.992,273.94,89.2,44.4,7.24,15.38,-73.24,100.85,69.36,314.83,319.03,102.04,70.14,314.4,319.03,0.0
2018-08-18 14:30:00,89.55714,37.68348,1002.998,273.95,89.2,44.3,6.71,14.79,-77.13,101.57,69.36,314.83,319.22,102.99,70.17,314.42,319.03,0.0
2018-08-18 14:30:00,89.55714,37.68354,1003.0,273.95,89.2,44.3,6.59,14.37,-81.23,101.64,69.22,315.02,318.83,103.92,70.18,314.48,319.04,0.0
2018-08-18 14:30:00,89.55714,37.68362,1002.969,273.95,89.2,44.5,6.66,13.91,-85.19,103.99,69.5,314.54,319.12,104.72,70.15,314.55,319.07,0.0
2018-08-18 14:30:00,89.55714,37.6837,1002.964,273.95,89.2,44.6,5.28,13.19,-88.81,102.36,69.43,314.81,318.93,105.32,70.1,314.64,319.1,0.0
2018-08-18 14:30:00,89.55714,37.68378,1003.019,273.95,89.2,44.1,5.67,12.86,-93.49,101.05,69.43,314.73,319.12,105.64,70.05,314.74,319.21,0.0
2018-08-18 14:30:00,89.55714,37.68386,1003.004,273.95,89.2,44.3,4.65,12.78,-97.35,104.32,69.5,314.81,319.11,105.65,69.99,314.81,319.23,0.0
