Date/Time,Latitude,Longitude,PPPP [hPa],TTT grad [K],RH [%],Height [m],Pitch [deg],Roll [deg],Yaw [deg],SWD [W/m**2] (raw),SWU [W/m**2] (raw),LWD [W/m**2] (raw),LWU [W/m**2] (raw),SWD [W/m**2] (corrected),SWU [W/m**2] (corrected),LWD [W/m**2] (corrected),LWU [W/m**2] (corrected),Flag
2018-08-19 14:33:00,89.58313,39.12806,1010.866,274.23,85.7,2.5,-1.09,5.73,121.97,94.5,57.76,316.04,320.97,96.75,58.82,316.38,321.3,0.0
2018-08-19 14:33:00,89.58313,39.12806,1010.892,274.24,85.7,2.3,-1.3,5.49,121.49,95.22,57.7,316.32,321.95,96.58,59.23,316.34,321.08,0.0
2018-08-19 14:33:00,89.58313,39.12805,1010.883,274.24,85.7,2.4,-1.46,5.14,120.96,93.98,57.83,316.37,321.64,96.2,59.61,316.31,320.88,0.0
2018-08-19 14:33:00,89.58313,39.12805,1010.878,274.24,85.7,2.4,-1.99,5.01,120.39,94.04,57.97,316.75,321.94,95.66,59.93,316.52,320.78,0.0
2018-08-19 14:33:00,89.58313,39.12805,1010.867,274.24,85.7,2.5,-2.35,4.82,119.76,96.01,57.83,316.74,321.85,94.99,60.2,316.61,320.78,0.0
2018-08-19 14:33:00,89.58313,39.12805,1010.862,274.24,85.7,2.5,-2.49,4.66,119.05,94.37,58.11,316.05,321.2,94.28,60.4,316.54,320.94,0.0
2018-08-19 14:33:00,89.58313,39.12805,1010.874,274.24,85.7,2.4,-2.56,4.58,118.32,96.6,58.04,315.81,320.02,93.64,60.55,316.39,321.16,0.0
2018-08-19 14:33:00,89.58313,39.12805,1010.877,274.24,85.7,2.4,-2.89,4.32,117.59,95.09,58.25,316.27,320.32,93.16,60.65,316.13,321.23,0.0
2018-08-19 14:33:00,89.58313,39.12805,1010.892,274.24,85.8,2.3,-2.98,4.28,116.51,94.37,58.18,318.97,320.96,92.91,60.73,316.05,321.35,0.0
2018-08-19 14:33:00,89.58313,39.12805,1010.916,274.24,85.7,2.1,-3.05,3.78,115.75,95.81,58.25,317.04,320.42,92.94,60.8,315.91,321.31,0.0
2018-08-19 14:33:00,89.58313,39.12805,1010.922,274.24,85.7,2.1,-1.66,2.39,114.9,94.11,58.32,315.29,321.51,93.25,60.88,315.77,321.22,0.0
2018-08-19 14:33:00,89.58313,39.12805,1010.901,274.24,85.8,2.2,0.1,1.14,113.79,93.72,58.38,314.72,321.72,93.78,60.97,315.67,321.18,0.0
2018-08-19 14:33:00,89.58313,39.12805,1010.91,274.25,85.7,2.2,-1.72,2.36,112.52,93.91,58.38,313.32,321.06,94.44,61.08,315.61,321.16,0.0
2018-08-19 14:33:00,89.58313,39.12805,1010.896,274.24,85.8,2.3,-4.1,0.04,111.98,94.9,58.45,315.7,320.99,95.12,61.21,315.65,321.09,0.0
2018-08-19 14:33:00,89.58313,39.12804,1010.885,274.24,85.8,2.4,-3.01,-0.47,110.88,93.06,58.59,315.34,320.07,95.7,61.35,315.34,321.0,0.0
2018-08-19 14:33:00,89.58313,39.12804,1010.872,274.24,85.8,2.5,-2.96,-1.2,110.19,94.7,58.59,315.27,320.63,96.07,61.51,315.19,320.95,0.0
2018-08-19 14:33:00,89.58313,39.12804,1010.864,274.25,85.8,2.5,-3.77,-1.81,109.68,95.03,58.66,315.18,320.84,96.14,61.68,315.19,320.84,0.0
2018-08-19 14:33:00,89.58313,39.12804,1010.87,274.25,85.8,2.5,-4.06,-1.79,108.97,96.01,58.66,315.35,320.76,95.9,61.87,315.28,320.69,0.0
2018-08-19 14:33:00,89.58313,39.12804,1010.816,274.24,85.8,2.9,-3.6,-2.57,108.25,95.22,58.87,316.37,320.74,95.37,62.08,315.51,320.68,0.0
2018-08-19 14:33:00,89.58313,39.12803,1010.83,274.24,85.8,2.8,-4.43,-2.15,107.74,94.63,59.01,315.49,321.29,94.63,62.31,315.6,320.72,0.0
2018-08-19 14:33:00,89.58313,39.12803,1010.831,274.24,85.8,2.8,-4.79,-2.26,107.24,95.03,59.14,315.27,321.48,93.77,62.58,315.72,320.86,0.0
2018-08-19 14:33:00,89.58313,39.12803,1010.826,274.24,85.8,2.8,-4.4,-2.35,106.58,94.63,59.21,315.08,321.19,92.92,62.89,315.79,320.97,0.0
2018-08-19 14:33:00,89.58313,39.12803,1010.834,274.24,85.8,2.8,-3.82,-1.87,105.8,95.22,59.21,315.35,321.12,92.22,63.25,315.78,321.04,0.0
2018-08-19 14:33:00,89.58313,39.12803,1010.836,274.24,85.8,2.8,-4.41,-0.52,105.09,93.85,59.21,315.56,320.63,91.75,63.64,315.71,321.11,0.0
2018-08-19 14:33:00,89.58313,39.12802,1010.832,274.24,85.8,2.8,-4.45,0.25,104.51,94.63,59.14,315.81,321.39,91.57,64.06,315.43,321.14,0.0
2018-08-19 14:33:00,89.58313,39.12802,1010.821,274.24,85.8,2.9,-4.18,0.17,104.41,95.09,59.42,315.72,321.28,91.71,64.48,315.23,320.98,0.0
2018-08-19 14:33:00,89.58313,39.128,1010.804,274.24,85.8,3.0,-3.67,0.49,104.35,94.24,59.42,315.49,321.09,92.11,64.9,315.08,320.82,0.0
2018-08-19 14:33:00,89.58313,39.12799,1010.788,274.24,85.8,3.1,-3.21,0.99,104.36,93.98,59.63,314.99,320.99,92.72,65.29,314.92,320.65,0.0
2018-08-19 14:33:00,89.58313,39.12798,1010.778,274.24,85.8,3.2,-3.07,0.87,104.69,93.98,59.97,314.84,320.91,93.43,65.63,314.76,320.4,0.0
2018-08-19 14:33:00,89.58313,39.12797,1010.777,274.24,85.8,3.2,-2.94,1.69,104.91,94.11,60.25,314.13,321.2,94.14,65.91,314.65,320.15,0.0
2018-08-19 14:33:00,89.58313,39.12796,1010.765,274.24,85.8,3.3,-3.35,1.71,105.52,94.96,60.25,314.19,320.17,94.78,66.13,314.58,319.97,0.0
2018-08-19 14:33:00,89.58313,39.12795,1010.775,274.24,85.8,3.2,-2.99,2.14,106.07,94.04,60.32,314.59,320.31,95.28,66.3,314.54,319.85,0.0
2018-08-19 14:33:00,89.58313,39.12794,1010.789,274.24,85.8,3.1,-2.87,2.64,106.73,92.8,60.52,314.29,320.74,95.62,66.42,314.61,319.7,0.0
2018-08-19 14:33:00,89.58313,39.12792,1010.774,274.25,85.8,3.2,-3.54,2.67,107.67,94.44,60.59,314.24,319.87,95.8,66.51,314.75,319.5,0.0
2018-08-19 14:33:00,89.58313,39.12791,1010.759,274.24,85.8,3.4,-3.43,1.92,108.96,95.81,60.87,314.56,319.65,95.86,66.6,314.87,319.32,0.0
2018-08-19 14:33:00,89.58313,39.1279,1010.775,274.25,85.8,3.2,-3.05,3.31,110.12,94.04,60.8,314.99,320.74,95.85,66.68,314.95,319.16,0.0
2018-08-19 14:33:00,89.58313,39.12789,1010.748,274.25,85.8,3.4,-3.15,3.92,111.45,94.37,61.15,315.39,321.08,95.82,66.78,315.07,319.11,0.0
2018-08-19 14:33:00,89.58313,39.12788,1010.715,274.25,85.8,3.7,-2.97,4.28,112.91,95.16,61.15,315.54,320.4,95.81,66.9,315.17,319.02,0.0
2018-08-19 14:33:00,89.58313,39.12787,1010.713,274.25,85.8,3.7,-3.02,4.7,114.55,95.03,61.35,315.92,319.47,95.85,67.03,315.25,318.92,0.0
2018-08-19 14:33:00,89.58313,39.12785,1010.724,274.25,85.8,3.6,-4.72,5.11,116.58,94.44,61.49,315.6,319.8,95.91,67.17,315.31,318.9,0.0
2018-08-19 14:33:00,89.58313,39.12784,1010.736,274.24,85.8,3.5,-3.75,5.8,118.46,94.31,61.63,314.46,319.72,95.99,67.32,315.3,318.95,0.0
2018-08-19 14:33:00,89.58313,39.12784,1010.74,274.25,85.8,3.5,-4.31,6.46,120.7,93.59,61.77,315.38,319.71,96.04,67.45,315.24,318.9,0.0
2018-08-19 14:33:00,89.58313,39.12784,1010.715,274.25,85.8,3.7,-3.78,7.23,122.91,94.24,61.77,315.5,319.92,96.03,67.57,315.17,318.83,0.0
2018-08-19 14:33:00,89.58313,39.12784,1010.681,274.24,85.8,4.0,-3.03,8.07,125.2,95.09,62.11,315.77,319.9,95.94,67.68,315.08,318.84,0.0
2018-08-19 14:33:00,89.58313,39.12784,1010.686,274.24,85.8,3.9,-3.35,8.84,127.62,95.29,62.18,315.65,320.3,95.74,67.76,315.0,318.93,0.0
2018-08-19 14:33:00,89.58312,39.12784,1010.714,274.23,85.8,3.7,-2.56,9.56,130.07,94.7,62.25,315.5,320.9,95.46,67.83,315.02,319.07,0.0
2018-08-19 14:33:00,89.58312,39.12784,1010.688,274.23,85.8,3.9,-2.63,11.2,132.3,94.44,62.6,315.51,320.61,95.14,67.9,315.16,319.23,0.0
2018-08-19 14:33:00,89.58312,39.12784,1010.658,274.23,85.8,4.2,-2.23,12.12,134.54,95.29,62.66,315.45,320.51,94.82,67.98,315.2,319.34,0.0
2018-08-19 14:33:00,89.58312,39.12784,1010.635,274.23,85.8,4.3,-1.62,12.54,136.87,95.29,62.8,315.22,320.8,94.55,68.08,315.17,319.46,0.0
2018-08-19 14:33:00,89.58312,39.12784,1010.624,274.22,85.8,4.4,-1.27,12.69,139.28,95.48,62.87,315.18,320.53,94.38,68.19,315.14,319.61,0.0
2018-08-19 14:33:00,89.58312,39.12784,1010.647,274.22,85.8,4.2,-1.46,12.51,141.91,94.83,62.94,316.08,321.05,94.33,68.32,315.12,319.61,0.0
2018-08-19 14:33:00,89.58312,39.12784,1010.625,274.21,85.8,4.4,-0.72,13.46,144.36,93.85,62.87,315.61,321.18,94.41,68.46,315.1,319.57,0.0
2018-08-19 14:33:00,89.58312,39.12784,1010.619,274.2,85.8,4.5,-0.71,13.73,146.84,94.83,63.28,314.9,320.53,94.6,68.6,315.08,319.52,0.0
2018-08-19 14:33:00,89.58312,39.12784,1010.603,274.2,85.8,4.6,-0.47,14.08,149.35,94.44,63.42,314.98,321.33,94.86,68.73,315.06,319.45,0.0
2018-08-19 14:33:00,89.58312,39.12782,1010.572,274.2,85.8,4.8,0.17,14.53,151.85,94.63,63.49,314.92,321.48,95.12,68.83,315.05,319.38,0.0
2018-08-19 14:33:00,89.58312,39.12778,1010.576,274.19,85.8,4.8,0.8,14.47,154.28,93.72,63.63,315.08,320.31,95.35,68.91,315.05,319.37,0.0
2018-08-19 14:33:00,89.58312,39.12774,1010.559,274.2,85.8,4.9,0.8,14.48,156.67,94.83,63.7,315.08,320.51,95.49,68.95,315.0,319.34,0.0
2018-08-19 14:33:00,89.58312,39.12771,1010.559,274.19,85.8,4.9,1.05,14.45,158.93,95.29,63.98,315.27,320.51,95.54,68.96,314.88,319.3,0.0
2018-08-19 14:33:00,89.58312,39.12767,1010.552,274.19,85.8,5.0,1.15,14.38,161.08,96.2,64.04,315.05,319.85,95.5,68.96,314.78,319.31,0.0
2018-08-19 14:33:00,89.58312,39.12763,1010.526,274.19,85.8,5.2,1.09,14.16,163.11,94.24,64.25,314.78,319.82,95.38,68.94,314.73,319.29,0.0
2018-08-19 14:33:00,89.58312,39.1276,1010.489,274.2,85.8,5.5,1.12,13.74,164.92,94.24,64.32,314.99,320.02,95.25,68.94,314.7,319.21,0.0
2018-08-19 14:33:00,89.58312,39.12756,1010.511,274.2,85.8,5.3,1.9,13.23,166.6,95.22,64.53,315.05,320.21,95.15,68.94,314.65,319.23,0.0
2018-08-19 14:33:00,89.58312,39.12752,1010.524,274.2,85.8,5.2,1.21,13.11,167.92,95.68,64.46,314.0,320.41,95.11,68.97,314.55,319.22,0.0
2018-08-19 14:33:00,89.58312,39.12749,1010.514,274.2,85.8,5.3,1.9,12.8,168.71,94.63,64.53,313.66,320.22,95.18,69.01,314.48,319.24,0.0
2018-08-19 14:33:00,89.58312,39.12745,1010.476,274.2,85.8,5.6,1.95,12.79,169.19,94.18,64.67,314.19,320.22,95.33,69.07,314.42,319.27,0.0
2018-08-19 14:33:00,89.58312,39.12742,1010.426,274.2,85.8,6.0,1.6,12.98,169.31,95.35,64.67,314.55,320.12,95.56,69.12,314.36,319.24,0.0
2018-08-19 14:33:00,89.58312,39.12738,1010.407,274.2,85.8,6.1,2.76,12.8,168.83,95.09,65.01,314.37,320.02,95.82,69.16,314.33,319.15,0.0
2018-08-19 14:33:00,89.58312,39.12734,1010.413,274.2,85.8,6.1,3.14,12.97,168.09,93.72,64.87,314.18,320.02,96.05,69.17,314.35,318.95,0.0
2018-08-19 14:33:00,89.58312,39.12731,1010.389,274.19,85.8,6.3,3.35,12.91,167.07,94.04,65.22,314.8,320.55,96.19,69.14,314.48,318.78,0.0
2018-08-19 14:33:00,89.58312,39.12726,1010.361,274.19,85.8,6.5,3.82,12.89,165.67,96.4,65.29,314.99,320.76,96.21,69.07,314.66,318.7,0.0
2018-08-19 14:33:00,89.58312,39.12718,1010.353,274.19,85.8,6.6,4.01,13.04,164.08,94.44,65.49,314.81,319.72,96.1,68.96,314.84,318.63,0.0
2018-08-19 14:33:00,89.58312,39.12709,1010.36,274.2,85.8,6.5,3.68,13.23,162.39,95.22,65.29,315.26,319.76,95.85,68.81,314.98,318.53,0.0
2018-08-19 14:33:00,89.58312,39.12701,1010.392,274.2,85.8,6.3,5.09,12.87,160.27,95.68,65.56,315.44,318.62,95.52,68.64,315.09,318.45,0.0
2018-08-19 14:33:00,89.58312,39.12693,1010.355,274.2,85.8,6.6,4.0,13.18,158.44,95.81,65.77,315.41,318.86,95.17,68.47,315.25,318.54,0.0
2018-08-19 14:33:00,89.58312,39.12684,1010.345,274.2,85.8,6.6,4.83,13.25,156.32,95.55,65.7,315.45,319.29,94.87,68.32,315.34,318.51,0.0
2018-08-19 14:33:00,89.58312,39.12676,1010.347,274.21,85.8,6.6,4.71,13.12,154.31,93.85,65.77,315.13,319.62,94.68,68.19,315.37,318.44,0.0
2018-08-19 14:33:00,89.58312,39.12668,1010.327,274.2,85.8,6.8,3.47,12.98,152.37,94.37,65.77,315.09,319.0,94.65,68.1,315.36,318.41,0.0
2018-08-19 14:33:00,89.58312,39.12659,1010.32,274.21,85.8,6.8,4.58,13.01,150.09,96.01,65.77,314.59,319.03,94.81,68.04,315.31,318.4,0.0
2018-08-19 14:33:00,89.58312,39.12651,1010.322,274.2,85.8,6.8,3.24,12.31,148.04,95.29,65.56,314.69,320.53,95.14,68.03,315.21,318.48,0.0
2018-08-19 14:33:00,89.58312,39.12644,1010.343,274.2,85.8,6.6,3.93,12.06,145.86,94.5,66.11,314.74,320.17,95.61,68.04,315.11,318.56,0.0
2018-08-19 14:33:00,89.58312,39.12637,1010.33,274.2,85.8,6.8,4.3,11.78,143.76,95.48,65.91,315.16,319.92,96.14,68.07,315.03,318.58,0.0
2018-08-19 14:33:00,89.58312,39.1263,1010.287,274.2,85.8,7.1,4.35,11.38,141.82,93.78,66.18,314.88,319.62,96.65,68.11,314.97,318.6,0.0
2018-08-19 14:33:00,89.58312,39.12622,1010.283,274.19,85.8,7.1,5.0,10.97,139.98,95.62,66.11,314.88,319.82,97.07,68.14,314.93,318.69,0.0
2018-08-19 14:33:00,89.58312,39.12615,1010.275,274.19,85.8,7.2,4.93,10.72,138.54,94.31,66.18,315.16,319.64,97.32,68.17,314.83,318.77,0.0
2018-08-19 14:33:00,89.58312,39.12608,1010.26,274.18,85.8,7.3,5.28,10.15,137.24,95.22,66.11,315.16,319.72,97.35,68.19,314.8,318.69,0.0
2018-08-19 14:33:00,89.58312,39.126,1010.24,274.18,85.8,7.5,5.89,9.85,136.12,95.88,66.25,315.07,319.43,97.16,68.21,314.84,318.66,0.0
2018-08-19 14:33:00,89.58312,39.12593,1010.22,274.17,85.8,7.6,6.36,9.5,135.15,96.01,66.18,314.88,319.53,96.75,68.21,314.91,318.66,0.0
2018-08-19 14:33:00,89.58312,39.12586,1010.206,274.17,85.8,7.7,6.81,8.94,134.3,96.34,66.32,314.86,319.54,96.17,68.22,314.96,318.65,0.0
2018-08-19 14:33:00,89.58312,39.12579,1010.208,274.17,85.8,7.7,8.4,8.73,133.45,94.63,66.53,313.45,319.63,95.48,68.22,314.97,318.61,0.0
2018-08-19 14:33:00,89.58312,39.12571,1010.19,274.17,85.8,7.9,7.3,8.74,132.96,94.83,66.46,314.36,319.44,94.74,68.23,314.96,318.56,0.0
2018-08-19 14:33:00,89.58312,39.12564,1010.184,274.17,85.8,7.9,8.04,8.64,132.44,95.88,66.53,315.08,319.35,94.04,68.23,314.84,318.49,0.0
2018-08-19 14:33:00,89.58312,39.12558,1010.174,274.17,85.8,8.0,8.45,8.77,132.16,94.9,66.39,314.98,319.63,93.42,68.23,314.66,318.42,0.0
2018-08-19 14:33:00,89.58312,39.12553,1010.154,274.16,85.8,8.1,8.41,9.03,132.15,95.68,66.39,314.98,319.43,92.94,68.22,314.47,318.36,0.0
2018-08-19 14:33:00,89.58312,39.12548,1010.155,274.17,85.8,8.1,9.49,8.99,132.22,95.48,66.67,314.89,319.16,92.63,68.2,314.32,318.31,0.0
2018-08-19 14:33:00,89.58312,39.12542,1010.175,274.16,85.8,8.0,9.12,9.11,132.66,96.2,66.74,315.17,319.35,92.49,68.15,314.33,318.29,0.0
2018-08-19 14:33:00,89.58312,39.12537,1010.164,274.17,85.8,8.1,8.98,9.08,133.29,93.85,66.6,314.19,319.34,92.52,68.08,314.3,318.3,0.0
2018-08-19 14:33:00,89.58312,39.12531,1010.159,274.17,85.8,8.1,9.42,9.04,134.05,95.35,66.74,314.34,319.44,92.7,67.99,314.24,318.35,0.0
2018-08-19 14:33:00,89.58312,39.12526,1010.158,274.16,85.8,8.1,9.77,9.12,134.99,94.9,66.87,314.33,319.44,93.0,67.89,314.24,318.43,0.0
2018-08-19 14:33:00,89.58312,39.12521,1010.141,274.16,85.8,8.2,9.67,9.31,136.2,94.44,66.81,314.62,319.43,93.37,67.78,314.33,318.53,0.0
2018-08-19 14:33:00,89.58312,39.12515,1010.126,274.15,85.9,8.4,10.59,9.05,137.48,94.96,66.81,314.81,319.35,93.78,67.68,314.47,318.6,0.0
2018-08-19 14:33:00,89.58312,39.1251,1010.093,274.15,85.8,8.6,10.0,9.15,139.13,94.96,66.74,314.85,319.44,94.17,67.59,314.54,318.56,0.0
2018-08-19 14:33:00,89.58312,39.12505,1010.066,274.15,85.9,8.8,11.02,9.23,140.74,94.11,67.01,314.89,319.16,94.51,67.53,314.57,318.51,0.0
2018-08-19 14:33:00,89.58312,39.125,1010.059,274.15,85.9,8.9,11.53,9.15,142.54,94.83,66.74,315.56,319.4,94.75,67.48,314.62,318.48,0.0
2018-08-19 14:33:00,89.58312,39.12499,1010.07,274.14,85.8,8.8,11.19,8.99,144.52,96.14,66.81,315.99,319.01,94.86,67.47,314.67,318.47,0.0
2018-08-19 14:33:00,89.58312,39.12498,1010.056,274.14,85.9,8.9,12.88,9.22,146.58,94.18,66.81,316.01,318.98,94.82,67.48,314.62,318.4,0.0
2018-08-19 14:33:00,89.58312,39.12497,1010.041,274.14,85.8,9.0,13.08,9.02,148.63,94.31,66.94,315.12,318.06,94.63,67.5,314.62,318.33,0.0
2018-08-19 14:33:00,89.58312,39.12496,1010.038,274.14,85.9,9.1,13.55,8.95,150.67,95.35,67.08,314.17,318.21,94.3,67.53,314.59,318.26,0.0
2018-08-19 14:33:00,89.58312,39.12495,1010.027,274.14,85.9,9.1,14.08,8.77,152.58,95.22,67.01,314.32,318.71,93.87,67.56,314.57,318.19,0.0
2018-08-19 14:33:00,89.58311,39.12493,1010.008,274.14,85.9,9.3,13.87,8.49,154.44,94.63,66.74,314.47,319.08,93.41,67.58,314.52,318.12,0.0
2018-08-19 14:33:00,89.58311,39.12492,1010.004,274.15,85.9,9.3,12.53,8.24,156.44,93.98,66.81,313.64,318.6,92.97,67.59,314.41,318.06,0.0
2018-08-19 14:33:00,89.58311,39.12491,1009.985,274.15,85.9,9.5,13.73,8.13,158.05,95.68,66.94,314.77,318.77,92.64,67.58,314.2,318.08,0.0
2018-08-19 14:33:00,89.58311,39.1249,1009.95,274.14,85.9,9.8,12.69,7.68,159.78,94.96,67.15,314.86,319.05,92.48,67.57,314.19,318.2,0.0
2018-08-19 14:33:00,89.58311,39.12489,1009.918,274.14,85.9,10.0,12.83,7.49,161.3,94.31,67.01,314.77,319.32,92.55,67.55,314.33,318.34,0.0
2018-08-19 14:33:00,89.58311,39.12488,1009.903,274.14,85.9,10.1,13.35,7.12,162.66,94.04,67.01,314.68,319.32,92.87,67.54,314.47,318.43,0.0
2018-08-19 14:33:00,89.58311,39.12487,1009.91,274.14,85.9,10.1,13.31,6.44,163.88,95.22,67.15,314.52,319.18,93.44,67.53,314.57,318.48,0.0
2018-08-19 14:33:00,89.58311,39.12486,1009.918,274.15,85.9,10.0,13.44,6.21,164.87,94.11,66.94,313.66,319.28,94.21,67.52,314.68,318.55,0.0
2018-08-19 14:33:00,89.58311,39.12485,1009.866,274.15,85.9,10.4,14.33,6.13,165.51,94.7,67.08,314.77,318.78,95.12,67.53,314.74,318.58,0.0
2018-08-19 14:33:00,89.58311,39.12485,1009.841,274.15,85.9,10.6,14.24,5.86,165.93,93.52,67.15,314.97,319.13,96.07,67.53,314.72,318.51,0.0
2018-08-19 14:33:00,89.58311,39.12485,1009.832,274.15,85.9,10.7,14.14,5.89,166.2,94.83,66.94,314.88,319.13,96.97,67.54,314.62,318.45,0.0
2018-08-19 14:33:00,89.58311,39.12484,1009.823,274.15,85.9,10.8,14.25,6.07,166.27,94.9,67.22,314.73,318.84,97.73,67.55,314.51,318.45,0.0
2018-08-19 14:33:00,89.58311,39.12484,1009.829,274.16,85.9,10.7,14.06,5.76,166.09,94.11,66.87,314.57,319.14,98.27,67.55,314.47,318.44,0.0
2018-08-19 14:33:00,89.58311,39.12483,1009.798,274.17,85.9,11.0,14.46,5.96,165.71,92.93,67.01,314.74,318.44,98.54,67.54,314.44,318.4,0.0
2018-08-19 14:33:00,89.58311,39.12483,1009.812,274.18,85.9,10.9,13.99,5.83,165.19,95.48,67.15,313.85,318.07,98.53,67.51,314.42,318.39,0.0
2018-08-19 14:33:00,89.58311,39.12483,1009.815,274.18,85.9,10.8,13.95,5.83,164.56,95.48,67.22,313.59,318.48,98.28,67.47,314.42,318.37,0.0
2018-08-19 14:33:00,89.58311,39.12482,1009.797,274.18,85.9,11.0,13.76,5.99,163.94,96.2,67.29,313.68,319.11,97.83,67.42,314.39,318.35,0.0
2018-08-19 14:33:00,89.58311,39.12482,1009.786,274.18,85.9,11.1,12.96,6.09,163.34,95.09,67.08,314.54,319.11,97.25,67.37,314.38,318.34,0.0
2018-08-19 14:33:00,89.58311,39.12481,1009.778,274.19,85.9,11.1,13.93,5.72,162.3,94.83,67.29,313.66,319.05,96.64,67.32,314.52,318.29,0.0
2018-08-19 14:33:00,89.58311,39.12481,1009.792,274.19,85.9,11.0,13.97,6.19,161.39,95.29,67.15,314.6,319.02,96.07,67.27,314.54,318.28,0.0
2018-08-19 14:33:00,89.58311,39.12481,1009.773,274.19,85.9,11.2,13.7,6.14,160.34,96.01,67.22,314.96,318.96,95.6,67.23,314.6,318.37,0.0
2018-08-19 14:33:00,89.58311,39.1248,1009.728,274.19,85.9,11.5,13.74,6.2,159.09,95.09,67.01,314.77,318.92,95.29,67.19,314.71,318.42,0.0
2018-08-19 14:33:00,89.58311,39.1248,1009.688,274.19,85.9,11.8,14.16,6.62,157.72,96.6,67.22,314.38,318.6,95.14,67.17,314.81,318.41,0.0
2018-08-19 14:33:00,89.58311,39.12476,1009.701,274.19,85.9,11.7,14.24,6.7,156.33,93.78,66.94,315.66,318.29,95.14,67.14,314.85,318.38,0.0
2018-08-19 14:33:00,89.58311,39.1247,1009.707,274.19,85.9,11.7,14.85,6.87,154.7,94.31,67.15,315.12,318.68,95.27,67.12,314.96,318.36,0.0
2018-08-19 14:33:00,89.58311,39.12465,1009.694,274.2,86.0,11.8,15.45,7.61,153.09,94.57,67.22,314.9,319.04,95.48,67.09,314.97,318.34,0.0
2018-08-19 14:33:00,89.58311,39.12459,1009.671,274.2,86.0,12.0,15.66,7.93,151.26,94.9,67.15,314.98,318.74,95.71,67.06,314.97,318.34,0.0
2018-08-19 14:33:00,89.58311,39.12454,1009.653,274.2,86.0,12.1,15.93,8.08,149.23,96.47,67.29,314.88,318.83,95.9,67.02,314.99,318.34,0.0
2018-08-19 14:33:00,89.58311,39.12448,1009.652,274.2,86.0,12.1,16.94,8.83,147.2,94.76,67.15,314.88,318.71,96.01,66.97,315.03,318.36,0.0
2018-08-19 14:33:00,89.58311,39.12443,1009.649,274.21,86.0,12.1,17.08,9.23,145.1,96.6,67.36,314.9,318.75,96.0,66.92,314.95,318.43,0.0
2018-08-19 14:33:00,89.58311,39.12437,1009.627,274.2,86.0,12.3,17.4,9.43,142.78,95.22,67.15,314.95,318.69,95.85,66.87,314.93,318.45,0.0
2018-08-19 14:33:00,89.58311,39.12432,1009.619,274.2,86.0,12.4,16.9,9.8,140.57,95.09,66.94,314.75,318.5,95.56,66.81,314.92,318.45,0.0
2018-08-19 14:33:00,89.58311,39.12425,1009.626,274.21,86.0,12.3,16.14,10.17,138.32,95.03,66.87,314.83,318.64,95.13,66.75,314.89,318.43,0.0
2018-08-19 14:33:00,89.58311,39.12419,1009.629,274.21,86.0,12.3,15.91,10.26,136.0,95.22,67.29,314.96,318.53,94.59,66.69,314.85,318.4,0.0
2018-08-19 14:33:00,89.58311,39.12412,1009.594,274.21,86.0,12.6,15.24,10.5,133.87,95.62,67.15,314.96,318.73,93.99,66.62,314.8,318.34,0.0
2018-08-19 14:33:00,89.58311,39.12406,1009.58,274.21,86.0,12.7,15.17,10.48,131.68,95.81,67.15,314.88,318.53,93.37,66.53,314.75,318.29,0.0
2018-08-19 14:33:00,89.58311,39.124,1009.595,274.21,86.0,12.6,14.74,10.52,129.42,94.7,67.15,314.88,318.74,92.79,66.43,314.7,318.21,0.0
2018-08-19 14:33:00,89.58311,39.12393,1009.597,274.21,86.0,12.6,13.9,10.73,127.36,94.96,66.94,314.87,318.84,92.31,66.32,314.67,318.15,0.0
2018-08-19 14:33:00,89.58311,39.12387,1009.569,274.21,86.0,12.8,13.24,10.92,125.51,94.44,67.15,314.87,318.92,91.99,66.18,314.67,318.12,0.0
2018-08-19 14:33:00,89.58311,39.1238,1009.55,274.21,85.9,12.9,13.6,10.77,123.53,95.62,67.01,314.97,318.73,91.86,66.04,314.68,318.11,0.0
2018-08-19 14:33:00,89.58311,39.12374,1009.549,274.2,85.9,12.9,12.14,10.83,121.98,95.42,67.01,314.96,318.25,91.97,65.89,314.73,318.11,0.0
2018-08-19 14:33:00,89.58311,39.12367,1009.543,274.19,85.9,13.0,12.59,10.73,120.37,95.35,67.01,314.86,318.83,92.3,65.75,314.79,318.13,0.0
2018-08-19 14:33:00,89.58311,39.12361,1009.536,274.19,85.9,13.0,12.32,10.8,119.06,94.96,66.94,314.87,318.44,92.85,65.62,314.88,318.21,0.0
2018-08-19 14:33:00,89.58311,39.12354,1009.521,274.19,85.9,13.2,11.8,10.87,117.97,94.11,67.01,314.95,318.96,93.56,65.53,314.93,318.35,0.0
2018-08-19 14:33:00,89.58311,39.12352,1009.487,274.18,85.9,13.4,12.13,10.75,116.96,94.83,66.74,314.91,318.92,94.39,65.47,314.89,318.54,0.0
2018-08-19 14:33:00,89.58311,39.1235,1009.485,274.17,85.9,13.4,12.4,11.26,116.38,93.98,67.01,314.85,318.67,95.24,65.45,314.9,318.66,0.0
2018-08-19 14:33:00,89.58311,39.12348,1009.5,274.17,85.9,13.3,12.09,11.3,115.97,94.5,66.67,315.04,318.44,96.03,65.47,314.88,318.78,0.0
2018-08-19 14:33:00,89.58311,39.12346,1009.49,274.17,85.9,13.4,12.02,11.46,115.79,93.85,67.01,315.05,319.16,96.69,65.53,314.74,318.85,0.0
2018-08-19 14:33:00,89.58311,39.12344,1009.467,274.17,85.9,13.6,11.77,11.56,115.87,94.5,66.6,314.53,319.36,97.16,65.61,314.59,318.88,0.0
2018-08-19 14:33:00,89.58311,39.12342,1009.471,274.16,85.9,13.6,10.97,11.33,116.25,95.29,66.53,313.68,319.49,97.39,65.7,314.52,318.89,0.0
2018-08-19 14:33:00,89.58311,39.12341,1009.42,274.15,85.9,14.0,10.91,11.27,116.9,95.55,66.67,314.6,318.57,97.39,65.79,314.47,318.85,0.0
2018-08-19 14:33:00,89.58311,39.12339,1009.431,274.15,85.9,13.9,10.89,11.06,117.93,95.22,66.6,314.85,318.89,97.18,65.87,314.45,318.83,0.0
2018-08-19 14:33:00,89.58311,39.12337,1009.415,274.15,85.9,14.0,11.16,10.91,119.13,94.31,66.6,313.57,318.56,96.82,65.93,314.46,318.8,0.0
2018-08-19 14:33:00,89.58311,39.12335,1009.402,274.15,85.9,14.1,11.64,10.79,120.52,95.42,66.81,314.12,318.27,96.38,65.97,314.49,318.76,0.0
2018-08-19 14:33:00,89.58311,39.12333,1009.41,274.15,85.9,14.0,11.92,10.61,122.08,95.42,66.67,315.15,318.34,95.94,65.98,314.59,318.67,0.0
2018-08-19 14:33:00,89.58311,39.12331,1009.389,274.15,86.0,14.2,11.64,10.29,123.91,96.07,66.46,314.88,318.63,95.57,65.98,314.77,318.56,0.0
2018-08-19 14:33:00,89.58311,39.12329,1009.378,274.14,86.0,14.3,11.87,10.01,125.92,95.35,66.74,314.88,318.63,95.34,65.97,314.87,318.54,0.0
2018-08-19 14:33:00,89.58311,39.12328,1009.359,274.14,86.0,14.4,11.66,10.02,128.23,94.04,66.53,315.07,318.54,95.26,65.95,314.94,318.52,0.0
2018-08-19 14:33:00,89.58311,39.12327,1009.333,274.14,86.0,14.6,12.27,9.8,130.64,96.2,66.6,314.79,318.34,95.35,65.93,315.07,318.54,0.0
2018-08-19 14:33:00,89.58311,39.12325,1009.328,274.13,86.0,14.7,12.87,9.47,133.2,94.63,66.53,314.97,318.72,95.58,65.91,315.12,318.58,0.0
2018-08-19 14:33:00,89.58311,39.12324,1009.357,274.13,86.0,14.5,12.9,9.21,135.87,94.7,66.32,314.88,318.83,95.89,65.88,315.04,318.6,0.0
2018-08-19 14:33:00,89.58311,39.12323,1009.294,274.13,86.0,14.9,13.83,8.79,138.59,94.7,66.67,314.86,318.54,96.22,65.84,314.91,318.62,0.0
2018-08-19 14:33:00,89.58311,39.12321,1009.276,274.13,86.0,15.1,13.46,8.59,141.49,94.5,66.39,314.77,318.83,96.52,65.78,314.74,318.62,0.0
2018-08-19 14:33:00,89.58311,39.1232,1009.271,274.13,86.0,15.1,13.61,8.36,144.15,95.09,66.6,314.86,318.82,96.73,65.7,314.56,318.53,0.0
2018-08-19 14:33:00,89.58311,39.12319,1009.263,274.13,86.0,15.2,13.68,8.11,146.78,95.94,66.39,314.96,318.54,96.81,65.59,314.41,318.45,0.0
2018-08-19 14:33:00,89.58311,39.12317,1009.249,274.13,86.0,15.3,13.43,7.84,149.36,95.35,66.39,314.86,318.54,96.75,65.45,314.31,318.42,0.0
2018-08-19 14:33:00,89.58311,39.12316,1009.243,274.14,86.0,15.4,13.33,7.49,151.89,96.79,66.53,314.96,318.53,96.54,65.31,314.28,318.39,0.0
2018-08-19 14:33:00,89.58311,39.12315,1009.266,274.14,86.0,15.2,13.68,7.06,154.15,95.22,66.46,314.77,318.63,96.23,65.16,314.32,318.35,0.0
2018-08-19 14:33:00,89.58311,39.12313,1009.24,274.13,86.0,15.4,13.11,6.87,156.37,95.62,66.32,314.79,317.79,95.85,65.03,314.41,318.3,0.0
2018-08-19 14:33:00,89.58311,39.12312,1009.205,274.13,86.0,15.7,13.02,6.59,158.43,95.03,66.32,314.82,317.65,95.43,64.94,314.57,318.21,0.0
2018-08-19 14:33:00,89.58311,39.12311,1009.186,274.12,86.0,15.8,13.1,6.16,160.19,94.11,66.18,315.14,318.44,95.02,64.9,314.74,318.11,0.0
2018-08-19 14:33:00,89.58311,39.1231,1009.157,274.12,86.0,16.0,12.09,5.87,161.85,96.6,66.32,314.86,318.82,94.66,64.93,314.87,318.01,0.0
2018-08-19 14:33:00,89.58311,39.12309,1009.177,274.13,86.0,15.9,12.59,6.05,163.13,94.5,66.39,315.04,318.61,94.36,65.03,315.05,317.83,0.0
2018-08-19 14:33:00,89.58311,39.12307,1009.152,274.13,86.0,16.1,11.65,5.72,164.11,96.79,66.32,314.78,318.61,94.14,65.19,315.1,317.74,0.0
2018-08-19 14:33:00,89.58311,39.12306,1009.125,274.13,86.0,16.3,10.89,5.78,164.74,94.83,66.05,315.21,318.09,94.0,65.4,315.09,317.77,0.0
2018-08-19 14:33:00,89.58311,39.12305,1009.117,274.13,86.0,16.4,10.6,6.11,165.07,94.96,65.84,314.68,318.11,93.93,65.64,315.02,317.85,0.0
2018-08-19 14:33:00,89.58311,39.12304,1009.13,274.13,86.1,16.3,10.68,6.46,165.17,95.55,65.98,314.52,317.82,93.93,65.89,314.9,317.91,0.0
2018-08-19 14:33:00,89.58311,39.12302,1009.096,274.13,86.0,16.5,10.46,6.62,165.04,94.11,65.98,315.33,317.0,93.99,66.11,314.78,317.99,0.0
2018-08-19 14:33:00,89.58311,39.12301,1009.073,274.14,86.0,16.7,11.01,7.23,164.55,95.68,66.11,314.62,318.24,94.1,66.28,314.66,318.08,0.0
2018-08-19 14:33:00,89.58311,39.123,1009.074,274.14,86.0,16.7,10.63,7.67,163.86,95.68,66.25,314.67,318.42,94.26,66.39,314.59,318.15,0.0
2018-08-19 14:33:00,89.58311,39.12299,1009.078,274.14,86.0,16.7,10.71,8.23,162.95,96.4,66.11,314.96,319.22,94.47,66.43,314.53,318.26,0.0
2018-08-19 14:33:00,89.58311,39.12297,1009.073,274.15,86.0,16.7,11.47,8.8,161.82,94.44,66.39,314.68,319.71,94.72,66.4,314.54,318.38,0.0
2018-08-19 14:33:00,89.58311,39.12296,1009.071,274.15,86.0,16.7,12.15,9.05,160.46,94.63,65.98,314.96,319.44,95.0,66.31,314.61,318.48,0.0
2018-08-19 14:33:00,89.58311,39.12295,1009.042,274.15,86.0,16.9,10.92,9.54,159.21,94.44,66.32,314.96,319.05,95.29,66.18,314.5,318.66,0.0
2018-08-19 14:33:00,89.58311,39.12293,1009.04,274.15,86.0,17.0,11.45,9.77,157.51,95.35,66.11,314.77,318.48,95.59,66.03,314.6,318.71,0.0
2018-08-19 14:33:00,89.58311,39.12291,1009.045,274.15,86.0,16.9,10.97,10.1,155.86,94.96,66.11,314.95,318.13,95.87,65.89,314.68,318.72,0.0
2018-08-19 14:33:00,89.58311,39.12289,1009.044,274.16,86.0,16.9,10.46,10.35,154.1,95.42,66.25,314.85,318.42,96.1,65.75,314.7,318.64,0.0
2018-08-19 14:33:00,89.58311,39.12287,1009.031,274.17,86.0,17.0,10.97,10.33,152.11,94.83,66.18,314.36,318.23,96.29,65.65,314.71,318.51,0.0
2018-08-19 14:33:00,89.58311,39.12285,1009.024,274.17,86.0,17.1,9.93,10.42,150.18,94.9,66.18,313.12,318.52,96.41,65.56,314.72,318.41,0.0
2018-08-19 14:33:00,89.58311,39.12283,1009.017,274.17,86.0,17.1,9.19,10.25,148.14,95.29,66.05,314.65,318.42,96.46,65.51,314.67,318.29,0.0
2018-08-19 14:33:00,89.58311,39.12281,1009.018,274.17,86.0,17.1,9.35,10.24,145.98,95.48,66.11,314.36,318.39,96.46,65.47,314.58,318.21,0.0
2018-08-19 14:33:00,89.58311,39.12279,1009.007,274.17,86.0,17.2,9.56,10.38,143.73,95.81,65.98,313.79,318.47,96.43,65.43,314.48,318.18,0.0
2018-08-19 14:33:00,89.58311,39.12277,1008.971,274.17,86.0,17.5,9.61,10.5,141.44,95.16,65.98,314.14,318.41,96.37,65.39,314.37,318.17,0.0
2018-08-19 14:33:00,89.58311,39.12275,1008.939,274.18,86.0,17.8,10.2,10.24,138.99,96.47,65.98,314.9,318.93,96.32,65.33,314.32,318.19,0.0
2018-08-19 14:33:00,89.58311,39.12272,1008.965,274.17,86.1,17.6,9.89,10.6,136.61,95.48,66.11,315.08,318.49,96.28,65.26,314.43,318.25,0.0
2018-08-19 14:33:00,89.58311,39.1227,1008.987,274.18,86.0,17.4,10.02,10.59,133.96,94.44,66.05,314.68,318.33,96.27,65.18,314.41,318.22,0.0
2018-08-19 14:33:00,89.58311,39.12267,1008.973,274.18,86.0,17.5,9.1,10.65,131.4,94.83,66.11,314.96,318.52,96.27,65.09,314.52,318.2,0.0
2018-08-19 14:33:00,89.58311,39.12265,1008.936,274.18,86.0,17.8,7.74,10.72,128.95,94.31,66.11,314.76,318.32,96.28,65.01,314.71,318.23,0.0
2018-08-19 14:33:00,89.58311,39.12263,1008.916,274.17,86.0,17.9,7.18,10.54,126.51,96.01,65.98,314.85,318.71,96.28,64.94,314.81,318.28,0.0
2018-08-19 14:33:00,89.58311,39.1226,1008.914,274.18,86.0,18.0,5.98,10.3,124.37,96.34,65.91,314.75,318.42,96.24,64.9,314.84,318.26,0.0
2018-08-19 14:33:00,89.58311,39.12258,1008.904,274.17,86.0,18.0,6.25,10.19,122.39,96.01,65.84,314.5,317.51,96.16,64.89,314.84,318.18,0.0
2018-08-19 14:33:00,89.58311,39.12255,1008.881,274.17,86.0,18.2,6.13,10.04,120.69,94.76,65.84,315.23,317.06,96.02,64.92,314.82,318.11,0.0
2018-08-19 14:34:00,89.58311,39.12253,1008.851,274.16,86.0,18.5,5.89,9.9,119.15,96.34,65.56,315.02,317.66,95.83,64.97,314.78,318.05,0.0
2018-08-19 14:34:00,89.58311,39.1225,1008.831,274.15,86.0,18.6,5.93,9.86,117.67,95.16,65.84,314.77,318.32,95.61,65.04,314.71,317.98,0.0
2018-08-19 14:34:00,89.58311,39.12248,1008.828,274.15,86.0,18.6,5.69,9.87,116.26,95.88,65.91,314.66,318.2,95.37,65.11,314.62,317.9,0.0
2018-08-19 14:34:00,89.58311,39.12246,1008.83,274.14,86.0,18.6,4.84,10.15,115.09,95.29,65.77,314.46,317.49,95.15,65.18,314.53,317.83,0.0
2018-08-19 14:34:00,89.58311,39.12244,1008.82,274.13,86.0,18.7,4.31,10.34,114.02,94.63,65.84,314.58,317.89,94.97,65.23,314.48,317.88,0.0
2018-08-19 14:34:00,89.58311,39.12243,1008.815,274.13,86.0,18.7,3.7,10.57,113.18,97.25,65.7,315.14,318.43,94.85,65.25,314.38,318.02,0.0
2018-08-19 14:34:00,89.58311,39.12242,1008.817,274.13,86.0,18.7,3.3,10.85,112.59,94.9,65.84,314.57,318.42,94.8,65.24,314.29,318.15,0.0
2018-08-19 14:34:00,89.58311,39.1224,1008.786,274.13,86.0,19.0,3.95,11.14,112.17,95.22,65.63,314.85,318.6,94.8,65.19,314.28,318.18,0.0
2018-08-19 14:34:00,89.58311,39.12239,1008.78,274.12,86.0,19.0,3.51,11.43,112.07,94.83,65.77,314.94,318.52,94.85,65.11,314.3,318.29,0.0
2018-08-19 14:34:00,89.58311,39.12237,1008.766,274.12,86.0,19.1,3.82,11.7,112.0,95.68,65.7,314.86,318.43,94.9,65.0,314.36,318.46,0.0
2018-08-19 14:34:00,89.58311,39.12236,1008.741,274.12,86.0,19.3,3.66,11.89,112.05,95.68,65.7,314.67,318.87,94.91,64.88,314.38,318.62,0.0
2018-08-19 14:34:00,89.58311,39.12235,1008.719,274.12,86.0,19.5,3.13,11.94,112.24,95.62,65.77,314.66,319.44,94.84,64.76,314.45,318.66,0.0
2018-08-19 14:34:00,89.58311,39.12233,1008.72,274.12,86.0,19.5,2.61,11.83,112.56,95.09,65.7,314.86,318.29,94.68,64.64,314.56,318.61,0.0
2018-08-19 14:34:00,89.58311,39.12232,1008.706,274.11,86.0,19.6,2.65,11.92,113.04,95.22,65.49,314.75,318.94,94.41,64.53,314.57,318.61,0.0
2018-08-19 14:34:00,89.58311,39.1223,1008.724,274.12,86.0,19.5,2.56,11.94,113.74,95.48,65.7,314.85,318.83,94.05,64.44,314.47,318.48,0.0
2018-08-19 14:34:00,89.58311,39.12229,1008.715,274.12,86.0,19.5,3.22,11.82,114.48,96.4,65.56,314.14,319.36,93.62,64.37,314.44,318.43,0.0
2018-08-19 14:34:00,89.58311,39.12229,1008.69,274.12,86.0,19.7,3.8,11.61,115.39,94.57,65.49,314.84,318.35,93.2,64.33,314.47,318.43,0.0
2018-08-19 14:34:00,89.58311,39.12229,1008.663,274.12,86.0,20.0,4.1,11.25,116.43,95.22,65.49,315.14,317.47,92.83,64.3,314.49,318.41,0.0
2018-08-19 14:34:00,89.58311,39.12229,1008.654,274.11,86.1,20.0,4.28,10.73,117.47,95.62,65.49,314.49,318.04,92.58,64.3,314.44,318.38,0.0
2018-08-19 14:34:00,89.58311,39.12228,1008.627,274.11,86.0,20.2,3.78,10.52,118.68,95.62,65.49,313.66,317.43,92.53,64.31,314.39,318.27,0.0
2018-08-19 14:34:00,89.58311,39.12228,1008.617,274.11,86.0,20.3,3.9,9.94,119.89,94.44,65.49,314.36,318.17,92.7,64.35,314.39,318.25,0.0
2018-08-19 14:34:00,89.58311,39.12228,1008.608,274.11,86.0,20.4,4.07,9.82,121.18,94.5,65.22,315.11,319.18,93.11,64.39,314.36,318.23,0.0
2018-08-19 14:34:00,89.58311,39.12228,1008.596,274.11,86.1,20.5,4.3,9.63,122.53,94.9,65.36,315.03,319.4,93.74,64.44,314.25,318.21,0.0
2018-08-19 14:34:00,89.58311,39.12228,1008.578,274.11,86.1,20.6,4.59,9.09,123.95,94.44,65.29,314.64,318.47,94.55,64.5,314.1,318.21,0.0
2018-08-19 14:34:00,89.58311,39.12228,1008.574,274.11,86.1,20.7,4.57,8.98,125.33,95.55,65.56,314.87,318.45,95.47,64.55,314.15,318.23,0.0
2018-08-19 14:34:00,89.58311,39.12228,1008.575,274.11,86.1,20.7,4.47,8.4,126.67,94.44,65.29,315.22,319.17,96.42,64.61,314.31,318.35,0.0
2018-08-19 14:34:00,89.58312,39.12227,1008.559,274.11,86.1,20.8,4.0,8.18,127.91,95.81,65.22,314.17,319.14,97.31,64.65,314.4,318.4,0.0
2018-08-19 14:34:00,89.58312,39.12227,1008.528,274.11,86.1,21.0,3.47,7.83,129.09,94.18,65.15,313.62,318.27,98.05,64.69,314.43,318.26,0.0
2018-08-19 14:34:00,89.58312,39.12224,1008.488,274.11,86.1,21.3,3.02,7.32,130.2,94.31,65.08,313.67,317.66,98.59,64.72,314.45,318.09,0.0
2018-08-19 14:34:00,89.58312,39.12218,1008.46,274.11,86.1,21.6,2.64,7.17,131.36,95.55,65.29,314.54,318.32,98.87,64.74,314.49,318.05,0.0
2018-08-19 14:34:00,89.58312,39.12213,1008.492,274.11,86.1,21.3,2.55,6.9,132.63,94.7,65.36,314.82,318.42,98.9,64.76,314.5,317.98,0.0
2018-08-19 14:34:00,89.58312,39.12208,1008.479,274.12,86.1,21.4,2.66,6.36,133.85,95.62,65.36,314.62,318.32,98.69,64.77,314.54,317.92,0.0
2018-08-19 14:34:00,89.58312,39.12203,1008.468,274.12,86.1,21.5,2.64,6.19,135.04,95.35,65.36,314.53,317.58,98.28,64.79,314.63,317.96,0.0
2018-08-19 14:34:00,89.58312,39.12197,1008.459,274.12,86.1,21.6,2.69,5.96,136.14,96.34,65.08,314.37,317.14,97.74,64.8,314.73,318.11,0.0
2018-08-19 14:34:00,89.58312,39.12192,1008.424,274.12,86.1,21.8,2.87,5.29,137.11,95.03,65.15,313.72,317.57,97.12,64.82,314.81,318.28,0.0
2018-08-19 14:34:00,89.58312,39.12187,1008.397,274.12,86.1,22.1,2.0,5.41,137.91,96.4,65.08,313.32,316.9,96.5,64.84,314.81,318.28,0.0
2018-08-19 14:34:00,89.58312,39.12182,1008.386,274.13,86.1,22.1,1.75,4.95,138.53,96.53,65.08,314.22,317.78,95.92,64.86,314.76,318.23,0.0
2018-08-19 14:34:00,89.58312,39.12176,1008.39,274.14,86.1,22.1,1.12,4.74,139.04,95.88,65.22,314.47,319.49,95.42,64.87,314.66,318.19,0.0
2018-08-19 14:34:00,89.58312,39.12171,1008.396,274.14,86.1,22.1,0.69,4.71,139.44,95.29,65.15,314.31,319.84,95.03,64.87,314.53,318.26,0.0
2018-08-19 14:34:00,89.58312,39.12166,1008.394,274.14,86.1,22.1,0.58,4.57,139.76,94.9,65.29,314.29,319.71,94.73,64.84,314.43,318.38,0.0
2018-08-19 14:34:00,89.58312,39.12161,1008.403,274.14,86.1,22.0,0.23,3.99,140.04,94.7,65.08,314.83,318.79,94.52,64.79,314.46,318.43,0.0
2018-08-19 14:34:00,89.58312,39.12155,1008.358,274.14,86.1,22.4,-0.25,4.36,140.09,96.47,65.22,314.54,318.17,94.39,64.72,314.53,318.55,0.0
2018-08-19 14:34:00,89.58312,39.1215,1008.348,274.14,86.1,22.4,-0.75,4.12,140.15,95.03,65.08,314.26,318.52,94.32,64.63,314.55,318.61,0.0
2018-08-19 14:34:00,89.58312,39.12145,1008.347,274.14,86.1,22.5,-1.44,4.21,140.13,95.35,65.08,314.15,318.82,94.3,64.53,314.55,318.57,0.0
2018-08-19 14:34:00,89.58312,39.12138,1008.342,274.14,86.1,22.5,-1.93,4.5,140.01,96.14,65.08,314.09,318.99,94.33,64.42,314.56,318.51,0.0
2018-08-19 14:34:00,89.58312,39.12131,1008.339,274.14,86.1,22.5,-1.81,4.38,139.86,95.88,65.29,315.01,318.21,94.42,64.33,314.57,318.48,0.0
2018-08-19 14:34:00,89.58312,39.12124,1008.294,274.14,86.1,22.9,-2.23,4.29,139.87,94.83,64.94,314.62,318.11,94.57,64.26,314.54,318.53,0.0
2018-08-19 14:34:00,89.58312,39.12117,1008.286,274.14,86.1,22.9,-1.56,4.73,139.69,96.99,65.15,314.81,317.99,94.79,64.22,314.49,318.52,0.0
2018-08-19 14:34:00,89.58312,39.1211,1008.296,274.14,86.1,22.9,-1.6,5.05,139.52,94.31,64.94,314.32,318.73,95.08,64.22,314.5,318.57,0.0
2018-08-19 14:34:00,89.58312,39.12104,1008.293,274.13,86.1,22.9,-1.87,5.36,139.28,95.03,65.08,314.05,318.51,95.44,64.26,314.53,318.58,0.0
2018-08-19 14:34:00,89.58312,39.12097,1008.268,274.13,86.1,23.1,-1.85,5.68,138.94,94.37,65.08,314.13,318.32,95.83,64.34,314.53,318.53,0.0
2018-08-19 14:34:00,89.58312,39.1209,1008.275,274.13,86.1,23.0,-1.57,5.76,138.55,95.29,64.94,314.15,317.99,96.22,64.44,314.46,318.52,0.0
2018-08-19 14:34:00,89.58312,39.12085,1008.258,274.13,86.1,23.2,-1.96,6.24,138.03,96.34,64.73,313.88,317.28,96.55,64.55,314.38,318.49,0.0
2018-08-19 14:34:00,89.58313,39.12082,1008.25,274.13,86.2,23.2,-2.06,6.4,137.62,95.55,64.67,314.01,318.31,96.78,64.66,314.3,318.45,0.0
2018-08-19 14:34:00,89.58313,39.12078,1008.249,274.13,86.2,23.2,-2.23,6.52,137.17,94.76,65.15,314.56,318.59,96.85,64.76,314.28,318.41,0.0
2018-08-19 14:34:00,89.58313,39.12075,1008.247,274.13,86.1,23.2,-2.58,6.83,136.64,95.75,64.94,314.54,318.21,96.76,64.83,314.3,318.38,0.0
2018-08-19 14:34:00,89.58313,39.12072,1008.223,274.13,86.1,23.4,-2.83,7.33,136.12,96.01,64.87,314.92,317.92,96.48,64.86,314.35,318.37,0.0
2018-08-19 14:34:00,89.58313,39.12069,1008.236,274.13,86.1,23.3,-2.84,7.11,135.74,95.42,65.08,314.73,318.6,96.05,64.86,314.41,318.39,0.0
2018-08-19 14:34:00,89.58313,39.12066,1008.201,274.13,86.1,23.6,-2.8,7.48,135.25,95.48,64.87,314.82,318.31,95.52,64.84,314.52,318.5,0.0
2018-08-19 14:34:00,89.58313,39.12063,1008.174,274.13,86.1,23.8,-2.82,7.67,134.83,95.55,65.08,314.81,318.41,94.96,64.79,314.58,318.44,0.0
2018-08-19 14:34:00,89.58313,39.1206,1008.165,274.12,86.1,23.9,-2.91,7.94,134.4,96.14,64.87,314.62,318.41,94.44,64.73,314.6,318.36,0.0
2018-08-19 14:34:00,89.58313,39.12057,1008.16,274.11,86.1,23.9,-3.07,8.45,133.94,95.22,64.94,314.53,318.31,94.06,64.67,314.6,318.38,0.0
2018-08-19 14:34:00,89.58313,39.12053,1008.145,274.12,86.1,24.1,-3.26,8.47,133.57,95.48,64.8,314.62,318.21,93.87,64.64,314.58,318.38,0.0
2018-08-19 14:34:00,89.58313,39.1205,1008.141,274.11,86.1,24.1,-3.62,8.73,133.21,95.62,64.94,314.53,318.21,93.92,64.62,314.54,318.36,0.0
2018-08-19 14:34:00,89.58313,39.12047,1008.133,274.11,86.1,24.2,-3.78,9.14,132.83,95.29,64.87,314.65,317.42,94.2,64.63,314.49,318.31,0.0
2018-08-19 14:34:00,89.58313,39.12045,1008.13,274.11,86.1,24.2,-3.92,9.36,132.53,96.53,64.94,314.74,317.68,94.68,64.67,314.47,318.25,0.0
2018-08-19 14:34:00,89.58313,39.12043,1008.139,274.1,86.1,24.1,-4.09,9.43,132.34,94.63,64.87,314.53,318.4,95.31,64.74,314.46,318.18,0.0
2018-08-19 14:34:00,89.58314,39.12041,1008.129,274.11,86.1,24.2,-4.21,9.82,132.11,95.68,64.8,314.71,318.5,96.0,64.82,314.42,318.11,0.0
2018-08-19 14:34:00,89.58314,39.12039,1008.102,274.1,86.1,24.4,-4.23,10.18,132.02,94.24,65.01,314.71,318.39,96.67,64.9,314.42,318.07,0.0
2018-08-19 14:34:00,89.58314,39.12037,1008.083,274.1,86.1,24.5,-4.16,10.44,132.02,94.83,64.87,314.81,318.4,97.23,64.97,314.45,318.05,0.0
2018-08-19 14:34:00,89.58314,39.12035,1008.072,274.1,86.1,24.6,-4.2,10.74,132.04,95.22,64.73,315.08,318.35,97.61,65.04,314.48,318.1,0.0
2018-08-19 14:34:00,89.58314,39.12033,1008.068,274.1,86.1,24.7,-4.41,10.97,132.14,94.83,64.87,315.19,318.54,97.79,65.07,314.54,318.19,0.0
2018-08-19 14:34:00,89.58314,39.12031,1008.073,274.09,86.1,24.6,-4.73,11.01,132.4,95.62,64.87,314.8,318.26,97.76,65.09,314.66,318.29,0.0
2018-08-19 14:34:00,89.58314,39.12029,1008.086,274.09,86.1,24.5,-4.9,11.4,132.61,96.66,64.94,314.69,318.85,97.55,65.08,314.75,318.29,0.0
2018-08-19 14:34:00,89.58314,39.12027,1008.076,274.09,86.1,24.6,-5.35,11.59,133.04,96.73,64.87,314.76,318.48,97.2,65.06,314.78,318.33,0.0
2018-08-19 14:34:00,89.58314,39.12025,1008.057,274.09,86.1,24.8,-5.89,11.59,133.65,95.81,64.94,314.47,318.39,96.78,65.02,314.81,318.35,0.0
2018-08-19 14:34:00,89.58314,39.12022,1008.051,274.09,86.1,24.8,-6.34,11.68,134.34,96.27,64.94,314.41,319.09,96.35,64.97,314.77,318.36,0.0
2018-08-19 14:34:00,89.58314,39.12017,1008.067,274.09,86.1,24.7,-6.6,11.93,135.04,95.16,65.08,314.73,319.55,95.98,64.94,314.68,318.36,0.0
2018-08-19 14:34:00,89.58314,39.12011,1008.056,274.08,86.1,24.8,-6.71,11.91,135.96,96.14,64.94,314.6,318.32,95.7,64.91,314.62,318.35,0.0
2018-08-19 14:34:00,89.58314,39.12005,1008.032,274.08,86.1,25.0,-6.46,12.12,136.83,94.76,64.8,313.98,318.53,95.53,64.9,314.51,318.3,0.0
2018-08-19 14:34:00,89.58314,39.11999,1007.988,274.08,86.1,25.3,-6.56,12.16,137.75,95.88,64.8,314.15,318.21,95.46,64.9,314.38,318.25,0.0
2018-08-19 14:34:00,89.58314,39.11993,1007.964,274.08,86.1,25.5,-6.64,12.24,138.69,95.88,64.87,314.44,318.07,95.47,64.93,314.3,318.23,0.0
2018-08-19 14:34:00,89.58314,39.11987,1007.964,274.08,86.1,25.5,-6.51,12.4,139.67,94.96,65.01,314.62,318.18,95.54,64.97,314.27,318.18,0.0
2018-08-19 14:34:00,89.58314,39.11981,1007.933,274.07,86.1,25.7,-6.24,12.48,140.64,95.62,64.8,314.6,318.19,95.63,65.01,314.23,318.09,0.0
2018-08-19 14:34:00,89.58314,39.11975,1007.927,274.07,86.1,25.8,-6.28,12.1,141.74,95.48,64.94,314.62,317.99,95.71,65.06,314.27,318.24,0.0
2018-08-19 14:34:00,89.58314,39.11969,1007.902,274.07,86.1,26.0,-5.98,12.33,142.71,96.53,64.94,314.27,318.1,95.78,65.1,314.37,318.27,0.0
2018-08-19 14:34:00,89.58314,39.11963,1007.901,274.07,86.1,26.0,-5.72,12.12,143.8,95.88,65.08,314.54,318.2,95.83,65.14,314.47,318.29,0.0
2018-08-19 14:34:00,89.58314,39.11957,1007.912,274.08,86.1,25.9,-5.84,11.91,144.89,96.79,64.8,314.62,318.19,95.87,65.15,314.57,318.33,0.0
2018-08-19 14:34:00,89.58314,39.11951,1007.899,274.08,86.1,26.0,-6.45,12.05,145.85,95.88,65.01,314.64,318.56,95.92,65.15,314.66,318.37,0.0
2018-08-19 14:34:00,89.58314,39.11948,1007.882,274.08,86.1,26.1,-6.92,11.59,146.89,94.76,64.73,314.75,319.76,95.98,65.12,314.74,318.4,0.0
2018-08-19 14:34:00,89.58314,39.11946,1007.85,274.08,86.2,26.4,-6.96,11.68,147.81,96.01,64.87,314.65,318.68,96.08,65.08,314.77,318.43,0.0
2018-08-19 14:34:00,89.58314,39.11944,1007.86,274.08,86.2,26.3,-6.37,11.65,148.82,94.76,65.01,314.62,318.29,96.2,65.03,314.82,318.45,0.0
2018-08-19 14:34:00,89.58314,39.11942,1007.873,274.09,86.2,26.2,-5.47,11.31,149.9,96.47,65.15,314.8,317.99,96.34,64.96,314.8,318.46,0.0
2018-08-19 14:34:00,89.58314,39.1194,1007.84,274.09,86.2,26.5,-4.7,10.85,150.92,94.9,65.08,314.62,318.39,96.46,64.89,314.74,318.47,0.0
2018-08-19 14:34:00,89.58314,39.11938,1007.814,274.1,86.2,26.7,-4.38,10.78,151.72,95.62,64.8,314.81,318.4,96.54,64.82,314.65,318.44,0.0
2018-08-19 14:34:00,89.58314,39.11936,1007.776,274.09,86.2,27.0,-3.99,9.95,152.43,96.07,65.08,314.23,317.91,96.54,64.76,314.55,318.29,0.0
2018-08-19 14:34:00,89.58314,39.11934,1007.804,274.1,86.2,26.8,-4.07,9.83,152.87,95.88,64.8,314.51,318.39,96.46,64.71,314.46,318.25,0.0
2018-08-19 14:34:00,89.58314,39.11932,1007.805,274.1,86.2,26.7,-4.16,9.42,153.24,96.4,64.87,314.61,318.19,96.28,64.67,314.4,318.23,0.0
2018-08-19 14:34:00,89.58314,39.1193,1007.772,274.1,86.2,27.0,-3.99,8.88,153.49,96.01,64.94,314.71,318.2,96.03,64.64,314.39,318.23,0.0
2018-08-19 14:34:00,89.58314,39.11928,1007.784,274.11,86.2,26.9,-3.63,8.74,153.55,95.94,64.94,314.61,318.2,95.72,64.62,314.41,318.24,0.0
2018-08-19 14:34:00,89.58314,39.11926,1007.766,274.1,86.2,27.1,-4.02,8.66,153.5,96.14,64.94,314.52,318.29,95.41,64.61,314.3,318.26,0.0
2018-08-19 14:34:00,89.58314,39.11924,1007.76,274.1,86.2,27.1,-4.24,8.17,153.36,95.94,64.94,314.62,318.2,95.15,64.61,314.31,318.33,0.0
2018-08-19 14:34:00,89.58314,39.11922,1007.756,274.1,86.2,27.1,-4.57,8.2,153.05,96.34,64.8,314.52,318.2,94.98,64.62,314.34,318.36,0.0
2018-08-19 14:34:00,89.58314,39.1192,1007.759,274.1,86.2,27.1,-4.87,8.18,152.64,95.48,65.01,315.01,318.46,94.94,64.63,314.39,318.37,0.0
2018-08-19 14:34:00,89.58314,39.11918,1007.77,274.1,86.2,27.0,-5.16,7.88,152.17,94.5,65.08,315.15,318.4,95.05,64.65,314.42,318.38,0.0
2018-08-19 14:34:00,89.58314,39.1192,1007.716,274.1,86.2,27.5,-5.84,8.31,151.6,95.09,64.67,313.35,318.48,95.29,64.67,314.45,318.39,0.0
2018-08-19 14:34:00,89.58314,39.11926,1007.719,274.09,86.1,27.4,-6.0,8.25,151.0,96.2,64.73,314.09,318.78,95.64,64.7,314.46,318.41,0.0
2018-08-19 14:34:00,89.58314,39.11932,1007.711,274.09,86.2,27.5,-6.2,8.26,150.28,96.47,64.8,314.36,318.27,96.05,64.74,314.45,318.52,0.0
2018-08-19 14:34:00,89.58314,39.11938,1007.691,274.09,86.2,27.7,-6.58,8.36,149.48,96.4,64.94,314.51,318.19,96.44,64.79,314.44,318.67,0.0
2018-08-19 14:34:00,89.58314,39.11943,1007.675,274.09,86.2,27.8,-7.11,8.32,148.68,95.42,64.87,314.52,318.19,96.75,64.85,314.39,318.76,0.0
2018-08-19 14:34:00,89.58314,39.11949,1007.677,274.09,86.2,27.8,-7.76,7.87,147.9,95.22,64.94,314.51,318.08,96.93,64.92,314.33,318.75,0.0
2018-08-19 14:34:00,89.58314,39.11955,1007.674,274.1,86.2,27.8,-8.6,8.28,146.93,95.94,65.01,314.6,318.47,96.95,64.98,314.42,318.73,0.0
2018-08-19 14:34:00,89.58314,39.11961,1007.66,274.09,86.2,27.9,-8.66,7.99,146.1,96.01,64.73,314.79,319.32,96.78,65.04,314.42,318.66,0.0
2018-08-19 14:34:00,89.58314,39.11967,1007.657,274.09,86.2,27.9,-8.89,7.89,145.28,95.81,64.94,314.51,319.68,96.46,65.08,314.4,318.64,0.0
2018-08-19 14:34:00,89.58314,39.11973,1007.667,274.09,86.2,27.8,-9.19,8.01,144.45,95.35,64.67,314.51,319.11,96.02,65.1,314.39,318.63,0.0
2018-08-19 14:34:00,89.58314,39.1198,1007.642,274.09,86.2,28.0,-8.93,7.96,143.59,96.47,64.87,314.51,318.28,95.54,65.09,314.38,318.63,0.0
2018-08-19 14:34:00,89.58314,39.11987,1007.619,274.1,86.2,28.2,-8.52,7.97,142.74,95.75,64.87,314.33,318.17,95.08,65.05,314.37,318.63,0.0
2018-08-19 14:34:00,89.58314,39.11994,1007.612,274.09,86.2,28.3,-8.52,8.18,141.91,96.01,64.94,314.79,318.18,94.71,64.98,314.37,318.63,0.0
2018-08-19 14:34:00,89.58314,39.12001,1007.592,274.09,86.2,28.4,-8.64,8.12,141.18,96.2,64.87,314.42,318.48,94.48,64.89,314.37,318.54,0.0
2018-08-19 14:34:00,89.58314,39.12008,1007.584,274.09,86.2,28.5,-8.84,8.07,140.51,96.47,65.08,314.51,318.1,94.44,64.78,314.38,318.42,0.0
2018-08-19 14:34:00,89.58314,39.12015,1007.6,274.09,86.2,28.4,-9.04,8.2,139.92,96.27,64.94,314.51,318.29,94.57,64.69,314.39,318.36,0.0
2018-08-19 14:34:00,89.58314,39.12022,1007.545,274.09,86.2,28.8,-9.14,8.3,139.47,94.83,64.8,314.79,318.18,94.87,64.61,314.41,318.4,0.0
2018-08-19 14:34:00,89.58314,39.12029,1007.531,274.08,86.2,28.9,-8.93,8.5,139.1,95.22,65.01,314.51,318.38,95.29,64.56,314.44,318.35,0.0
2018-08-19 14:34:00,89.58314,39.12035,1007.543,274.09,86.2,28.8,-9.11,8.78,138.88,94.9,64.8,314.6,318.18,95.76,64.56,314.48,318.35,0.0
2018-08-19 14:34:00,89.58314,39.12042,1007.533,274.09,86.2,28.9,-8.94,8.99,138.73,96.47,64.94,314.5,318.37,96.22,64.61,314.51,318.34,0.0
2018-08-19 14:34:00,89.58314,39.12049,1007.501,274.08,86.2,29.2,-8.56,9.2,138.63,94.83,64.8,314.55,318.5,96.61,64.71,314.53,318.27,0.0
2018-08-19 14:34:00,89.58314,39.12054,1007.509,274.08,86.2,29.1,-8.46,9.55,138.58,96.66,64.73,314.19,318.55,96.9,64.84,314.54,318.15,0.0
2018-08-19 14:34:00,89.58314,39.12058,1007.468,274.07,86.2,29.4,-8.43,9.63,138.58,95.22,64.73,314.32,317.38,97.06,64.99,314.52,318.16,0.0
2018-08-19 14:34:00,89.58314,39.12061,1007.467,274.07,86.2,29.4,-8.41,9.76,138.7,96.4,64.87,314.42,318.02,97.09,65.14,314.49,318.11,0.0
2018-08-19 14:34:00,89.58314,39.12065,1007.464,274.07,86.2,29.5,-8.32,9.99,138.87,95.42,64.94,314.5,318.28,97.01,65.27,314.44,318.05,0.0
2018-08-19 14:34:00,89.58314,39.12068,1007.449,274.07,86.2,29.6,-7.83,10.26,139.16,96.34,64.87,314.67,317.61,96.87,65.35,314.38,317.99,0.0
2018-08-19 14:34:00,89.58314,39.12072,1007.43,274.07,86.2,29.7,-6.93,10.5,139.62,95.48,64.8,314.56,317.47,96.71,65.38,314.34,317.95,0.0
2018-08-19 14:34:00,89.58314,39.12076,1007.443,274.07,86.2,29.6,-6.37,10.67,140.1,96.4,64.73,314.23,318.83,96.56,65.34,314.36,317.92,0.0
2018-08-19 14:34:00,89.58314,39.12079,1007.445,274.07,86.2,29.6,-6.02,10.42,140.74,95.68,65.01,314.29,318.19,96.45,65.24,314.38,318.01,0.0
2018-08-19 14:34:00,89.58314,39.12083,1007.433,274.06,86.2,29.7,-6.27,10.55,141.23,95.55,65.01,314.51,318.56,96.4,65.1,314.41,318.08,1.0
2018-08-19 14:34:00,89.58314,39.12087,1007.418,274.06,86.2,29.8,-6.54,10.62,141.73,96.53,65.08,314.59,318.27,96.39,64.93,314.46,318.17,1.0
2018-08-19 14:34:00,89.58314,39.1209,1007.401,274.06,86.2,30.0,-6.7,10.55,142.27,96.14,64.94,314.69,318.21,96.41,64.75,314.48,318.34,1.0
2018-08-19 14:34:00,89.58314,39.12094,1007.364,274.06,86.2,30.2,-7.02,10.69,142.77,96.27,64.94,315.13,318.28,96.42,64.61,314.46,318.56,1.0
2018-08-19 14:34:00,89.58314,39.12098,1007.37,274.07,86.2,30.2,-6.75,10.81,143.24,96.01,64.87,314.93,318.48,96.39,64.51,314.57,318.56,1.0
2018-08-19 14:34:00,89.58314,39.12094,1007.361,274.06,86.2,30.3,-6.84,10.76,143.74,94.5,64.87,314.99,318.11,96.28,64.47,314.68,318.59,1.0
2018-08-19 14:34:00,89.58314,39.1209,1007.347,274.06,86.2,30.4,-6.46,10.89,144.15,96.14,65.08,315.19,318.45,96.1,64.5,314.76,318.65,1.0
2018-08-19 14:34:00,89.58314,39.12087,1007.339,274.07,86.2,30.4,-5.88,10.92,144.54,96.4,64.94,314.36,318.56,95.84,64.6,314.79,318.66,1.0
2018-08-19 14:34:00,89.58314,39.12083,1007.333,274.07,86.2,30.5,-5.58,10.62,144.99,96.27,64.73,313.6,319.27,95.53,64.74,314.77,318.56,1.0
2018-08-19 14:34:00,89.58314,39.12079,1007.295,274.07,86.2,30.8,-5.25,10.71,145.26,95.88,64.67,314.53,317.9,95.22,64.91,314.66,318.43,1.0
2018-08-19 14:34:00,89.58314,39.12075,1007.325,274.06,86.2,30.6,-4.93,10.51,145.48,96.27,64.67,314.53,317.92,94.96,65.07,314.53,318.28,1.0
2018-08-19 14:34:00,89.58314,39.12071,1007.322,274.06,86.2,30.6,-5.03,10.39,145.61,96.2,64.94,314.43,318.87,94.79,65.2,314.42,318.14,1.0
2018-08-19 14:34:00,89.58314,39.12067,1007.295,274.06,86.2,30.8,-5.12,10.37,145.6,96.2,64.8,314.29,318.84,94.75,65.27,314.32,318.02,1.0
2018-08-19 14:34:00,89.58314,39.12063,1007.279,274.06,86.2,30.9,-5.08,10.33,145.44,96.2,65.08,314.33,318.29,94.86,65.29,314.25,317.91,1.0
2018-08-19 14:34:00,89.58314,39.12059,1007.267,274.06,86.2,31.0,-5.42,9.95,145.32,95.88,64.94,314.49,318.1,95.12,65.24,314.28,317.85,1.0
2018-08-19 14:34:00,89.58314,39.12055,1007.237,274.05,86.2,31.3,-5.45,10.37,144.97,94.9,64.94,314.3,318.47,95.48,65.13,314.26,317.92,1.0
2018-08-19 14:34:00,89.58314,39.12053,1007.228,274.05,86.2,31.3,-5.68,10.18,144.66,95.68,64.8,314.99,318.38,95.9,64.99,314.25,318.03,1.0
2018-08-19 14:34:00,89.58314,39.12051,1007.243,274.05,86.2,31.2,-6.12,10.14,144.25,95.48,65.08,314.89,318.38,96.31,64.85,314.32,318.08,1.0
2018-08-19 14:34:00,89.58314,39.1205,1007.254,274.05,86.2,31.1,-6.49,10.22,143.78,95.48,64.87,314.6,318.29,96.65,64.72,314.43,318.18,1.0
2018-08-19 14:34:00,89.58314,39.12049,1007.213,274.04,86.2,31.4,-6.49,10.03,143.3,96.14,65.01,314.59,318.18,96.86,64.65,314.48,318.37,1.0
2018-08-19 14:34:00,89.58314,39.12048,1007.21,274.03,86.2,31.5,-6.54,10.04,142.76,96.34,64.94,314.5,318.47,96.92,64.64,314.5,318.47,1.0
2018-08-19 14:34:00,89.58314,39.12047,1007.196,274.03,86.2,31.6,-6.37,10.24,142.18,95.62,65.08,314.7,318.36,96.83,64.71,314.58,318.52,1.0
2018-08-19 14:34:00,89.58314,39.12046,1007.183,274.03,86.2,31.7,-6.29,10.46,141.64,95.94,64.94,314.78,318.07,96.6,64.85,314.67,318.5,1.0
2018-08-19 14:34:00,89.58314,39.12044,1007.169,274.03,86.2,31.8,-6.31,10.65,141.17,96.07,64.67,314.21,318.12,96.31,65.05,314.73,318.39,1.0
2018-08-19 14:34:00,89.58314,39.12043,1007.146,274.03,86.2,32.0,-6.27,10.81,140.78,96.53,64.53,313.63,318.48,96.01,65.29,314.78,318.19,1.0
2018-08-19 14:34:00,89.58314,39.12042,1007.115,274.02,86.2,32.2,-5.54,10.96,140.56,96.07,64.73,312.92,317.64,95.77,65.54,314.8,318.01,1.0
2018-08-19 14:34:00,89.58314,39.12041,1007.117,274.03,86.2,32.2,-5.0,11.04,140.67,95.68,65.08,314.09,317.8,95.65,65.78,314.81,317.82,1.0
2018-08-19 14:34:00,89.58314,39.1204,1007.125,274.03,86.2,32.1,-4.78,11.27,140.93,96.01,64.94,314.97,318.28,95.7,65.98,314.81,317.68,1.0
2018-08-19 14:34:00,89.58314,39.12039,1007.117,274.03,86.2,32.2,-4.61,11.64,141.26,96.99,65.01,315.31,317.83,95.93,66.13,314.8,317.65,1.0
2018-08-19 14:34:00,89.58314,39.12037,1007.092,274.02,86.2,32.4,-4.41,12.05,141.63,95.55,65.01,315.07,317.49,96.31,66.22,314.81,317.69,1.0
2018-08-19 14:34:00,89.58314,39.12036,1007.092,274.02,86.2,32.4,-4.35,12.35,142.17,94.9,65.08,315.0,317.49,96.8,66.26,314.9,317.74,1.0
2018-08-19 14:34:00,89.58314,39.12035,1007.081,274.02,86.2,32.5,-4.35,12.27,143.0,95.75,65.08,315.05,317.62,97.33,66.24,315.05,317.9,1.0
2018-08-19 14:34:00,89.58314,39.12033,1007.053,274.02,86.2,32.7,-4.69,12.36,143.9,95.62,65.08,314.92,317.39,97.83,66.2,315.13,318.09,1.0
2018-08-19 14:34:00,89.58314,39.12032,1007.036,274.02,86.2,32.8,-4.81,12.64,144.8,95.42,65.22,314.91,318.22,98.21,66.13,315.16,318.29,1.0
2018-08-19 14:34:00,89.58314,39.1203,1007.037,274.03,86.2,32.8,-4.68,12.85,145.74,96.86,64.94,314.45,318.28,98.42,66.07,315.19,318.53,1.0
2018-08-19 14:34:00,89.58314,39.12028,1007.034,274.02,86.2,32.9,-4.55,12.87,146.81,96.2,65.29,314.68,318.08,98.43,66.01,315.23,318.8,1.0
2018-08-19 14:34:00,89.58314,39.12026,1007.025,274.02,86.2,32.9,-4.67,13.6,147.91,96.66,65.15,314.78,318.18,98.24,65.97,315.2,318.97,1.0
2018-08-19 14:34:00,89.58314,39.12024,1007.016,274.02,86.3,33.0,-4.17,13.6,149.08,96.66,65.29,314.56,318.27,97.87,65.95,315.14,319.08,1.0
2018-08-19 14:34:00,89.58314,39.12023,1006.993,274.02,86.3,33.2,-4.03,13.76,150.36,96.47,65.22,314.47,318.08,97.38,65.93,315.06,319.08,1.0
2018-08-19 14:34:00,89.58314,39.12021,1006.974,274.02,86.3,33.3,-3.63,13.98,151.68,96.6,65.29,315.05,318.57,96.84,65.92,314.96,318.99,1.0
2018-08-19 14:34:00,89.58314,39.12019,1006.98,274.02,86.3,33.3,-2.84,14.1,152.98,95.68,65.22,315.1,319.25,96.31,65.91,314.88,318.86,1.0
2018-08-19 14:34:00,89.58314,39.12017,1006.996,274.02,86.3,33.2,-2.62,14.07,154.37,96.66,65.15,314.68,319.02,95.88,65.89,314.83,318.74,1.0
2018-08-19 14:34:00,89.58314,39.12015,1006.975,274.02,86.3,33.3,-2.77,14.48,155.49,96.47,65.36,314.5,318.43,95.59,65.85,314.79,318.65,1.0
2018-08-19 14:34:00,89.58314,39.12014,1006.94,274.02,86.3,33.6,-2.73,14.42,156.52,96.07,65.15,314.78,318.34,95.47,65.81,314.78,318.61,1.0
2018-08-19 14:34:00,89.58314,39.12012,1006.916,274.02,86.3,33.8,-2.79,14.5,157.47,96.6,65.49,314.59,318.45,95.54,65.76,314.68,318.56,1.0
2018-08-19 14:34:00,89.58314,39.1201,1006.91,274.02,86.3,33.8,-2.67,14.74,158.35,96.01,65.36,314.58,318.26,95.78,65.71,314.54,318.5,1.0
2018-08-19 14:34:00,89.58314,39.12009,1006.894,274.03,86.3,34.0,-1.96,14.85,159.22,95.94,65.36,314.57,318.35,96.17,65.67,314.48,318.49,1.0
2018-08-19 14:34:00,89.58314,39.12007,1006.876,274.03,86.3,34.1,-1.95,14.75,159.83,95.81,65.36,314.76,318.46,96.64,65.65,314.5,318.53,1.0
2018-08-19 14:34:00,89.58314,39.12005,1006.898,274.03,86.3,33.9,-2.22,14.89,160.23,96.86,65.49,314.68,318.56,97.16,65.65,314.6,318.6,1.0
2018-08-19 14:34:00,89.58314,39.12004,1006.9,274.03,86.3,33.9,-1.82,14.8,160.48,96.79,65.42,313.46,318.04,97.66,65.67,314.63,318.66,1.0
2018-08-19 14:34:00,89.58314,39.12002,1006.876,274.03,86.3,34.1,-1.39,14.56,160.65,96.27,65.15,313.24,317.37,98.11,65.71,314.59,318.68,1.0
2018-08-19 14:34:00,89.58314,39.12,1006.852,274.03,86.3,34.3,-1.57,14.37,160.78,95.48,65.29,314.2,317.76,98.47,65.76,314.53,318.66,1.0
2018-08-19 14:34:00,89.58314,39.11999,1006.883,274.03,86.3,34.1,-1.12,14.3,160.73,96.4,65.29,314.5,318.37,98.71,65.82,314.47,318.6,1.0
2018-08-19 14:34:00,89.58314,39.11993,1006.869,274.04,86.3,34.2,-0.44,13.84,160.56,96.01,65.42,315.32,318.7,98.83,65.88,314.4,318.51,1.0
2018-08-19 14:34:00,89.58314,39.11983,1006.817,274.04,86.3,34.6,-0.81,13.88,160.11,97.32,65.42,315.14,318.42,98.83,65.94,314.34,318.41,1.0
2018-08-19 14:34:00,89.58314,39.11974,1006.789,274.04,86.3,34.8,-0.97,13.78,159.33,96.01,65.49,314.57,318.35,98.71,65.98,314.41,318.36,1.0
2018-08-19 14:34:00,89.58314,39.11964,1006.804,274.04,86.3,34.7,-0.75,13.47,158.32,97.32,65.36,314.48,318.45,98.51,66.02,314.54,318.34,1.0
2018-08-19 14:34:00,89.58314,39.11954,1006.759,274.04,86.3,35.0,-1.3,13.54,157.15,97.38,65.56,314.57,318.16,98.24,66.05,314.6,318.3,1.0
2018-08-19 14:34:00,89.58314,39.11944,1006.762,274.05,86.3,35.0,-1.53,13.11,155.91,95.48,65.49,314.57,318.45,97.92,66.07,314.68,318.21,1.0
2018-08-19 14:34:00,89.58314,39.11934,1006.752,274.05,86.3,35.1,-1.05,12.74,154.38,97.32,65.49,314.95,318.35,97.59,66.08,314.68,318.11,1.0
2018-08-19 14:34:00,89.58314,39.11924,1006.765,274.05,86.3,35.0,-0.9,12.61,152.79,96.79,65.49,314.57,318.26,97.25,66.09,314.71,318.07,1.0
2018-08-19 14:34:00,89.58314,39.11914,1006.792,274.05,86.3,34.8,-0.72,12.41,151.16,97.12,65.36,314.47,318.55,96.93,66.09,314.76,318.09,1.0
2018-08-19 14:34:00,89.58314,39.11904,1006.78,274.05,86.3,34.9,0.07,11.78,149.38,96.6,65.56,314.83,318.58,96.63,66.07,314.78,318.12,1.0
2018-08-19 14:34:00,89.58313,39.11895,1006.739,274.06,86.3,35.2,-0.48,11.78,147.71,96.99,65.49,315.39,317.95,96.34,66.04,314.75,318.16,1.0
2018-08-19 14:34:00,89.58313,39.11885,1006.68,274.05,86.3,35.7,-1.06,11.28,145.91,96.4,65.63,315.25,317.76,96.06,65.99,314.7,318.2,1.0
2018-08-19 14:34:00,89.58313,39.11875,1006.678,274.05,86.3,35.7,-1.58,10.99,144.05,97.58,65.56,314.85,318.28,95.79,65.91,314.64,318.24,1.0
2018-08-19 14:34:00,89.58313,39.11866,1006.701,274.05,86.3,35.5,-2.13,10.64,142.26,96.6,65.56,314.74,318.35,95.51,65.81,314.57,318.29,1.0
2018-08-19 14:34:00,89.58313,39.11856,1006.691,274.05,86.3,35.6,-2.58,10.03,140.58,96.27,65.49,314.83,318.35,95.24,65.69,314.53,318.33,1.0
2018-08-19 14:34:00,89.58313,39.11847,1006.685,274.05,86.3,35.6,-2.31,9.52,138.98,96.99,65.7,314.76,318.26,94.97,65.56,314.49,318.38,1.0
2018-08-19 14:34:00,89.58313,39.11837,1006.664,274.04,86.3,35.8,-2.66,9.36,137.57,96.27,65.63,314.39,318.47,94.72,65.44,314.44,318.51,1.0
2018-08-19 14:34:00,89.58313,39.11828,1006.667,274.04,86.3,35.8,-1.94,9.03,136.06,96.34,65.49,314.74,318.17,94.51,65.33,314.4,318.62,1.0
2018-08-19 14:34:00,89.58313,39.11818,1006.688,274.04,86.3,35.6,-1.4,8.89,134.54,97.06,65.7,314.56,318.16,94.38,65.25,314.44,318.61,1.0
2018-08-19 14:34:00,89.58313,39.11809,1006.705,274.04,86.3,35.5,-1.51,8.86,133.12,96.47,65.56,314.56,318.26,94.34,65.21,314.54,318.51,1.0
2018-08-19 14:34:00,89.58313,39.11799,1006.687,274.04,86.3,35.6,-1.91,8.58,131.76,96.79,65.7,314.57,318.44,94.42,65.21,314.61,318.38,1.0
2018-08-19 14:34:00,89.58313,39.1179,1006.625,274.04,86.3,36.1,-1.87,8.52,130.33,96.66,65.42,314.57,319.41,94.63,65.26,314.59,318.23,1.0
2018-08-19 14:34:00,89.58313,39.1178,1006.611,274.04,86.3,36.2,-2.64,8.68,129.09,95.55,65.49,314.76,318.96,94.99,65.33,314.54,318.06,1.0
2018-08-19 14:34:00,89.58313,39.11771,1006.616,274.04,86.3,36.2,-2.51,8.56,127.96,96.47,65.49,315.18,318.62,95.46,65.42,314.46,317.88,1.0
2018-08-19 14:34:00,89.58313,39.11761,1006.613,274.03,86.3,36.2,-2.35,8.63,126.98,96.07,65.36,315.62,317.9,96.01,65.51,314.37,317.73,1.0
2018-08-19 14:34:00,89.58313,39.11754,1006.578,274.03,86.3,36.5,-3.16,9.28,126.18,95.88,65.49,315.25,318.07,96.59,65.58,314.27,317.62,1.0
2018-08-19 14:34:00,89.58313,39.1175,1006.585,274.03,86.3,36.4,-3.0,9.17,125.6,96.99,65.56,314.3,318.06,97.14,65.61,314.18,317.56,1.0
2018-08-19 14:34:00,89.58313,39.11746,1006.601,274.03,86.3,36.3,-2.96,9.68,125.04,95.94,65.56,314.47,318.16,97.6,65.61,314.12,317.51,1.0
2018-08-19 14:34:00,89.58313,39.11742,1006.593,274.02,86.3,36.4,-3.24,10.16,124.66,95.88,65.49,314.57,318.53,97.91,65.58,314.1,317.55,1.0
2018-08-19 14:34:00,89.58313,39.11739,1006.563,274.02,86.3,36.6,-3.41,10.57,124.46,96.27,65.56,314.47,318.54,98.06,65.51,313.99,317.63,1.0
2018-08-19 14:34:00,89.58313,39.11735,1006.524,274.02,86.3,36.9,-3.34,10.94,124.45,95.22,65.63,314.46,318.73,98.02,65.44,313.84,317.74,1.0
2018-08-19 14:34:00,89.58314,39.11731,1006.52,274.02,86.3,36.9,-3.31,11.39,124.53,97.19,65.49,314.54,318.42,97.8,65.37,313.86,317.9,1.0
2018-08-19 14:34:00,89.58314,39.11727,1006.535,274.02,86.3,36.8,-2.89,11.59,124.55,96.79,65.7,314.46,318.33,97.44,65.32,314.0,318.03,1.0
2018-08-19 14:34:00,89.58314,39.11724,1006.522,274.02,86.3,36.9,-2.82,12.27,124.65,97.64,65.49,314.46,318.14,96.99,65.32,314.15,318.02,1.0
2018-08-19 14:34:00,89.58314,39.1172,1006.496,274.02,86.3,37.1,-2.88,12.57,124.94,96.86,65.63,313.76,317.7,96.52,65.37,314.28,318.02,1.0
2018-08-19 14:34:00,89.58314,39.11716,1006.477,274.02,86.3,37.3,-2.87,12.65,125.35,96.07,65.36,313.12,316.97,96.09,65.47,314.35,318.0,1.0
2018-08-19 14:34:00,89.58314,39.11712,1006.474,274.01,86.3,37.3,-2.76,13.04,125.77,96.66,65.49,314.22,317.64,95.77,65.61,314.39,317.84,1.0
2018-08-19 14:34:00,89.58314,39.11708,1006.424,274.0,86.3,37.7,-3.15,13.25,126.5,97.06,65.42,314.0,317.35,95.58,65.79,314.38,317.58,1.0
2018-08-19 14:34:00,89.58314,39.11705,1006.425,274.0,86.3,37.7,-2.18,12.77,127.44,95.68,65.42,314.29,316.31,95.56,65.98,314.34,317.39,1.0
2018-08-19 14:34:00,89.58314,39.11701,1006.408,274.0,86.3,37.8,-1.52,12.78,128.44,96.66,65.36,314.24,317.5,95.71,66.16,314.27,317.24,1.0
