Date/Time,Latitude,Longitude,PPPP [hPa],TTT grad [K],RH [%],Height [m],Pitch [deg],Roll [deg],Yaw [deg],SWD [W/m**2] (raw),SWU [W/m**2] (raw),LWD [W/m**2] (raw),LWU [W/m**2] (raw),SWD [W/m**2] (corrected),SWU [W/m**2] (corrected),LWD [W/m**2] (corrected),LWU [W/m**2] (corrected),Flag
2018-08-19 15:04:00,89.58275,37.64998,906.382,271.45,79.9,865.8,13.72,0.8,134.43,173.23,112.63,297.33,309.27,173.35,113.16,297.16,308.86,0.0
2018-08-19 15:04:00,89.58275,37.64998,906.412,271.46,79.9,865.5,13.39,0.77,134.51,171.73,112.42,297.33,309.27,173.76,113.16,297.19,308.96,0.0
2018-08-19 15:04:00,89.58275,37.64998,906.456,271.46,79.9,865.1,13.22,0.83,134.42,172.45,112.42,297.43,309.27,174.18,113.11,297.24,309.1,0.0
2018-08-19 15:04:00,89.58275,37.64998,906.448,271.46,79.9,865.2,12.97,0.84,134.26,172.25,112.56,297.43,309.47,174.57,113.03,297.32,309.26,0.0
2018-08-19 15:04:00,89.58275,37.64999,906.386,271.45,79.9,865.7,12.69,0.75,134.11,172.45,112.49,297.33,309.47,174.88,112.92,297.42,309.41,0.0
2018-08-19 15:04:00,89.58275,37.64999,906.434,271.45,79.9,865.3,12.79,0.71,134.0,174.15,112.56,297.61,309.08,175.05,112.8,297.5,309.52,0.0
2018-08-19 15:04:00,89.58275,37.64999,906.443,271.45,79.9,865.2,13.57,0.69,133.72,172.97,112.63,297.42,309.27,175.04,112.69,297.55,309.57,0.0
2018-08-19 15:04:00,89.58275,37.65,906.399,271.45,79.9,865.6,14.41,0.76,133.54,172.45,112.7,297.33,309.08,174.84,112.6,297.56,309.54,0.0
2018-08-19 15:04:00,89.58275,37.65,906.397,271.45,79.9,865.6,14.68,0.82,133.5,172.38,112.56,297.42,309.18,174.44,112.53,297.52,309.44,0.0
2018-08-19 15:04:00,89.58275,37.65,906.438,271.45,79.9,865.3,14.67,0.87,133.52,173.95,112.56,297.61,309.37,173.9,112.49,297.43,309.28,0.0
2018-08-19 15:04:00,89.58275,37.65,906.431,271.46,79.9,865.3,14.99,0.98,133.49,173.56,112.63,297.14,309.28,173.25,112.47,297.3,309.07,0.0
2018-08-19 15:04:00,89.58275,37.65001,906.421,271.45,79.9,865.4,15.4,1.02,133.37,173.04,112.35,297.24,308.98,172.58,112.47,297.14,308.84,0.0
2018-08-19 15:04:00,89.58275,37.65001,906.4,271.45,79.9,865.6,13.89,1.05,133.19,173.36,112.63,297.33,309.08,171.96,112.46,296.98,308.65,0.0
2018-08-19 15:04:00,89.58275,37.65001,906.394,271.45,79.9,865.6,12.31,1.07,133.03,174.02,112.56,297.14,308.98,171.47,112.44,296.84,308.52,0.0
2018-08-19 15:04:00,89.58275,37.65002,906.408,271.45,80.0,865.5,11.03,1.06,132.83,171.47,112.42,297.33,308.98,171.15,112.4,296.74,308.46,0.0
2018-08-19 15:04:00,89.58275,37.65002,906.431,271.45,80.0,865.3,9.99,1.0,132.51,173.1,112.56,297.25,309.29,171.04,112.34,296.69,308.47,0.0
2018-08-19 15:04:00,89.58275,37.65002,906.462,271.45,80.0,865.1,9.08,0.96,132.12,173.3,112.56,297.24,309.05,171.14,112.25,296.68,308.54,0.0
2018-08-19 15:04:00,89.58275,37.65002,906.474,271.45,80.0,865.0,9.71,0.9,132.06,173.04,112.63,297.14,309.02,171.4,112.15,296.65,308.59,0.0
2018-08-19 15:04:00,89.58275,37.65003,906.454,271.45,80.0,865.1,9.51,0.85,132.16,172.64,112.56,297.24,309.08,171.79,112.06,296.75,308.75,0.0
2018-08-19 15:04:00,89.58275,37.65003,906.441,271.45,80.0,865.2,9.78,0.87,132.39,172.06,112.56,297.33,309.18,172.23,111.98,296.88,308.9,0.0
2018-08-19 15:04:00,89.58275,37.65004,906.453,271.45,80.0,865.1,10.51,0.93,132.68,172.84,112.42,297.42,309.27,172.67,111.93,297.0,309.01,0.0
2018-08-19 15:04:00,89.58275,37.65004,906.454,271.45,80.0,865.1,10.55,0.92,132.96,172.51,112.63,297.27,309.14,173.04,111.93,297.15,309.13,0.0
2018-08-19 15:04:00,89.58275,37.65004,906.433,271.45,80.0,865.3,10.33,0.96,133.17,173.43,112.42,296.12,308.07,173.32,111.98,297.27,309.21,0.0
2018-08-19 15:04:00,89.58275,37.65005,906.408,271.45,79.9,865.5,10.51,0.98,133.25,172.91,112.35,297.16,308.65,173.5,112.09,297.35,309.22,0.0
2018-08-19 15:04:00,89.58275,37.65005,906.392,271.45,79.9,865.7,10.63,1.0,133.3,172.58,112.63,296.89,308.86,173.57,112.24,297.4,309.17,0.0
2018-08-19 15:04:00,89.58275,37.65005,906.392,271.46,80.0,865.7,10.77,0.98,133.32,172.38,112.28,296.8,308.49,173.58,112.43,297.4,309.1,0.0
2018-08-19 15:04:00,89.58275,37.65005,906.407,271.45,80.0,865.5,11.21,0.87,133.34,172.97,112.42,296.84,308.8,173.54,112.64,297.36,309.02,0.0
2018-08-19 15:04:00,89.58275,37.65005,906.428,271.45,80.0,865.4,12.21,0.78,133.43,173.63,112.28,296.85,308.82,173.5,112.86,297.32,308.96,0.0
2018-08-19 15:04:00,89.58275,37.65006,906.442,271.45,80.0,865.2,13.59,0.76,133.59,172.19,112.42,297.21,309.07,173.48,113.06,297.35,309.0,0.0
2018-08-19 15:04:00,89.58275,37.65006,906.449,271.45,80.0,865.2,14.86,0.72,133.85,173.23,112.35,297.36,309.17,173.48,113.23,297.3,308.99,0.0
2018-08-19 15:04:00,89.58275,37.65006,906.453,271.45,80.0,865.1,15.79,0.7,134.05,173.43,112.42,297.33,309.27,173.5,113.36,297.26,309.02,0.0
2018-08-19 15:04:00,89.58275,37.65006,906.45,271.45,80.0,865.2,16.33,0.7,134.12,173.04,112.63,297.32,309.26,173.52,113.45,297.25,309.09,0.0
2018-08-19 15:04:00,89.58275,37.65006,906.422,271.46,80.0,865.4,16.66,0.67,134.17,172.38,112.63,297.41,309.08,173.5,113.49,297.25,309.15,0.0
2018-08-19 15:04:00,89.58275,37.65006,906.423,271.45,80.0,865.4,16.26,0.72,134.42,172.25,112.56,297.22,309.36,173.4,113.48,297.26,309.21,0.0
2018-08-19 15:04:00,89.58275,37.65006,906.412,271.45,80.0,865.5,15.34,0.57,134.65,173.36,112.63,297.41,308.97,173.22,113.43,297.29,309.28,0.0
2018-08-19 15:04:00,89.58275,37.65006,906.431,271.45,80.0,865.3,14.72,0.46,134.78,172.58,112.7,297.22,309.26,172.93,113.34,297.34,309.33,0.0
2018-08-19 15:04:00,89.58275,37.65006,906.469,271.45,80.0,865.0,14.43,0.41,134.94,173.43,112.56,297.41,309.26,172.56,113.22,297.4,309.37,0.0
2018-08-19 15:04:00,89.58275,37.65006,906.466,271.45,80.0,865.0,14.21,0.37,135.32,174.15,112.77,297.59,309.26,172.14,113.09,297.47,309.39,0.0
2018-08-19 15:04:00,89.58275,37.65006,906.478,271.45,80.0,864.9,13.86,0.4,135.75,172.06,112.56,297.31,309.07,171.71,112.94,297.53,309.4,0.0
2018-08-19 15:04:00,89.58275,37.65006,906.464,271.46,80.0,865.0,14.19,0.21,135.85,173.17,112.63,297.13,309.26,171.35,112.8,297.59,309.4,0.0
2018-08-19 15:04:00,89.58275,37.65005,906.456,271.46,80.0,865.1,13.89,0.24,135.73,172.97,112.63,297.41,309.26,171.1,112.68,297.63,309.39,0.0
2018-08-19 15:04:00,89.58275,37.65005,906.444,271.45,80.0,865.2,12.92,0.27,135.57,172.84,112.63,297.5,308.97,171.01,112.57,297.65,309.38,0.0
2018-08-19 15:04:00,89.58275,37.65005,906.421,271.45,80.0,865.4,11.9,0.24,135.48,173.43,112.63,297.22,309.36,171.12,112.5,297.66,309.36,0.0
2018-08-19 15:04:00,89.58275,37.65005,906.461,271.45,80.0,865.1,12.1,0.49,135.43,172.58,112.77,297.5,309.26,171.4,112.47,297.63,309.33,0.0
2018-08-19 15:04:00,89.58275,37.65005,906.474,271.45,80.0,865.0,12.03,0.41,135.28,171.99,112.84,297.22,309.07,171.84,112.47,297.59,309.28,0.0
2018-08-19 15:04:00,89.58275,37.65004,906.488,271.45,80.0,864.8,12.65,0.37,135.1,172.58,112.56,297.31,309.06,172.37,112.52,297.52,309.23,0.0
2018-08-19 15:04:00,89.58275,37.65004,906.468,271.45,80.0,865.0,13.02,0.32,134.98,172.64,112.7,297.03,309.06,172.92,112.59,297.45,309.17,0.0
2018-08-19 15:04:00,89.58275,37.65004,906.423,271.45,80.0,865.4,13.23,0.26,134.96,172.97,112.56,297.32,309.07,173.43,112.68,297.37,309.1,0.0
2018-08-19 15:04:00,89.58275,37.65004,906.46,271.45,80.0,865.1,14.09,0.24,134.95,172.32,112.77,297.33,309.07,173.82,112.78,297.3,309.03,0.0
2018-08-19 15:04:00,89.58275,37.65004,906.457,271.44,80.0,865.1,13.88,0.3,134.92,171.47,112.49,297.04,309.07,174.04,112.88,297.25,308.98,0.0
2018-08-19 15:04:00,89.58275,37.65003,906.458,271.45,80.0,865.1,13.69,0.35,134.98,172.78,112.35,296.85,308.97,174.08,112.95,297.23,308.95,0.0
2018-08-19 15:04:00,89.58275,37.65003,906.461,271.45,80.0,865.1,13.15,0.39,134.97,173.82,112.7,297.31,309.25,173.93,113.0,297.24,308.95,0.0
2018-08-19 15:04:00,89.58275,37.65002,906.451,271.45,80.0,865.2,12.62,0.4,134.91,173.5,112.63,297.5,309.05,173.64,113.01,297.29,308.99,0.0
2018-08-19 15:04:00,89.58275,37.65002,906.416,271.45,80.0,865.5,12.55,0.38,134.85,173.04,112.84,297.5,309.34,173.26,113.0,297.37,309.07,0.0
2018-08-19 15:04:00,89.58275,37.65001,906.435,271.45,80.0,865.3,12.89,0.36,134.73,173.5,112.63,297.5,309.15,172.87,112.96,297.46,309.18,0.0
2018-08-19 15:04:00,89.58275,37.65001,906.429,271.44,80.0,865.3,13.16,0.41,134.7,172.64,112.84,297.5,309.24,172.53,112.91,297.56,309.3,0.0
2018-08-19 15:04:00,89.58275,37.65,906.437,271.44,80.0,865.3,13.32,0.49,134.64,172.19,112.63,297.31,309.34,172.29,112.86,297.64,309.42,0.0
2018-08-19 15:04:00,89.58275,37.65,906.452,271.44,80.0,865.1,13.37,0.48,134.56,172.12,112.77,297.41,309.15,172.2,112.83,297.7,309.51,0.0
2018-08-19 15:04:00,89.58275,37.64999,906.459,271.45,80.0,865.1,13.75,0.41,134.48,173.36,112.77,297.41,309.24,172.25,112.82,297.72,309.57,0.0
2018-08-19 15:04:00,89.58275,37.64999,906.461,271.45,80.0,865.1,15.39,0.48,134.48,172.64,112.84,297.5,309.15,172.43,112.83,297.69,309.57,0.0
2018-08-19 15:04:00,89.58275,37.64998,906.422,271.44,80.0,865.4,16.72,0.53,134.53,172.78,112.63,297.22,309.24,172.69,112.87,297.63,309.52,0.0
2018-08-19 15:04:00,89.58275,37.64998,906.437,271.45,80.0,865.3,16.84,0.49,134.6,172.84,112.7,297.58,308.96,172.98,112.92,297.53,309.43,0.0
2018-08-19 15:04:00,89.58275,37.64998,906.437,271.45,80.0,865.3,16.47,0.51,134.4,172.84,112.49,297.4,309.35,173.21,112.98,297.41,309.3,0.0
2018-08-19 15:04:00,89.58275,37.64997,906.403,271.44,80.0,865.6,16.01,0.54,134.01,173.82,112.63,297.12,308.86,173.35,113.02,297.29,309.15,0.0
2018-08-19 15:04:00,89.58275,37.64997,906.421,271.45,80.0,865.4,15.65,0.47,133.69,171.86,112.77,297.31,308.97,173.36,113.04,297.18,309.02,0.0
2018-08-19 15:04:00,89.58275,37.64996,906.456,271.44,80.0,865.1,15.13,0.47,133.67,172.71,112.7,297.39,309.16,173.2,113.04,297.1,308.92,0.0
2018-08-19 15:04:00,89.58275,37.64996,906.476,271.44,80.0,864.9,15.77,0.59,133.46,172.84,112.84,297.39,309.25,172.91,113.0,297.06,308.86,0.0
2018-08-19 15:04:00,89.58275,37.64996,906.473,271.44,80.0,865.0,15.95,0.71,133.27,172.64,112.77,297.48,309.24,172.51,112.93,297.05,308.86,0.0
2018-08-19 15:04:00,89.58275,37.64995,906.455,271.44,80.0,865.1,15.32,0.78,133.06,172.51,112.7,297.4,309.25,172.07,112.85,297.07,308.9,0.0
2018-08-19 15:04:00,89.58275,37.64995,906.437,271.45,80.0,865.3,14.01,0.73,132.78,173.23,112.97,297.31,309.45,171.63,112.77,297.12,309.0,0.0
2018-08-19 15:04:00,89.58275,37.64995,906.437,271.44,80.0,865.3,12.38,0.59,132.35,173.95,112.84,297.39,309.07,171.28,112.69,297.19,309.14,0.0
2018-08-19 15:04:00,89.58275,37.64994,906.44,271.44,80.0,865.2,10.44,0.64,131.7,172.84,112.84,297.31,309.26,171.05,112.65,297.24,309.26,0.0
2018-08-19 15:04:00,89.58275,37.64994,906.456,271.44,80.0,865.1,9.26,0.61,131.35,172.64,112.63,297.4,309.15,170.99,112.63,297.28,309.35,0.0
2018-08-19 15:04:00,89.58275,37.64994,906.464,271.44,80.0,865.0,8.45,0.57,131.07,172.64,112.84,297.4,309.44,171.09,112.66,297.3,309.42,0.0
2018-08-19 15:04:00,89.58275,37.64993,906.45,271.44,80.0,865.2,8.16,0.53,130.78,172.45,112.77,297.43,309.53,171.33,112.71,297.31,309.45,0.0
2018-08-19 15:04:00,89.58275,37.64993,906.431,271.45,80.0,865.3,9.0,0.38,130.47,172.06,112.56,297.43,309.38,171.68,112.78,297.29,309.43,0.0
2018-08-19 15:04:00,89.58275,37.64993,906.449,271.44,80.0,865.2,11.16,0.49,130.36,172.38,112.63,297.04,309.0,172.09,112.86,297.27,309.37,0.0
2018-08-19 15:04:00,89.58275,37.64992,906.442,271.45,80.0,865.2,12.21,0.33,130.51,172.12,112.63,297.11,308.77,172.49,112.94,297.26,309.29,0.0
2018-08-19 15:04:00,89.58275,37.64992,906.445,271.45,80.0,865.2,13.2,0.38,130.58,172.38,112.77,297.2,309.15,172.83,112.99,297.25,309.21,0.0
2018-08-19 15:04:00,89.58275,37.64992,906.466,271.45,80.1,865.0,14.24,0.55,130.49,173.3,112.77,297.39,309.15,173.08,113.02,297.27,309.12,0.0
2018-08-19 15:04:00,89.58275,37.64992,906.476,271.45,80.1,864.9,14.78,0.56,130.35,172.45,112.77,297.21,309.34,173.21,113.01,297.28,309.04,0.0
2018-08-19 15:04:00,89.58275,37.64992,906.461,271.45,80.1,865.1,13.9,0.66,130.43,172.38,112.97,297.31,308.95,173.23,112.99,297.26,308.91,0.0
2018-08-19 15:04:00,89.58275,37.64992,906.459,271.45,80.1,865.1,13.27,0.63,130.48,172.64,112.97,297.4,309.05,173.15,112.94,297.31,308.89,0.0
2018-08-19 15:04:00,89.58275,37.64992,906.465,271.45,80.1,865.0,11.58,0.58,130.21,173.1,112.77,297.39,309.34,173.02,112.89,297.37,308.9,0.0
2018-08-19 15:04:00,89.58275,37.64992,906.469,271.45,80.1,865.0,9.28,0.5,129.85,172.71,112.84,297.39,309.14,172.88,112.84,297.42,308.94,0.0
2018-08-19 15:04:00,89.58275,37.64993,906.466,271.45,80.1,865.0,6.86,0.41,129.57,172.58,112.7,297.23,308.98,172.76,112.8,297.45,308.99,0.0
2018-08-19 15:04:00,89.58275,37.64992,906.495,271.45,80.1,864.8,4.44,0.33,129.27,173.04,112.63,296.54,308.56,172.72,112.78,297.47,309.03,0.0
2018-08-19 15:04:00,89.58275,37.64992,906.475,271.45,80.1,864.9,4.71,0.27,129.2,172.06,112.7,296.92,309.14,172.76,112.78,297.46,309.08,0.0
2018-08-19 15:04:00,89.58275,37.64991,906.455,271.45,80.1,865.1,5.8,0.33,129.36,172.91,112.84,297.39,308.95,172.88,112.79,297.43,309.11,0.0
2018-08-19 15:04:00,89.58275,37.64991,906.439,271.45,80.1,865.3,6.93,0.38,129.67,171.86,112.9,297.39,309.33,173.08,112.82,297.4,309.13,0.0
2018-08-19 15:04:00,89.58275,37.6499,906.43,271.45,80.1,865.3,7.83,0.39,130.01,173.43,112.63,297.2,309.04,173.32,112.86,297.36,309.14,0.0
2018-08-19 15:04:00,89.58275,37.6499,906.444,271.45,80.1,865.2,8.59,0.43,130.23,172.19,112.84,297.3,309.34,173.56,112.9,297.34,309.14,0.0
2018-08-19 15:04:00,89.58275,37.64989,906.483,271.45,80.1,864.9,8.54,0.48,130.48,172.58,112.77,297.58,309.34,173.76,112.94,297.38,309.13,0.0
2018-08-19 15:04:00,89.58275,37.64989,906.476,271.45,80.1,864.9,8.08,0.46,130.69,172.84,112.9,297.39,309.05,173.88,112.99,297.39,309.13,0.0
2018-08-19 15:04:00,89.58275,37.64988,906.452,271.45,80.1,865.1,8.04,0.51,130.77,173.43,112.84,297.39,309.05,173.89,113.04,297.39,309.12,0.0
2018-08-19 15:04:00,89.58275,37.64988,906.437,271.45,80.1,865.3,8.04,0.51,130.85,172.25,112.7,297.67,309.05,173.78,113.11,297.4,309.12,0.0
2018-08-19 15:04:00,89.58275,37.64987,906.446,271.45,80.1,865.2,7.65,0.39,131.03,171.79,112.84,297.2,309.38,173.55,113.18,297.41,309.12,0.0
2018-08-19 15:04:00,89.58275,37.64987,906.456,271.45,80.1,865.1,6.98,0.32,131.26,173.89,112.84,297.48,308.3,173.21,113.26,297.41,309.11,0.0
2018-08-19 15:04:00,89.58275,37.64986,906.463,271.45,80.1,865.0,6.25,0.23,131.33,172.58,112.97,297.3,308.82,172.79,113.35,297.4,309.09,0.0
2018-08-19 15:04:00,89.58275,37.64986,906.468,271.45,80.1,865.0,4.94,0.26,131.43,173.95,112.63,297.39,309.05,172.34,113.43,297.37,309.07,0.0
2018-08-19 15:04:00,89.58275,37.64986,906.469,271.45,80.1,865.0,3.63,0.31,131.71,172.97,112.9,297.3,309.34,171.88,113.49,297.31,309.04,0.0
2018-08-19 15:04:00,89.58275,37.64985,906.469,271.45,80.1,865.0,3.01,0.34,132.11,172.84,112.77,297.3,309.24,171.44,113.53,297.25,309.0,0.0
2018-08-19 15:04:00,89.58275,37.64985,906.489,271.45,80.1,864.8,3.98,0.41,132.24,172.19,112.77,297.29,308.95,171.07,113.52,297.18,308.98,0.0
2018-08-19 15:04:00,89.58275,37.64985,906.472,271.45,80.1,865.0,5.71,0.46,132.45,172.32,112.97,297.3,308.94,170.76,113.47,297.11,309.03,0.0
2018-08-19 15:04:00,89.58275,37.64985,906.467,271.46,80.1,865.0,6.49,0.52,132.81,173.23,112.97,297.39,309.23,170.55,113.37,297.06,309.03,0.0
2018-08-19 15:04:00,89.58275,37.64984,906.463,271.46,80.1,865.1,6.9,0.51,133.07,171.66,113.11,297.48,309.14,170.42,113.23,297.03,309.03,0.0
2018-08-19 15:04:00,89.58275,37.64984,906.448,271.46,80.1,865.2,7.38,0.45,133.18,172.84,112.84,297.39,309.14,170.39,113.07,297.03,309.06,0.0
2018-08-19 15:04:00,89.58275,37.64984,906.434,271.45,80.1,865.3,7.98,0.42,133.16,172.97,112.97,297.3,309.23,170.44,112.89,297.05,309.11,0.0
2018-08-19 15:04:00,89.58275,37.64984,906.499,271.46,80.1,864.7,7.94,0.28,133.05,172.97,113.04,297.2,309.23,170.58,112.73,297.11,309.16,0.0
2018-08-19 15:04:00,89.58275,37.64984,906.505,271.45,80.1,864.7,8.71,0.37,133.03,172.84,113.04,297.29,309.24,170.78,112.59,297.18,309.21,0.0
2018-08-19 15:04:00,89.58275,37.64983,906.5,271.45,80.1,864.7,9.02,0.41,133.08,171.66,112.97,297.2,309.13,171.05,112.5,297.26,309.24,0.0
2018-08-19 15:04:00,89.58275,37.64983,906.492,271.45,80.1,864.8,9.3,0.45,132.98,172.64,112.97,297.39,309.31,171.37,112.45,297.35,309.28,0.0
2018-08-19 15:04:00,89.58275,37.64983,906.476,271.45,80.1,864.9,9.71,0.56,132.68,171.79,112.97,297.49,309.31,171.73,112.46,297.41,309.3,0.0
2018-08-19 15:04:00,89.58275,37.64983,906.47,271.45,80.1,865.0,9.29,0.71,132.59,172.06,112.7,297.29,309.04,172.1,112.51,297.46,309.31,0.0
2018-08-19 15:04:00,89.58275,37.64983,906.463,271.45,80.1,865.0,8.0,0.63,132.5,171.86,112.84,297.2,309.41,172.47,112.6,297.48,309.3,0.0
2018-08-19 15:04:00,89.58275,37.64982,906.467,271.46,80.1,865.0,6.81,0.67,132.19,171.86,112.77,297.27,309.09,172.82,112.69,297.48,309.27,0.0
2018-08-19 15:04:00,89.58275,37.64982,906.469,271.46,80.1,865.0,5.6,0.63,131.96,172.58,112.63,297.16,308.55,173.1,112.78,297.45,309.23,0.0
2018-08-19 15:04:00,89.58275,37.64982,906.467,271.45,80.1,865.0,4.57,0.52,131.91,172.78,112.84,297.3,309.04,173.32,112.86,297.4,309.17,0.0
2018-08-19 15:04:00,89.58275,37.64982,906.482,271.45,80.1,864.9,4.19,0.57,131.92,172.78,113.04,297.21,309.23,173.44,112.91,297.36,309.12,0.0
2018-08-19 15:04:00,89.58275,37.64981,906.428,271.45,80.1,865.4,5.03,0.55,132.01,172.64,112.97,297.21,309.22,173.48,112.94,297.37,309.19,0.0
2018-08-19 15:04:00,89.58275,37.64981,906.429,271.45,80.2,865.3,5.64,0.56,132.15,172.38,112.97,297.38,309.22,173.43,112.94,297.33,309.16,0.0
2018-08-19 15:04:00,89.58275,37.64981,906.453,271.45,80.2,865.1,6.46,0.58,132.34,172.25,113.04,297.39,309.03,173.31,112.93,297.29,309.13,0.0
2018-08-19 15:04:00,89.58275,37.64981,906.457,271.45,80.2,865.1,7.25,0.61,132.49,172.06,112.84,297.39,309.03,173.17,112.92,297.28,309.11,0.0
2018-08-19 15:04:00,89.58275,37.64981,906.417,271.45,80.2,865.5,7.76,0.67,132.54,172.12,112.9,297.5,309.46,173.03,112.92,297.3,309.12,0.0
2018-08-19 15:04:00,89.58275,37.64981,906.498,271.45,80.2,864.8,8.53,0.69,132.52,172.38,112.56,297.74,310.66,172.92,112.93,297.38,309.26,0.0
2018-08-19 15:04:00,89.58275,37.64981,906.503,271.45,80.2,864.7,8.7,0.67,132.49,173.23,112.97,297.69,309.29,172.88,112.97,297.43,309.29,0.0
2018-08-19 15:04:00,89.58275,37.64981,906.485,271.45,80.2,864.9,8.24,0.7,132.26,172.45,112.84,297.2,309.31,172.92,113.02,297.49,309.32,0.0
2018-08-19 15:04:00,89.58275,37.64981,906.464,271.45,80.2,865.0,7.36,0.71,132.01,172.78,112.9,297.58,309.31,173.05,113.09,297.54,309.35,0.0
2018-08-19 15:04:00,89.58275,37.64981,906.45,271.45,80.2,865.2,6.23,0.69,131.85,172.58,112.84,297.53,309.38,173.24,113.17,297.58,309.4,0.0
2018-08-19 15:04:00,89.58275,37.64981,906.438,271.45,80.1,865.3,4.89,0.65,131.69,172.78,112.77,297.94,310.49,173.46,113.23,297.59,309.42,0.0
2018-08-19 15:04:00,89.58275,37.64981,906.471,271.45,80.2,865.0,6.57,0.58,131.87,171.6,112.97,297.48,309.23,173.68,113.28,297.54,309.35,0.0
2018-08-19 15:04:00,89.58275,37.64981,906.458,271.45,80.2,865.1,7.83,0.48,132.19,173.17,112.97,297.38,309.31,173.83,113.3,297.51,309.35,0.0
2018-08-19 15:04:00,89.58275,37.64981,906.456,271.45,80.2,865.1,8.8,0.46,132.46,172.25,112.97,297.38,309.22,173.88,113.3,297.47,309.37,0.0
2018-08-19 15:04:00,89.58275,37.64981,906.465,271.45,80.2,865.0,9.98,0.5,132.6,172.19,112.97,297.38,309.22,173.8,113.26,297.41,309.36,0.0
2018-08-19 15:04:00,89.58275,37.64981,906.419,271.45,80.2,865.4,11.71,0.54,132.62,173.1,113.04,297.19,309.03,173.56,113.2,297.33,309.31,0.0
2018-08-19 15:04:00,89.58275,37.64981,906.428,271.45,80.2,865.4,12.29,0.8,132.69,172.91,112.97,297.0,309.22,173.18,113.12,297.19,309.12,0.0
2018-08-19 15:04:00,89.58275,37.64982,906.454,271.45,80.2,865.1,11.07,0.79,132.47,173.1,112.84,297.27,308.92,172.67,113.03,297.11,309.04,0.0
2018-08-19 15:04:00,89.58275,37.64982,906.475,271.45,80.2,864.9,9.48,0.84,132.1,172.32,113.04,297.18,308.93,172.1,112.94,297.06,308.98,0.0
2018-08-19 15:04:00,89.58275,37.64982,906.478,271.45,80.2,864.9,8.14,0.85,131.72,172.38,112.77,297.38,308.93,171.51,112.85,297.03,308.93,0.0
2018-08-19 15:04:00,89.58275,37.64982,906.455,271.45,80.2,865.1,7.44,0.8,131.46,173.63,112.97,297.1,309.02,170.97,112.78,297.02,308.9,0.0
2018-08-19 15:04:00,89.58275,37.64982,906.423,271.45,80.2,865.4,7.62,0.84,131.39,173.56,112.97,297.28,309.02,170.53,112.73,297.05,308.89,0.0
2018-08-19 15:04:00,89.58275,37.64983,906.476,271.45,80.2,864.9,7.1,0.7,131.54,172.45,112.97,297.37,308.92,170.24,112.69,297.1,308.92,0.0
2018-08-19 15:04:00,89.58275,37.64983,906.49,271.45,80.2,864.8,7.26,0.66,131.59,172.19,113.04,297.37,309.31,170.12,112.66,297.18,308.98,0.0
2018-08-19 15:04:00,89.58275,37.64984,906.466,271.45,80.2,865.0,7.81,0.65,131.49,171.86,112.9,297.37,309.12,170.16,112.66,297.27,309.11,0.0
2018-08-19 15:04:00,89.58275,37.64984,906.436,271.44,80.2,865.3,7.82,0.67,131.34,172.06,112.9,297.09,309.02,170.36,112.66,297.37,309.3,0.0
2018-08-19 15:04:00,89.58275,37.64985,906.45,271.45,80.2,865.2,6.43,0.75,131.29,172.64,112.97,297.38,309.12,170.67,112.68,297.45,309.46,0.0
2018-08-19 15:04:00,89.58275,37.64986,906.427,271.44,80.2,865.4,5.28,0.72,131.12,172.06,112.9,297.47,309.41,171.05,112.7,297.52,309.56,0.0
2018-08-19 15:04:00,89.58275,37.64986,906.446,271.44,80.2,865.2,5.45,0.8,130.96,172.25,112.97,297.38,309.32,171.46,112.74,297.58,309.65,0.0
2018-08-19 15:04:00,89.58275,37.64986,906.456,271.44,80.2,865.1,5.57,0.8,130.87,172.97,112.77,297.28,309.76,171.84,112.8,297.61,309.7,0.0
2018-08-19 15:04:00,89.58275,37.64987,906.441,271.45,80.2,865.2,5.4,0.76,130.86,172.06,112.84,297.08,309.6,172.15,112.86,297.62,309.73,0.0
2018-08-19 15:04:00,89.58275,37.64987,906.425,271.44,80.2,865.4,5.46,0.77,130.91,171.53,112.77,297.12,309.52,172.38,112.94,297.6,309.74,0.0
2018-08-19 15:04:00,89.58275,37.64988,906.446,271.45,80.2,865.2,7.41,0.79,131.03,172.25,112.97,297.38,309.02,172.52,113.02,297.58,309.7,0.0
2018-08-19 15:04:00,89.58275,37.64988,906.457,271.45,80.2,865.1,8.83,0.69,131.2,172.71,112.9,297.47,309.1,172.56,113.11,297.54,309.64,0.0
2018-08-19 15:04:00,89.58275,37.64988,906.438,271.45,80.2,865.3,9.24,0.54,131.55,171.86,112.97,297.28,309.21,172.52,113.2,297.51,309.59,0.0
2018-08-19 15:04:00,89.58275,37.64988,906.437,271.45,80.2,865.3,9.75,0.42,131.81,172.38,112.84,297.05,309.09,172.41,113.29,297.47,309.49,0.0
2018-08-19 15:04:00,89.58275,37.64989,906.492,271.45,80.2,864.8,10.89,0.38,131.84,172.58,112.9,297.1,309.05,172.26,113.36,297.44,309.39,0.0
2018-08-19 15:04:00,89.58275,37.64989,906.476,271.45,80.2,864.9,12.09,0.42,131.92,172.45,112.97,297.38,309.21,172.07,113.41,297.46,309.34,0.0
2018-08-19 15:04:00,89.58275,37.6499,906.47,271.45,80.2,865.0,11.32,0.46,132.2,171.73,113.04,297.38,309.21,171.87,113.45,297.46,309.37,0.0
2018-08-19 15:04:00,89.58275,37.6499,906.456,271.45,80.2,865.1,11.09,0.54,132.22,173.23,112.84,297.38,309.5,171.65,113.47,297.46,309.42,0.0
2018-08-19 15:04:00,89.58275,37.6499,906.443,271.45,80.2,865.2,10.62,0.52,132.11,172.19,113.04,297.56,309.21,171.43,113.47,297.48,309.47,0.0
2018-08-19 15:04:00,89.58275,37.64991,906.445,271.45,80.2,865.2,9.5,0.42,131.97,172.58,112.9,297.39,309.01,171.21,113.45,297.5,309.52,0.0
2018-08-19 15:04:00,89.58275,37.64991,906.473,271.45,80.2,865.0,7.76,0.31,131.89,170.48,112.97,297.68,309.21,171.01,113.43,297.53,309.54,0.0
2018-08-19 15:04:00,89.58275,37.64992,906.453,271.45,80.2,865.1,7.22,0.34,131.86,172.64,112.97,297.4,309.5,170.84,113.39,297.54,309.55,0.0
2018-08-19 15:04:00,89.58275,37.64992,906.472,271.45,80.2,865.0,7.39,0.27,131.82,173.04,112.97,297.47,309.01,170.72,113.36,297.55,309.52,0.0
2018-08-19 15:04:00,89.58275,37.64993,906.469,271.45,80.2,865.0,8.77,0.36,132.08,171.47,113.18,297.28,309.11,170.67,113.33,297.54,309.45,0.0
2018-08-19 15:04:00,89.58275,37.64993,906.461,271.45,80.2,865.1,10.85,0.44,132.55,171.66,112.97,297.38,309.21,170.7,113.29,297.53,309.35,0.0
2018-08-19 15:04:00,89.58275,37.64993,906.484,271.45,80.2,864.9,12.96,0.35,133.05,172.78,113.25,297.56,309.31,170.83,113.26,297.49,309.23,0.0
2018-08-19 15:04:00,89.58275,37.64994,906.439,271.44,80.2,865.3,14.53,0.39,133.52,172.91,112.9,297.38,309.21,171.08,113.24,297.42,309.11,0.0
2018-08-19 15:04:00,89.58275,37.64994,906.458,271.45,80.2,865.1,13.99,0.43,133.33,171.4,113.04,297.56,309.3,171.43,113.21,297.37,309.0,0.0
2018-08-19 15:04:00,89.58274,37.64995,906.47,271.45,80.2,865.0,12.85,0.41,133.14,171.79,113.04,297.28,309.6,171.86,113.18,297.31,308.91,0.0
2018-08-19 15:04:00,89.58274,37.64995,906.47,271.45,80.2,865.0,11.57,0.39,132.93,171.66,113.04,297.38,309.21,172.35,113.15,297.26,308.85,0.0
2018-08-19 15:04:00,89.58274,37.64996,906.466,271.44,80.2,865.0,10.01,0.4,132.64,171.6,113.04,297.38,309.21,172.85,113.12,297.21,308.84,0.0
2018-08-19 15:04:00,89.58274,37.64996,906.466,271.45,80.2,865.0,7.55,0.45,132.29,171.6,113.04,297.28,309.21,173.33,113.08,297.17,308.86,0.0
2018-08-19 15:04:00,89.58274,37.64996,906.489,271.44,80.2,864.8,5.11,0.4,132.01,172.45,113.11,297.18,309.3,173.73,113.05,297.14,308.91,0.0
2018-08-19 15:04:00,89.58274,37.64996,906.467,271.45,80.2,865.0,3.9,0.43,131.69,172.25,113.04,297.47,309.01,174.03,113.03,297.13,308.98,0.0
2018-08-19 15:04:00,89.58274,37.64996,906.445,271.45,80.2,865.2,4.12,0.42,131.61,171.86,113.18,297.27,309.21,174.19,113.01,297.13,309.05,0.0
2018-08-19 15:04:00,89.58274,37.64996,906.447,271.45,80.2,865.2,5.03,0.39,131.68,171.4,112.9,297.36,309.4,174.21,113.0,297.14,309.11,0.0
2018-08-19 15:04:00,89.58274,37.64996,906.476,271.45,80.2,864.9,5.79,0.41,131.65,171.99,113.04,297.19,309.21,174.1,113.02,297.16,309.13,0.0
2018-08-19 15:04:00,89.58274,37.64996,906.507,271.45,80.2,864.7,6.89,0.39,131.41,173.3,113.04,297.36,309.3,173.89,113.04,297.19,309.13,0.0
2018-08-19 15:04:00,89.58274,37.64996,906.5,271.45,80.2,864.7,6.98,0.35,131.11,172.71,113.18,297.45,309.01,173.6,113.08,297.21,309.17,0.0
2018-08-19 15:04:00,89.58274,37.64995,906.489,271.45,80.2,864.8,6.98,0.26,130.65,173.23,113.11,297.46,309.2,173.29,113.13,297.23,309.13,0.0
2018-08-19 15:04:00,89.58274,37.64995,906.484,271.44,80.2,864.9,6.19,0.2,130.13,172.12,112.97,297.27,308.71,172.98,113.19,297.25,309.05,0.0
2018-08-19 15:04:00,89.58274,37.64995,906.485,271.44,80.3,864.9,4.9,0.23,129.68,172.45,113.04,297.18,308.8,172.73,113.25,297.26,308.96,0.0
2018-08-19 15:04:00,89.58274,37.64995,906.49,271.45,80.2,864.8,5.55,0.29,129.52,171.66,112.97,297.36,309.14,172.55,113.3,297.27,308.9,0.0
2018-08-19 15:04:00,89.58274,37.64995,906.471,271.45,80.2,865.0,6.34,0.25,129.63,171.27,113.04,297.18,309.87,172.45,113.33,297.28,308.86,0.0
2018-08-19 15:04:00,89.58274,37.64995,906.471,271.45,80.2,865.0,6.38,0.3,129.77,173.17,112.97,297.28,309.54,172.43,113.36,297.29,308.87,0.0
2018-08-19 15:04:00,89.58274,37.64995,906.473,271.45,80.2,865.0,6.69,0.34,129.92,172.84,113.18,297.27,309.29,172.47,113.37,297.31,308.91,0.0
2018-08-19 15:04:00,89.58274,37.64994,906.464,271.45,80.2,865.0,7.34,0.34,130.07,172.25,113.11,297.27,308.99,172.55,113.36,297.32,309.0,0.0
2018-08-19 15:04:00,89.58274,37.64994,906.45,271.45,80.2,865.2,7.82,0.29,130.27,171.92,113.18,297.27,308.99,172.61,113.35,297.34,309.11,0.0
2018-08-19 15:04:00,89.58274,37.64994,906.455,271.45,80.2,865.1,8.41,0.22,130.42,172.45,113.18,297.36,309.2,172.64,113.33,297.35,309.22,0.0
2018-08-19 15:04:00,89.58274,37.64994,906.422,271.45,80.2,865.4,7.97,0.19,130.26,173.23,112.97,297.36,309.2,172.61,113.31,297.36,309.25,0.0
2018-08-19 15:04:00,89.58274,37.64994,906.448,271.45,80.2,865.2,6.31,0.2,129.88,172.45,113.11,297.36,309.21,172.49,113.29,297.34,309.3,0.0
2018-08-19 15:04:00,89.58274,37.64993,906.497,271.45,80.2,864.8,4.69,0.25,129.57,171.92,113.11,297.27,309.2,172.29,113.29,297.32,309.34,0.0
2018-08-19 15:04:00,89.58274,37.64993,906.482,271.45,80.2,864.9,4.25,0.29,129.55,173.17,113.18,297.36,309.19,172.02,113.29,297.28,309.34,0.0
2018-08-19 15:04:00,89.58274,37.64993,906.494,271.45,80.2,864.8,4.94,0.23,129.79,171.79,113.18,297.27,309.19,171.71,113.29,297.23,309.3,0.0
2018-08-19 15:04:00,89.58274,37.64993,906.455,271.45,80.2,865.1,5.56,0.37,130.36,172.45,113.11,297.27,309.11,171.4,113.29,297.18,309.23,0.0
2018-08-19 15:04:00,89.58274,37.64992,906.466,271.45,80.2,865.0,7.11,0.38,130.88,171.79,113.04,297.36,309.01,171.14,113.29,297.13,309.14,0.0
2018-08-19 15:04:00,89.58274,37.64992,906.472,271.45,80.2,865.0,8.62,0.43,131.21,173.36,113.11,297.27,309.01,170.97,113.28,297.1,309.06,0.0
2018-08-19 15:04:00,89.58274,37.64992,906.438,271.44,80.2,865.3,9.39,0.51,131.36,172.06,113.25,297.27,309.2,170.92,113.25,297.09,308.99,0.0
2018-08-19 15:04:00,89.58274,37.64992,906.468,271.45,80.2,865.0,9.12,0.43,131.48,171.99,113.11,297.27,308.99,171.01,113.2,297.11,308.95,0.0
2018-08-19 15:04:00,89.58274,37.64991,906.53,271.45,80.2,864.5,8.0,0.38,131.1,172.19,113.04,297.44,308.98,171.26,113.14,297.15,308.96,0.0
2018-08-19 15:04:00,89.58274,37.64991,906.537,271.44,80.2,864.4,7.33,0.44,130.65,171.86,113.04,297.36,309.0,171.63,113.08,297.22,309.01,0.0
2018-08-19 15:04:00,89.58274,37.6499,906.528,271.44,80.2,864.5,6.54,0.47,130.25,172.78,113.39,297.27,309.21,172.1,113.01,297.33,309.08,0.0
2018-08-19 15:04:00,89.58274,37.64989,906.527,271.45,80.2,864.5,5.94,0.46,130.0,172.78,113.11,297.36,309.2,172.61,112.96,297.46,309.17,0.0
2018-08-19 15:04:00,89.58274,37.64988,906.526,271.45,80.2,864.5,6.15,0.47,129.88,172.19,113.25,297.45,309.29,173.1,112.92,297.51,309.27,0.0
2018-08-19 15:04:00,89.58274,37.64988,906.506,271.45,80.2,864.7,7.23,0.52,129.68,171.47,113.18,297.27,309.29,173.5,112.91,297.54,309.37,0.0
2018-08-19 15:04:00,89.58274,37.64987,906.472,271.45,80.2,865.0,7.88,0.52,129.54,172.19,113.25,297.28,309.21,173.77,112.93,297.55,309.44,0.0
2018-08-19 15:04:00,89.58274,37.64986,906.451,271.45,80.2,865.2,8.02,0.58,129.5,171.34,112.97,297.89,308.94,173.87,112.97,297.53,309.47,0.0
2018-08-19 15:04:00,89.58274,37.64986,906.469,271.44,80.2,865.0,8.35,0.59,129.53,171.73,112.84,297.61,308.8,173.77,113.04,297.48,309.47,0.0
2018-08-19 15:04:00,89.58274,37.64985,906.511,271.45,80.2,864.6,9.58,0.51,129.49,172.64,113.18,296.98,308.69,173.49,113.11,297.43,309.44,0.0
2018-08-19 15:04:00,89.58274,37.64985,906.511,271.45,80.2,864.6,10.48,0.59,129.49,173.82,112.97,297.24,309.19,173.05,113.17,297.38,309.38,0.0
2018-08-19 15:04:00,89.58274,37.64985,906.497,271.45,80.2,864.8,9.79,0.5,129.56,172.25,113.25,297.26,309.19,172.51,113.22,297.34,309.32,0.0
2018-08-19 15:04:00,89.58274,37.64985,906.503,271.45,80.3,864.7,10.43,0.48,129.56,172.84,113.18,297.17,309.09,171.92,113.25,297.33,309.26,0.0
2018-08-19 15:04:00,89.58274,37.64985,906.51,271.45,80.3,864.6,11.75,0.46,129.57,172.45,113.11,297.27,309.0,171.37,113.25,297.29,309.22,0.0
2018-08-19 15:04:00,89.58274,37.64985,906.503,271.45,80.3,864.7,12.5,0.44,129.62,172.97,113.11,297.27,309.2,170.9,113.23,297.27,309.21,0.0
2018-08-19 15:04:00,89.58274,37.64985,906.485,271.45,80.3,864.9,11.45,0.46,129.66,172.45,113.11,297.36,309.3,170.57,113.19,297.32,309.22,0.0
2018-08-19 15:04:00,89.58274,37.64985,906.491,271.45,80.3,864.8,10.68,0.45,129.72,172.12,113.18,297.27,309.19,170.4,113.13,297.37,309.24,0.0
2018-08-19 15:05:00,89.58274,37.64985,906.506,271.45,80.3,864.7,10.57,0.52,129.73,172.06,113.11,297.55,309.48,170.4,113.09,297.41,309.28,0.0
2018-08-19 15:05:00,89.58274,37.64985,906.518,271.45,80.3,864.6,9.96,0.53,129.98,171.4,113.25,297.45,309.19,170.55,113.06,297.43,309.33,0.0
2018-08-19 15:05:00,89.58274,37.64985,906.504,271.45,80.3,864.7,9.96,0.49,130.37,171.6,113.04,297.36,309.29,170.84,113.05,297.42,309.36,0.0
2018-08-19 15:05:00,89.58274,37.64985,906.454,271.45,80.3,865.1,11.54,0.41,130.78,172.71,113.18,297.26,309.0,171.21,113.08,297.38,309.37,0.0
2018-08-19 15:05:00,89.58274,37.64985,906.482,271.45,80.3,864.9,13.54,0.31,131.17,171.66,113.11,297.35,309.38,171.63,113.14,297.32,309.36,0.0
2018-08-19 15:05:00,89.58274,37.64985,906.498,271.45,80.3,864.8,14.16,0.33,131.44,172.25,113.04,297.34,309.09,172.05,113.22,297.24,309.31,0.0
2018-08-19 15:05:00,89.58274,37.64985,906.477,271.45,80.3,864.9,14.42,0.3,131.54,172.58,113.11,297.16,309.38,172.44,113.32,297.16,309.24,0.0
2018-08-19 15:05:00,89.58274,37.64985,906.455,271.45,80.3,865.1,13.93,0.24,131.47,172.32,113.04,297.35,309.19,172.78,113.41,297.1,309.15,0.0
2018-08-19 15:05:00,89.58274,37.64985,906.468,271.45,80.3,865.0,12.48,0.18,131.33,171.79,113.25,297.16,309.19,173.06,113.49,297.06,309.05,0.0
2018-08-19 15:05:00,89.58274,37.64984,906.494,271.45,80.3,864.8,10.49,0.15,131.22,172.78,113.11,297.55,309.29,173.28,113.54,297.05,308.96,0.0
2018-08-19 15:05:00,89.58274,37.64984,906.478,271.45,80.3,864.9,8.84,0.12,131.27,171.53,113.04,297.35,309.19,173.45,113.55,297.08,308.88,0.0
2018-08-19 15:05:00,89.58274,37.64984,906.482,271.46,80.3,864.9,10.06,0.16,131.47,172.06,112.97,297.36,309.0,173.57,113.52,297.14,308.83,0.0
2018-08-19 15:05:00,89.58274,37.64984,906.513,271.46,80.3,864.6,10.65,0.2,131.8,171.79,113.39,297.36,309.18,173.65,113.46,297.25,308.8,0.0
2018-08-19 15:05:00,89.58274,37.64984,906.545,271.45,80.3,864.3,9.76,0.16,132.13,172.25,113.25,297.26,309.18,173.68,113.38,297.37,308.8,0.0
2018-08-19 15:05:00,89.58274,37.64984,906.518,271.46,80.3,864.6,8.39,0.03,132.31,171.79,113.32,297.36,309.19,173.67,113.28,297.44,308.83,0.0
2018-08-19 15:05:00,89.58274,37.64984,906.478,271.46,80.3,864.9,9.43,0.05,132.38,173.04,113.25,297.17,309.19,173.6,113.19,297.49,308.88,0.0
2018-08-19 15:05:00,89.58274,37.64984,906.503,271.46,80.3,864.7,9.8,0.08,132.54,173.04,113.11,297.26,309.18,173.47,113.11,297.51,308.94,0.0
2018-08-19 15:05:00,89.58274,37.64984,906.506,271.46,80.3,864.7,9.48,0.1,132.66,172.32,113.25,297.45,309.18,173.27,113.06,297.52,309.0,0.0
2018-08-19 15:05:00,89.58274,37.64984,906.482,271.46,80.3,864.9,9.46,0.11,132.64,173.04,113.11,297.4,308.8,173.02,113.04,297.5,309.06,0.0
2018-08-19 15:05:00,89.58274,37.64984,906.473,271.45,80.3,865.0,10.54,0.13,132.5,171.86,113.32,297.07,309.19,172.72,113.05,297.47,309.11,0.0
2018-08-19 15:05:00,89.58274,37.64984,906.492,271.45,80.3,864.8,11.79,0.25,132.63,172.19,113.04,297.26,309.28,172.4,113.1,297.45,309.13,0.0
2018-08-19 15:05:00,89.58274,37.64984,906.502,271.45,80.3,864.7,11.44,0.21,132.87,171.79,113.04,297.35,309.2,172.08,113.18,297.43,309.13,0.0
2018-08-19 15:05:00,89.58274,37.64984,906.51,271.46,80.3,864.6,11.98,0.26,132.86,172.51,113.04,297.08,308.72,171.79,113.27,297.44,309.12,0.0
2018-08-19 15:05:00,89.58274,37.64984,906.512,271.46,80.3,864.6,12.9,0.3,132.7,173.23,113.18,297.08,308.91,171.55,113.38,297.43,309.08,0.0
2018-08-19 15:05:00,89.58274,37.64984,906.516,271.45,80.3,864.6,13.2,0.27,132.56,172.97,113.32,297.36,309.0,171.37,113.47,297.43,309.03,0.0
2018-08-19 15:05:00,89.58274,37.64984,906.562,271.45,80.3,864.2,11.7,0.22,132.61,172.32,113.25,297.55,309.29,171.26,113.55,297.48,308.98,0.0
2018-08-19 15:05:00,89.58274,37.64984,906.543,271.45,80.3,864.4,11.09,0.19,132.29,171.6,113.18,297.54,309.19,171.21,113.61,297.51,308.93,0.0
2018-08-19 15:05:00,89.58274,37.64984,906.505,271.45,80.3,864.7,10.51,0.18,131.9,172.78,113.25,297.35,309.29,171.2,113.63,297.54,308.89,0.0
2018-08-19 15:05:00,89.58274,37.64984,906.518,271.45,80.3,864.6,10.0,0.22,131.57,172.25,113.18,297.26,309.0,171.2,113.62,297.53,308.86,0.0
2018-08-19 15:05:00,89.58274,37.64984,906.564,271.45,80.3,864.2,10.14,0.24,131.46,172.32,113.25,297.35,308.9,171.21,113.58,297.5,308.86,0.0
2018-08-19 15:05:00,89.58274,37.64984,906.559,271.45,80.3,864.2,11.47,0.2,131.63,171.86,113.18,297.35,309.27,171.21,113.5,297.44,308.87,0.0
2018-08-19 15:05:00,89.58274,37.64984,906.56,271.45,80.3,864.2,13.13,0.2,131.68,171.6,113.25,297.45,309.18,171.18,113.41,297.36,308.91,0.0
2018-08-19 15:05:00,89.58274,37.64984,906.556,271.45,80.3,864.2,14.84,0.24,131.46,172.71,113.18,297.55,309.0,171.13,113.29,297.27,308.95,0.0
2018-08-19 15:05:00,89.58274,37.64984,906.531,271.45,80.3,864.5,15.17,0.33,131.12,171.53,113.32,297.37,309.19,171.09,113.17,297.19,309.0,0.0
2018-08-19 15:05:00,89.58274,37.64984,906.492,271.45,80.3,864.8,14.7,0.42,130.76,172.84,113.18,297.36,309.19,171.06,113.06,297.05,309.06,0.0
2018-08-19 15:05:00,89.58274,37.64984,906.467,271.45,80.3,865.0,14.1,0.48,130.43,172.91,113.39,297.45,309.28,171.08,112.97,296.91,309.11,0.0
2018-08-19 15:05:00,89.58274,37.64984,906.525,271.45,80.3,864.5,13.63,0.54,130.17,171.53,113.25,297.26,309.18,171.17,112.91,296.88,309.12,0.0
2018-08-19 15:05:00,89.58274,37.64984,906.545,271.46,80.3,864.3,13.47,0.62,129.85,172.91,113.39,297.37,309.18,171.32,112.88,296.86,309.11,0.0
2018-08-19 15:05:00,89.58274,37.64984,906.545,271.45,80.3,864.3,13.42,0.58,129.73,170.88,113.32,297.45,309.18,171.54,112.89,296.86,309.08,0.0
2018-08-19 15:05:00,89.58274,37.64984,906.535,271.45,80.3,864.4,13.39,0.58,129.66,171.99,112.97,296.74,308.96,171.81,112.93,296.81,309.02,0.0
2018-08-19 15:05:00,89.58274,37.64984,906.526,271.45,80.3,864.5,13.36,0.64,129.58,171.86,113.18,296.27,309.12,172.09,113.0,296.74,308.95,0.0
2018-08-19 15:05:00,89.58274,37.64984,906.527,271.45,80.3,864.5,13.2,0.71,129.49,172.06,113.04,297.37,308.88,172.34,113.09,296.73,308.88,0.0
2018-08-19 15:05:00,89.58274,37.64984,906.554,271.44,80.3,864.3,11.66,0.72,129.27,171.92,113.39,297.27,309.08,172.54,113.18,296.71,308.82,0.0
2018-08-19 15:05:00,89.58274,37.64984,906.554,271.45,80.3,864.3,10.48,0.74,128.96,172.38,113.18,297.19,309.08,172.65,113.26,296.68,308.78,0.0
2018-08-19 15:05:00,89.58274,37.64984,906.537,271.45,80.3,864.4,10.05,0.74,128.59,171.4,113.04,296.33,308.98,172.66,113.33,296.64,308.77,0.0
2018-08-19 15:05:00,89.58274,37.64984,906.513,271.45,80.4,864.6,10.06,0.77,128.33,171.79,113.18,296.22,308.98,172.57,113.36,296.68,308.77,0.0
2018-08-19 15:05:00,89.58274,37.64984,906.498,271.45,80.3,864.7,10.31,0.85,128.29,172.97,113.04,296.99,308.71,172.41,113.36,296.76,308.79,0.0
2018-08-19 15:05:00,89.58274,37.64985,906.517,271.45,80.3,864.6,11.71,0.87,128.31,172.45,113.39,297.27,309.18,172.19,113.34,296.78,308.86,0.0
2018-08-19 15:05:00,89.58274,37.64985,906.509,271.45,80.3,864.7,12.77,0.95,128.43,171.86,113.11,297.27,308.89,171.97,113.3,296.82,308.94,0.0
2018-08-19 15:05:00,89.58274,37.64985,906.51,271.45,80.3,864.6,13.37,0.86,128.72,171.99,113.46,297.18,309.37,171.78,113.25,296.9,309.02,0.0
2018-08-19 15:05:00,89.58274,37.64986,906.518,271.45,80.3,864.6,13.34,0.79,129.08,172.38,113.25,297.36,309.18,171.67,113.21,297.06,309.1,0.0
2018-08-19 15:05:00,89.58274,37.64986,906.53,271.46,80.3,864.5,13.02,0.76,129.4,172.25,113.32,297.26,308.99,171.64,113.19,297.25,309.17,0.0
2018-08-19 15:05:00,89.58274,37.64986,906.552,271.46,80.3,864.3,13.2,0.62,129.57,172.19,113.25,297.26,309.0,171.7,113.2,297.37,309.21,0.0
2018-08-19 15:05:00,89.58274,37.64986,906.516,271.45,80.3,864.6,14.06,0.79,129.72,171.01,113.18,297.26,308.89,171.85,113.24,297.48,309.24,0.0
2018-08-19 15:05:00,89.58274,37.64987,906.505,271.45,80.3,864.7,13.91,0.67,130.05,172.84,112.97,297.26,308.99,172.07,113.31,297.57,309.24,0.0
2018-08-19 15:05:00,89.58274,37.64988,906.517,271.45,80.3,864.6,13.87,0.67,130.32,171.4,113.18,296.99,308.88,172.31,113.39,297.63,309.23,0.0
2018-08-19 15:05:00,89.58274,37.64988,906.532,271.45,80.3,864.5,14.48,0.69,130.51,171.99,113.04,297.08,308.97,172.54,113.48,297.66,309.22,0.0
2018-08-19 15:05:00,89.58274,37.64989,906.53,271.46,80.3,864.5,15.49,0.59,130.75,172.38,113.25,297.26,309.18,172.74,113.54,297.66,309.21,0.0
2018-08-19 15:05:00,89.58274,37.64989,906.548,271.45,80.3,864.3,14.72,0.71,131.11,171.4,113.25,297.09,309.08,172.87,113.58,297.65,309.2,0.0
2018-08-19 15:05:00,89.58274,37.6499,906.514,271.45,80.3,864.6,14.49,0.55,131.26,172.38,113.39,297.45,308.98,172.94,113.58,297.62,309.2,0.0
2018-08-19 15:05:00,89.58274,37.64991,906.509,271.45,80.3,864.7,14.66,0.55,131.37,172.32,113.39,297.26,308.98,172.93,113.52,297.59,309.21,0.0
2018-08-19 15:05:00,89.58274,37.64991,906.523,271.46,80.3,864.5,14.53,0.55,131.48,172.25,113.18,297.17,309.27,172.85,113.43,297.56,309.23,0.0
2018-08-19 15:05:00,89.58274,37.64992,906.526,271.45,80.3,864.5,13.74,0.46,131.64,172.58,113.32,297.54,308.89,172.72,113.3,297.55,309.25,0.0
2018-08-19 15:05:00,89.58274,37.64993,906.526,271.45,80.3,864.5,12.77,0.52,131.88,172.19,113.18,297.26,309.18,172.55,113.15,297.55,309.28,0.0
2018-08-19 15:05:00,89.58274,37.64993,906.524,271.46,80.3,864.5,12.84,0.44,132.05,172.84,113.39,297.35,309.08,172.36,113.02,297.56,309.3,0.0
2018-08-19 15:05:00,89.58274,37.64994,906.509,271.45,80.3,864.7,12.79,0.44,132.27,171.14,113.25,297.19,309.17,172.18,112.91,297.57,309.31,0.0
2018-08-19 15:05:00,89.58274,37.64995,906.517,271.45,80.3,864.6,12.46,0.38,132.54,172.25,113.11,297.46,308.69,172.0,112.85,297.59,309.32,0.0
2018-08-19 15:05:00,89.58274,37.64995,906.543,271.46,80.3,864.4,11.75,0.3,132.85,171.66,113.39,297.35,309.17,171.85,112.84,297.6,309.33,0.0
2018-08-19 15:05:00,89.58274,37.64996,906.516,271.45,80.3,864.6,10.9,0.3,133.12,173.23,113.25,297.26,309.26,171.74,112.91,297.6,309.33,0.0
2018-08-19 15:05:00,89.58274,37.64997,906.525,271.45,80.3,864.5,12.54,0.22,133.55,171.01,113.46,297.45,309.17,171.66,113.03,297.6,309.34,0.0
2018-08-19 15:05:00,89.58274,37.64998,906.498,271.45,80.3,864.7,13.15,0.21,134.2,172.19,112.9,297.27,309.07,171.63,113.19,297.58,309.34,0.0
2018-08-19 15:05:00,89.58274,37.64998,906.497,271.45,80.3,864.8,13.6,0.06,134.82,173.04,112.97,297.54,308.97,171.65,113.38,297.56,309.35,0.0
2018-08-19 15:05:00,89.58274,37.64999,906.518,271.45,80.3,864.6,14.02,0.0,135.16,172.45,113.25,297.25,309.27,171.71,113.57,297.54,309.36,0.0
2018-08-19 15:05:00,89.58274,37.65,906.514,271.45,80.3,864.6,14.28,0.18,135.12,171.99,113.25,297.45,308.89,171.82,113.74,297.52,309.37,0.0
2018-08-19 15:05:00,89.58274,37.65001,906.495,271.45,80.3,864.8,14.0,0.1,135.01,171.86,113.25,297.54,309.27,171.95,113.87,297.51,309.38,0.0
2018-08-19 15:05:00,89.58274,37.65001,906.481,271.45,80.3,864.9,13.31,0.13,134.98,172.64,113.04,297.35,309.18,172.09,113.95,297.5,309.38,0.0
2018-08-19 15:05:00,89.58274,37.65002,906.531,271.45,80.3,864.5,14.06,0.13,134.9,171.6,113.39,297.35,309.37,172.21,113.97,297.5,309.37,0.0
2018-08-19 15:05:00,89.58274,37.65003,906.547,271.45,80.3,864.3,14.7,0.14,134.88,171.66,113.39,297.26,309.08,172.28,113.93,297.49,309.36,0.0
2018-08-19 15:05:00,89.58274,37.65004,906.481,271.45,80.3,864.9,14.47,0.13,135.03,171.73,113.39,297.26,308.98,172.29,113.85,297.48,309.34,0.0
2018-08-19 15:05:00,89.58274,37.65004,906.524,271.45,80.3,864.5,13.81,-0.03,135.39,172.32,113.25,297.35,309.18,172.21,113.73,297.45,309.32,0.0
2018-08-19 15:05:00,89.58274,37.65004,906.489,271.46,80.3,864.8,14.62,-0.04,135.45,171.99,113.39,297.45,309.18,172.04,113.6,297.42,309.29,0.0
2018-08-19 15:05:00,89.58274,37.65004,906.52,271.45,80.3,864.6,15.7,-0.07,135.3,171.92,113.39,297.26,309.18,171.8,113.46,297.37,309.26,0.0
2018-08-19 15:05:00,89.58274,37.65004,906.545,271.45,80.3,864.3,16.18,0.0,135.29,173.56,113.32,297.54,308.98,171.52,113.33,297.31,309.24,0.0
2018-08-19 15:05:00,89.58274,37.65005,906.545,271.45,80.3,864.3,16.52,0.09,135.38,171.79,113.39,297.35,309.27,171.23,113.22,297.26,309.22,0.0
2018-08-19 15:05:00,89.58274,37.65005,906.555,271.45,80.3,864.3,17.46,0.07,135.43,171.86,113.25,297.35,309.27,170.98,113.14,297.21,309.2,0.0
2018-08-19 15:05:00,89.58274,37.65005,906.54,271.45,80.3,864.4,17.97,0.06,135.44,172.32,113.46,297.25,309.18,170.83,113.09,297.17,309.18,0.0
2018-08-19 15:05:00,89.58274,37.65005,906.534,271.45,80.3,864.4,17.83,0.1,135.49,171.99,113.25,297.44,309.16,170.8,113.07,297.15,309.15,0.0
2018-08-19 15:05:00,89.58274,37.65006,906.538,271.45,80.3,864.4,17.41,0.06,135.37,172.19,113.46,297.45,309.36,170.91,113.08,297.16,309.11,0.0
2018-08-19 15:05:00,89.58274,37.65006,906.546,271.45,80.3,864.3,17.24,0.09,135.18,171.79,113.04,297.35,309.27,171.16,113.11,297.18,309.07,0.0
2018-08-19 15:05:00,89.58274,37.65006,906.545,271.45,80.4,864.3,17.01,0.23,134.97,171.73,113.32,297.54,309.27,171.51,113.16,297.23,309.03,0.0
2018-08-19 15:05:00,89.58274,37.65006,906.519,271.46,80.4,864.6,14.77,0.23,134.62,171.53,113.39,297.34,308.97,171.91,113.23,297.28,308.98,0.0
2018-08-19 15:05:00,89.58274,37.65006,906.528,271.45,80.4,864.5,12.48,0.17,134.18,171.27,113.18,297.35,308.97,172.31,113.3,297.33,308.93,0.0
2018-08-19 15:05:00,89.58274,37.65006,906.526,271.45,80.4,864.5,10.8,0.23,133.71,172.38,113.39,297.26,309.26,172.63,113.38,297.37,308.9,0.0
2018-08-19 15:05:00,89.58274,37.65006,906.515,271.45,80.4,864.6,10.77,0.23,133.46,172.32,113.46,297.44,309.26,172.84,113.45,297.39,308.88,0.0
2018-08-19 15:05:00,89.58274,37.65005,906.517,271.45,80.4,864.6,11.71,0.21,133.49,171.4,113.25,297.44,309.18,172.89,113.53,297.39,308.88,0.0
2018-08-19 15:05:00,89.58274,37.65005,906.57,271.45,80.4,864.1,11.82,0.36,133.7,172.45,113.25,297.54,309.27,172.79,113.59,297.37,308.89,0.0
2018-08-19 15:05:00,89.58274,37.65005,906.544,271.45,80.4,864.4,12.53,0.27,133.7,171.99,113.25,297.25,309.27,172.55,113.64,297.32,308.92,0.0
2018-08-19 15:05:00,89.58274,37.65005,906.545,271.45,80.4,864.3,12.01,0.35,133.39,171.79,113.11,297.14,308.88,172.23,113.67,297.26,308.96,0.0
2018-08-19 15:05:00,89.58274,37.65004,906.549,271.45,80.4,864.3,10.82,0.33,132.94,172.38,113.32,297.05,308.88,171.89,113.68,297.21,309.0,0.0
2018-08-19 15:05:00,89.58274,37.65004,906.546,271.45,80.4,864.3,10.33,0.31,132.49,172.51,113.53,297.25,309.45,171.61,113.67,297.16,309.03,0.0
2018-08-19 15:05:00,89.58274,37.65004,906.539,271.45,80.4,864.4,11.33,0.39,132.19,172.45,113.46,297.26,309.06,171.44,113.64,297.14,309.04,0.0
2018-08-19 15:05:00,89.58274,37.65004,906.518,271.45,80.4,864.6,12.48,0.31,132.23,171.4,113.39,297.45,309.16,171.43,113.59,297.14,309.04,0.0
2018-08-19 15:05:00,89.58274,37.65003,906.501,271.45,80.4,864.7,12.98,0.33,132.34,171.79,113.25,297.17,308.97,171.59,113.53,297.17,309.03,0.0
2018-08-19 15:05:00,89.58274,37.65003,906.503,271.45,80.4,864.7,14.44,0.39,132.51,171.99,113.53,297.54,309.07,171.9,113.46,297.22,309.0,0.0
2018-08-19 15:05:00,89.58274,37.65003,906.514,271.45,80.4,864.6,16.19,0.46,132.64,172.19,113.25,297.34,308.98,172.32,113.38,297.29,308.98,0.0
2018-08-19 15:05:00,89.58274,37.65003,906.526,271.45,80.4,864.5,17.53,0.56,132.7,172.06,113.39,297.34,308.88,172.79,113.32,297.36,308.96,0.0
2018-08-19 15:05:00,89.58274,37.65002,906.554,271.45,80.4,864.3,18.24,0.71,132.75,171.53,113.39,297.26,309.17,173.24,113.27,297.41,308.96,0.0
2018-08-19 15:05:00,89.58274,37.65002,906.552,271.45,80.4,864.3,18.47,0.64,132.52,171.34,113.39,297.25,308.68,173.6,113.23,297.45,308.98,0.0
2018-08-19 15:05:00,89.58274,37.65002,906.559,271.45,80.4,864.2,18.79,0.73,132.23,171.99,113.39,297.52,309.16,173.82,113.21,297.45,309.02,0.0
2018-08-19 15:05:00,89.58274,37.65002,906.535,271.45,80.4,864.4,18.71,0.74,132.01,172.19,113.32,297.35,309.16,173.88,113.21,297.43,309.09,0.0
2018-08-19 15:05:00,89.58274,37.65001,906.493,271.45,80.4,864.8,18.05,0.72,131.76,172.84,113.39,297.25,309.16,173.78,113.23,297.38,309.17,0.0
2018-08-19 15:05:00,89.58274,37.65001,906.501,271.45,80.4,864.7,16.94,0.83,131.3,172.19,113.25,297.43,309.26,173.54,113.25,297.31,309.25,0.0
2018-08-19 15:05:00,89.58274,37.65001,906.499,271.45,80.4,864.7,16.16,0.81,130.92,172.78,113.39,297.24,309.16,173.22,113.28,297.25,309.33,0.0
2018-08-19 15:05:00,89.58274,37.65001,906.515,271.45,80.4,864.6,14.86,0.95,130.81,172.25,113.39,297.26,309.26,172.85,113.3,297.19,309.39,0.0
2018-08-19 15:05:00,89.58274,37.65,906.504,271.45,80.4,864.7,13.95,0.95,130.77,171.4,113.39,297.45,309.16,172.5,113.32,297.16,309.42,0.0
2018-08-19 15:05:00,89.58274,37.65,906.484,271.45,80.4,864.9,13.77,0.98,130.76,173.04,113.25,297.25,308.97,172.2,113.34,297.16,309.43,0.0
2018-08-19 15:05:00,89.58274,37.64999,906.494,271.45,80.4,864.8,14.05,1.12,130.77,172.84,113.25,297.33,308.87,171.96,113.35,297.2,309.41,0.0
2018-08-19 15:05:00,89.58274,37.64999,906.536,271.45,80.4,864.4,13.53,1.1,130.83,171.92,113.46,297.17,308.87,171.8,113.36,297.26,309.37,0.0
2018-08-19 15:05:00,89.58274,37.64998,906.553,271.45,80.4,864.3,13.13,1.25,130.8,172.64,113.39,297.43,309.16,171.68,113.36,297.34,309.32,0.0
2018-08-19 15:05:00,89.58274,37.64998,906.544,271.45,80.4,864.4,12.96,1.24,130.76,171.66,113.32,297.52,309.45,171.59,113.38,297.43,309.27,0.0
2018-08-19 15:05:00,89.58274,37.64997,906.538,271.45,80.4,864.4,12.92,1.19,130.76,171.27,113.39,297.34,309.16,171.48,113.4,297.51,309.24,0.0
2018-08-19 15:05:00,89.58274,37.64996,906.55,271.45,80.4,864.3,12.68,1.13,130.75,172.38,113.46,297.62,309.06,171.34,113.44,297.56,309.22,0.0
2018-08-19 15:05:00,89.58274,37.64996,906.565,271.45,80.4,864.2,11.82,1.01,130.54,172.58,113.11,297.06,309.25,171.15,113.49,297.59,309.23,0.0
2018-08-19 15:05:00,89.58274,37.64995,906.558,271.45,80.4,864.2,11.28,1.05,130.31,172.19,113.39,297.36,308.86,170.92,113.55,297.57,309.26,0.0
2018-08-19 15:05:00,89.58274,37.64994,906.537,271.45,80.4,864.4,9.54,1.02,130.2,172.97,113.25,297.06,309.25,170.67,113.62,297.53,309.3,0.0
2018-08-19 15:05:00,89.58274,37.64993,906.535,271.45,80.4,864.4,8.5,1.0,130.19,171.86,113.46,297.06,309.26,170.44,113.68,297.46,309.34,0.0
2018-08-19 15:05:00,89.58274,37.64993,906.555,271.45,80.4,864.3,8.32,1.0,130.26,172.84,113.46,297.15,309.26,170.26,113.74,297.38,309.37,0.0
2018-08-19 15:05:00,89.58274,37.64992,906.572,271.45,80.4,864.1,8.45,1.0,130.37,171.07,113.25,297.25,309.17,170.19,113.78,297.31,309.39,0.0
2018-08-19 15:05:00,89.58274,37.64992,906.542,271.45,80.4,864.4,7.93,0.94,130.51,171.99,113.53,297.52,309.16,170.25,113.8,297.25,309.38,0.0
2018-08-19 15:05:00,89.58274,37.64991,906.545,271.45,80.4,864.3,9.04,1.07,130.88,172.64,113.39,297.52,309.16,170.45,113.78,297.23,309.34,0.0
2018-08-19 15:05:00,89.58274,37.64991,906.534,271.45,80.4,864.4,11.83,1.1,131.17,171.27,113.39,297.15,309.16,170.79,113.74,297.23,309.27,0.0
2018-08-19 15:05:00,89.58274,37.6499,906.532,271.45,80.4,864.5,14.62,1.05,131.47,171.99,113.32,297.43,309.16,171.23,113.67,297.27,309.18,0.0
2018-08-19 15:05:00,89.58274,37.6499,906.561,271.45,80.4,864.2,16.27,0.96,131.77,170.88,113.39,297.43,308.97,171.74,113.57,297.34,309.08,0.0
2018-08-19 15:05:00,89.58274,37.64989,906.557,271.45,80.4,864.2,17.07,0.86,131.85,171.53,113.46,297.43,309.26,172.26,113.46,297.41,308.98,0.0
2018-08-19 15:05:00,89.58274,37.64989,906.576,271.46,80.4,864.1,17.98,0.98,131.75,171.66,113.53,297.34,309.16,172.75,113.33,297.47,308.9,0.0
2018-08-19 15:05:00,89.58274,37.64988,906.564,271.45,80.4,864.2,16.65,1.02,131.52,172.78,113.6,297.34,309.35,173.14,113.2,297.52,308.88,0.0
2018-08-19 15:05:00,89.58274,37.64988,906.545,271.45,80.4,864.3,14.52,1.06,131.23,172.25,113.46,297.52,309.16,173.42,113.08,297.54,308.88,0.0
2018-08-19 15:05:00,89.58274,37.64987,906.54,271.45,80.4,864.4,12.98,1.1,130.88,171.4,113.46,297.43,309.16,173.57,112.98,297.52,308.9,0.0
2018-08-19 15:05:00,89.58274,37.64986,906.556,271.46,80.4,864.2,12.86,1.07,130.49,172.19,113.25,297.53,309.25,173.59,112.89,297.48,308.94,0.0
2018-08-19 15:05:00,89.58274,37.64986,906.555,271.45,80.4,864.3,12.82,1.16,130.44,171.79,113.39,297.35,309.25,173.5,112.84,297.41,309.02,0.0
2018-08-19 15:05:00,89.58274,37.64985,906.567,271.45,80.4,864.2,13.18,1.25,130.36,172.19,113.39,297.24,309.41,173.33,112.82,297.33,309.1,0.0
2018-08-19 15:05:00,89.58274,37.64984,906.566,271.45,80.4,864.2,13.66,1.21,130.24,172.78,113.39,297.24,309.45,173.1,112.83,297.25,309.19,0.0
2018-08-19 15:05:00,89.58274,37.64983,906.564,271.45,80.4,864.2,14.39,1.13,130.09,171.6,113.6,297.24,309.35,172.85,112.88,297.18,309.26,0.0
2018-08-19 15:05:00,89.58274,37.64982,906.578,271.46,80.4,864.1,15.28,1.1,129.98,171.66,113.04,297.52,309.25,172.61,112.96,297.13,309.31,0.0
2018-08-19 15:05:00,89.58274,37.6498,906.569,271.46,80.4,864.1,15.59,1.07,130.02,172.25,113.18,297.23,308.97,172.38,113.08,297.12,309.34,0.0
2018-08-19 15:05:00,89.58274,37.64979,906.528,271.45,80.4,864.5,15.21,1.14,130.13,172.45,113.32,297.24,308.87,172.18,113.22,297.17,309.33,0.0
2018-08-19 15:05:00,89.58274,37.64978,906.54,271.46,80.4,864.4,14.05,1.21,130.12,172.19,113.25,297.23,308.87,171.99,113.39,297.21,309.26,0.0
2018-08-19 15:05:00,89.58274,37.64977,906.549,271.46,80.4,864.3,12.75,1.18,130.07,172.45,113.53,297.32,308.96,171.82,113.56,297.26,309.19,0.0
2018-08-19 15:05:00,89.58274,37.64975,906.53,271.45,80.4,864.5,11.83,1.11,129.98,172.38,113.46,297.52,309.16,171.65,113.73,297.3,309.13,0.0
2018-08-19 15:05:00,89.58274,37.64974,906.575,271.46,80.4,864.1,11.32,1.08,129.81,171.79,113.32,297.37,309.08,171.48,113.89,297.34,309.07,0.0
2018-08-19 15:05:00,89.58274,37.64973,906.555,271.45,80.4,864.3,10.64,1.07,129.63,172.19,113.04,297.78,309.26,171.31,114.02,297.36,309.02,0.0
2018-08-19 15:05:00,89.58274,37.64972,906.559,271.45,80.4,864.2,9.8,1.11,129.56,172.25,113.46,297.41,308.97,171.14,114.1,297.36,309.0,0.0
2018-08-19 15:05:00,89.58274,37.64971,906.548,271.45,80.4,864.3,10.0,1.21,129.5,171.99,113.18,297.43,309.17,171.0,114.14,297.35,309.01,0.0
2018-08-19 15:05:00,89.58274,37.6497,906.528,271.45,80.4,864.5,11.01,1.27,129.56,171.66,113.39,297.05,308.97,170.89,114.12,297.33,309.03,0.0
2018-08-19 15:05:00,89.58274,37.64969,906.551,271.46,80.4,864.3,11.79,1.17,129.86,172.25,113.53,297.23,309.26,170.82,114.05,297.29,309.08,0.0
2018-08-19 15:05:00,89.58274,37.64968,906.547,271.46,80.4,864.3,11.61,1.03,130.2,172.06,113.46,297.32,308.97,170.83,113.93,297.26,309.14,0.0
2018-08-19 15:05:00,89.58274,37.64967,906.538,271.45,80.4,864.4,12.72,1.03,130.38,171.6,113.6,297.23,309.36,170.9,113.77,297.19,309.19,0.0
2018-08-19 15:05:00,89.58275,37.64967,906.533,271.45,80.4,864.4,13.38,0.97,130.59,172.06,113.46,297.42,309.36,171.04,113.58,297.15,309.23,0.0
2018-08-19 15:05:00,89.58275,37.64966,906.541,271.45,80.4,864.4,13.69,0.9,130.91,172.12,113.6,297.15,309.17,171.25,113.39,297.14,309.23,0.0
2018-08-19 15:05:00,89.58275,37.64965,906.565,271.46,80.4,864.2,14.01,0.86,131.29,171.99,113.46,297.61,308.97,171.5,113.2,297.14,309.21,0.0
2018-08-19 15:05:00,89.58275,37.64964,906.578,271.46,80.4,864.1,14.56,0.77,131.53,172.32,113.6,297.22,309.55,171.78,113.05,297.14,309.15,0.0
2018-08-19 15:05:00,89.58275,37.64963,906.559,271.46,80.4,864.2,14.05,0.87,131.63,171.99,113.25,297.5,309.36,172.07,112.93,297.15,309.06,0.0
2018-08-19 15:05:00,89.58275,37.64962,906.576,271.46,80.4,864.1,12.66,0.89,131.77,171.14,113.46,297.33,309.07,172.34,112.85,297.15,308.95,0.0
2018-08-19 15:05:00,89.58275,37.64962,906.593,271.46,80.4,863.9,11.84,0.97,131.83,170.68,113.39,297.13,309.17,172.56,112.83,297.15,308.84,0.0
2018-08-19 15:05:00,89.58275,37.64961,906.593,271.46,80.4,863.9,11.43,1.05,131.83,171.79,113.46,297.41,309.17,172.73,112.85,297.14,308.74,0.0
2018-08-19 15:05:00,89.58275,37.6496,906.591,271.46,80.4,863.9,10.74,1.0,131.81,172.58,113.46,297.24,309.26,172.83,112.9,297.12,308.66,0.0
2018-08-19 15:05:00,89.58275,37.64959,906.516,271.46,80.4,864.6,10.38,0.95,131.92,173.3,113.39,297.22,308.97,172.86,112.98,297.11,308.61,0.0
2018-08-19 15:05:00,89.58275,37.64958,906.518,271.46,80.4,864.6,9.91,0.81,132.01,171.6,113.25,297.13,308.87,172.81,113.07,297.1,308.61,0.0
2018-08-19 15:05:00,89.58275,37.64958,906.542,271.46,80.4,864.4,9.95,0.78,132.09,171.53,113.11,297.32,309.06,172.69,113.17,297.09,308.63,0.0
2018-08-19 15:05:00,89.58275,37.64957,906.559,271.46,80.4,864.2,10.51,0.77,132.15,171.73,113.39,297.22,309.17,172.52,113.26,297.09,308.69,0.0
2018-08-19 15:05:00,89.58275,37.64957,906.556,271.46,80.4,864.2,11.22,0.71,132.26,171.79,113.39,297.32,309.26,172.3,113.34,297.1,308.76,0.0
2018-08-19 15:05:00,89.58275,37.64956,906.551,271.46,80.4,864.3,11.43,0.76,132.58,173.17,113.39,297.14,308.86,172.05,113.41,297.12,308.84,0.0
2018-08-19 15:05:00,89.58275,37.64956,906.545,271.46,80.4,864.3,12.13,0.76,132.69,172.45,113.39,297.22,309.16,171.81,113.46,297.14,308.91,0.0
2018-08-19 15:05:00,89.58275,37.64956,906.532,271.46,80.4,864.5,13.69,0.86,132.68,171.27,113.46,297.32,309.07,171.58,113.5,297.17,308.97,0.0
2018-08-19 15:05:00,89.58275,37.64955,906.529,271.46,80.4,864.5,14.05,0.91,132.54,171.27,113.39,297.33,308.98,171.4,113.53,297.2,309.01,0.0
2018-08-19 15:05:00,89.58275,37.64955,906.536,271.46,80.4,864.4,12.87,0.88,132.4,172.38,113.32,297.24,308.98,171.28,113.56,297.23,309.04,0.0
2018-08-19 15:05:00,89.58275,37.64954,906.523,271.46,80.4,864.5,11.0,0.82,132.37,172.38,113.39,297.13,308.98,171.24,113.58,297.25,309.05,0.0
2018-08-19 15:05:00,89.58275,37.64954,906.543,271.46,80.4,864.4,10.16,0.86,132.14,172.64,113.18,297.05,308.68,171.28,113.61,297.28,309.06,0.0
2018-08-19 15:05:00,89.58275,37.64953,906.565,271.46,80.4,864.2,10.84,0.79,132.21,171.14,113.32,296.96,308.98,171.41,113.63,297.31,309.07,0.0
2018-08-19 15:05:00,89.58275,37.64952,906.558,271.46,80.4,864.2,11.04,0.74,132.47,171.79,113.32,297.34,308.6,171.62,113.66,297.34,309.08,0.0
2018-08-19 15:05:00,89.58275,37.64952,906.544,271.46,80.4,864.3,11.37,0.72,132.69,171.73,113.53,297.24,308.98,171.89,113.68,297.37,309.11,0.0
2018-08-19 15:05:00,89.58275,37.64951,906.561,271.46,80.4,864.2,12.3,0.7,132.71,172.25,113.46,297.32,309.07,172.19,113.7,297.41,309.15,0.0
2018-08-19 15:05:00,89.58275,37.64951,906.516,271.46,80.4,864.6,12.07,0.56,132.69,172.19,113.46,297.23,309.25,172.49,113.71,297.44,309.2,0.0
2018-08-19 15:05:00,89.58275,37.6495,906.538,271.46,80.4,864.4,10.25,0.39,132.63,171.6,113.39,297.32,309.25,172.77,113.72,297.47,309.24,0.0
2018-08-19 15:05:00,89.58275,37.6495,906.566,271.46,80.4,864.2,9.96,0.46,132.41,172.25,113.46,297.32,308.97,173.01,113.71,297.49,309.26,0.0
2018-08-19 15:05:00,89.58275,37.64949,906.577,271.46,80.4,864.1,10.21,0.56,132.24,171.4,113.46,297.13,309.17,173.18,113.7,297.51,309.27,0.0
2018-08-19 15:05:00,89.58275,37.64948,906.567,271.46,80.4,864.2,10.22,0.62,132.19,172.19,113.32,297.32,309.17,173.26,113.69,297.51,309.26,0.0
2018-08-19 15:05:00,89.58275,37.64948,906.541,271.46,80.4,864.4,9.93,0.81,132.19,171.79,113.46,297.32,309.17,173.27,113.67,297.5,309.24,0.0
2018-08-19 15:05:00,89.58275,37.64948,906.515,271.46,80.4,864.6,10.7,0.81,132.04,172.19,113.32,297.32,309.26,173.2,113.64,297.49,309.21,0.0
2018-08-19 15:05:00,89.58275,37.64948,906.524,271.46,80.4,864.5,11.21,0.79,131.95,171.99,113.6,297.23,308.87,173.06,113.61,297.47,309.18,0.0
2018-08-19 15:05:00,89.58275,37.64947,906.538,271.46,80.4,864.4,10.99,0.74,131.87,171.79,113.46,297.23,309.06,172.88,113.58,297.46,309.16,0.0
2018-08-19 15:05:00,89.58275,37.64947,906.551,271.46,80.4,864.3,10.87,0.69,131.75,172.97,113.53,297.32,309.15,172.67,113.55,297.44,309.16,0.0
2018-08-19 15:05:00,89.58275,37.64947,906.583,271.46,80.4,864.0,11.74,0.74,131.6,172.84,113.46,297.32,309.15,172.45,113.52,297.43,309.18,0.0
2018-08-19 15:05:00,89.58275,37.64947,906.603,271.46,80.4,863.8,11.61,0.8,131.45,172.32,113.32,297.32,309.07,172.23,113.48,297.43,309.22,0.0
2018-08-19 15:05:00,89.58275,37.64947,906.622,271.45,80.4,863.7,11.78,0.82,131.26,171.86,113.66,297.32,309.25,172.01,113.45,297.43,309.28,0.0
2018-08-19 15:05:00,89.58275,37.64947,906.589,271.45,80.4,864.0,12.03,0.9,131.09,171.86,113.46,297.42,309.16,171.79,113.42,297.43,309.34,0.0
2018-08-19 15:05:00,89.58275,37.64947,906.556,271.46,80.4,864.2,12.4,0.95,130.84,171.73,113.32,297.32,309.17,171.59,113.39,297.44,309.4,0.0
2018-08-19 15:05:00,89.58275,37.64947,906.583,271.45,80.4,864.0,12.48,0.96,130.51,172.12,113.46,297.41,309.16,171.39,113.37,297.44,309.44,0.0
2018-08-19 15:05:00,89.58275,37.64947,906.583,271.45,80.4,864.0,10.92,1.06,130.34,171.66,113.46,297.41,309.15,171.21,113.37,297.43,309.45,0.0
2018-08-19 15:05:00,89.58275,37.64947,906.568,271.46,80.4,864.1,10.09,0.91,130.17,173.04,113.53,297.41,308.96,171.04,113.37,297.42,309.43,0.0
2018-08-19 15:05:00,89.58275,37.64947,906.586,271.46,80.4,864.0,9.73,0.87,130.03,172.19,113.6,297.22,309.06,170.89,113.38,297.41,309.39,0.0
2018-08-19 15:05:00,89.58275,37.64947,906.595,271.46,80.4,863.9,9.68,0.82,130.0,172.51,113.46,297.22,309.08,170.79,113.41,297.39,309.32,0.0
2018-08-19 15:05:00,89.58275,37.64946,906.567,271.46,80.4,864.1,9.97,0.74,130.11,171.79,113.25,297.12,308.49,170.72,113.44,297.37,309.26,0.0
2018-08-19 15:05:00,89.58275,37.64946,906.518,271.46,80.3,864.6,10.8,0.69,130.33,171.66,113.46,297.3,308.86,170.72,113.48,297.35,309.2,0.0
2018-08-19 15:05:00,89.58275,37.64945,906.546,271.46,80.4,864.3,11.53,0.73,130.53,171.6,113.39,297.13,309.06,170.77,113.53,297.34,309.18,0.0
2018-08-19 15:05:00,89.58275,37.64945,906.547,271.46,80.4,864.3,12.31,0.72,130.61,172.19,113.6,297.51,309.15,170.87,113.57,297.34,309.18,0.0
2018-08-19 15:05:00,89.58275,37.64944,906.548,271.46,80.4,864.3,11.82,0.79,130.58,172.38,113.32,297.32,309.25,171.02,113.61,297.35,309.21,0.0
2018-08-19 15:05:00,89.58275,37.64944,906.55,271.46,80.4,864.3,10.35,0.87,130.47,171.79,113.39,297.51,309.35,171.18,113.65,297.36,309.27,0.0
