Date/Time,Latitude,Longitude,PPPP [hPa],TTT grad [K],RH [%],Height [m],Pitch [deg],Roll [deg],Yaw [deg],SWD [W/m**2] (raw),SWU [W/m**2] (raw),LWD [W/m**2] (raw),LWU [W/m**2] (raw),SWD [W/m**2] (corrected),SWU [W/m**2] (corrected),LWD [W/m**2] (corrected),LWU [W/m**2] (corrected),Flag
2018-08-20 16:41:00,89.62062,31.79224,1015.05,273.79,82.5,2.6,9.89,5.41,-26.95,119.11,80.19,258.08,315.0,114.99,80.6,258.09,314.67,0.0
2018-08-20 16:41:00,89.62062,31.79224,1015.05,273.79,82.5,2.6,9.81,5.67,-27.85,122.06,80.33,258.46,314.49,115.68,80.58,258.17,314.71,0.0
2018-08-20 16:41:00,89.62062,31.79224,1015.052,273.79,82.5,2.6,9.73,5.87,-28.7,118.72,80.19,258.36,314.58,116.42,80.53,258.25,314.77,0.0
2018-08-20 16:41:00,89.62062,31.79224,1015.028,273.78,82.5,2.8,9.58,6.06,-29.49,118.46,80.12,258.01,314.96,117.17,80.49,258.21,314.78,0.0
2018-08-20 16:41:00,89.62062,31.79225,1015.046,273.78,82.5,2.7,9.35,6.18,-30.16,119.83,80.19,257.78,314.8,117.87,80.45,258.23,314.8,0.0
2018-08-20 16:41:00,89.62062,31.79226,1015.021,273.77,82.5,2.9,9.08,6.26,-30.7,119.76,80.33,257.23,315.13,118.48,80.43,258.15,314.7,0.0
2018-08-20 16:41:00,89.62062,31.79227,1015.01,273.77,82.5,3.0,8.92,6.28,-31.22,118.59,80.47,258.09,315.51,118.98,80.44,258.07,314.71,0.0
2018-08-20 16:41:00,89.62062,31.79228,1015.027,273.77,82.5,2.8,8.82,6.29,-31.66,118.91,80.19,258.45,316.15,119.34,80.48,257.96,314.74,0.0
2018-08-20 16:41:00,89.62062,31.79229,1015.086,273.76,82.5,2.4,8.72,6.33,-31.86,119.63,80.12,257.11,315.12,119.54,80.56,257.83,314.74,0.0
2018-08-20 16:41:00,89.62062,31.7923,1015.054,273.76,82.5,2.6,8.6,6.42,-31.92,120.03,80.26,257.53,315.15,119.58,80.66,257.77,314.76,0.0
2018-08-20 16:41:00,89.62062,31.7923,1015.043,273.76,82.5,2.7,8.54,6.21,-31.94,119.83,80.26,257.42,314.76,119.47,80.78,257.75,314.89,0.0
2018-08-20 16:41:00,89.62062,31.79232,1015.03,273.75,82.6,2.8,8.73,6.3,-31.95,120.48,80.26,257.32,315.11,119.23,80.91,257.78,314.91,0.0
2018-08-20 16:41:00,89.62062,31.79232,1015.028,273.75,82.6,2.8,8.9,6.32,-31.87,118.39,80.4,257.21,314.53,118.91,81.05,257.71,314.81,0.0
2018-08-20 16:41:00,89.62062,31.79233,1015.039,273.75,82.6,2.7,8.88,6.32,-31.63,119.63,80.33,257.08,314.89,118.54,81.17,257.62,314.68,0.0
2018-08-20 16:41:00,89.62062,31.79234,1015.041,273.75,82.6,2.7,8.71,6.57,-31.18,119.9,80.26,257.52,314.77,118.16,81.27,257.68,314.61,0.0
2018-08-20 16:41:00,89.62062,31.79235,1015.039,273.74,82.6,2.7,8.87,6.48,-30.88,118.85,80.4,258.0,315.81,117.82,81.35,257.68,314.52,0.0
2018-08-20 16:41:00,89.62062,31.79236,1015.033,273.74,82.6,2.8,8.52,6.58,-30.34,118.78,80.4,257.68,314.8,117.56,81.4,257.74,314.42,0.0
2018-08-20 16:41:00,89.62062,31.79238,1015.042,273.74,82.6,2.7,8.51,6.6,-29.72,119.44,80.47,257.12,314.57,117.38,81.42,257.68,314.31,0.0
2018-08-20 16:41:00,89.62062,31.79239,1015.044,273.73,82.6,2.7,8.5,6.57,-29.05,119.9,80.54,257.15,314.42,117.32,81.42,257.63,314.21,0.0
2018-08-20 16:41:00,89.62062,31.7924,1015.008,273.73,82.6,3.0,8.14,6.54,-28.29,119.44,80.54,258.1,314.46,117.36,81.39,257.66,314.13,0.0
2018-08-20 16:41:00,89.62062,31.79241,1015.035,273.73,82.6,2.8,7.91,6.32,-27.3,118.65,80.4,257.42,314.3,117.51,81.34,257.58,314.0,0.0
2018-08-20 16:41:00,89.62062,31.79242,1014.998,273.72,82.6,3.1,7.39,6.56,-26.49,119.31,80.54,257.57,314.28,117.73,81.28,257.53,313.8,0.0
2018-08-20 16:41:00,89.62062,31.79243,1015.004,273.71,82.6,3.0,6.92,6.34,-25.61,118.85,80.61,256.84,314.34,118.02,81.2,257.55,313.66,0.0
2018-08-20 16:41:00,89.62062,31.79244,1015.018,273.71,82.6,2.9,7.0,6.39,-24.54,119.18,80.54,257.01,313.85,118.36,81.12,257.62,313.6,0.0
2018-08-20 16:41:00,89.62062,31.79246,1015.001,273.71,82.6,3.0,7.4,6.68,-23.36,118.13,80.74,257.56,314.06,118.73,81.03,257.66,313.6,0.0
2018-08-20 16:41:00,89.62062,31.79247,1014.996,273.71,82.6,3.1,7.07,6.19,-22.38,119.44,80.54,256.85,313.49,119.12,80.93,257.63,313.6,0.0
2018-08-20 16:41:00,89.62062,31.79248,1015.002,273.71,82.7,3.0,7.84,6.34,-21.09,118.98,80.61,257.75,313.87,119.53,80.83,257.74,313.6,0.0
2018-08-20 16:41:00,89.62062,31.79249,1015.004,273.7,82.7,3.0,7.59,6.12,-20.64,118.72,80.47,258.12,313.59,119.95,80.74,257.75,313.61,0.0
2018-08-20 16:41:00,89.62062,31.7925,1015.002,273.7,82.7,3.0,7.63,6.01,-20.02,119.44,80.68,258.23,313.85,120.41,80.64,257.84,313.63,0.0
2018-08-20 16:41:00,89.62062,31.79251,1014.998,273.69,82.7,3.1,7.74,5.98,-19.24,119.24,80.54,257.88,314.51,120.89,80.56,257.91,313.61,0.0
2018-08-20 16:41:00,89.62062,31.79252,1014.994,273.69,82.7,3.1,7.22,5.83,-18.84,119.11,80.61,257.84,314.4,121.4,80.48,257.86,313.54,0.0
2018-08-20 16:41:00,89.62062,31.79252,1014.967,273.69,82.7,3.3,7.57,6.26,-18.58,118.98,80.68,258.79,314.22,121.95,80.41,257.9,313.56,0.0
2018-08-20 16:41:00,89.62062,31.79253,1014.935,273.69,82.7,3.6,7.35,5.95,-18.06,120.09,80.61,257.96,314.52,122.53,80.35,257.84,313.53,0.0
2018-08-20 16:41:00,89.62062,31.79254,1014.921,273.69,82.7,3.7,7.32,6.2,-17.7,120.09,80.54,257.78,314.73,123.12,80.31,257.73,313.47,0.0
2018-08-20 16:41:00,89.62062,31.79255,1014.931,273.69,82.7,3.6,7.08,6.56,-17.5,118.72,80.54,257.57,313.54,123.71,80.29,257.63,313.46,0.0
2018-08-20 16:41:00,89.62062,31.79256,1014.958,273.69,82.7,3.4,6.48,6.66,-17.41,118.19,80.61,257.29,313.15,124.28,80.28,257.57,313.52,0.0
2018-08-20 16:41:00,89.62062,31.79256,1014.921,273.7,82.7,3.7,6.7,7.21,-17.33,119.31,80.47,257.65,314.33,124.83,80.29,257.55,313.53,0.0
2018-08-20 16:41:00,89.62062,31.79257,1014.919,273.7,82.7,3.7,6.32,7.04,-17.25,120.35,80.68,257.42,314.08,125.32,80.32,257.37,313.57,0.0
2018-08-20 16:41:00,89.62062,31.79258,1014.915,273.7,82.7,3.7,6.21,6.66,-17.16,120.68,80.33,257.44,313.61,125.76,80.35,257.38,313.78,0.0
2018-08-20 16:41:00,89.62062,31.79259,1014.912,273.7,82.8,3.7,6.06,6.64,-17.36,119.63,80.54,257.36,314.31,126.14,80.39,257.37,313.97,0.0
2018-08-20 16:41:00,89.62062,31.7926,1014.919,273.7,82.8,3.7,5.97,6.9,-17.83,121.47,80.54,257.5,315.51,126.45,80.43,257.36,314.03,0.0
2018-08-20 16:41:00,89.62062,31.7926,1014.945,273.69,82.8,3.5,6.34,6.8,-18.22,121.92,80.61,257.98,315.34,126.69,80.47,257.45,314.03,0.0
2018-08-20 16:41:00,89.62062,31.79261,1014.902,273.69,82.8,3.8,5.73,6.93,-18.45,120.29,80.61,256.98,314.93,126.87,80.5,257.55,314.2,0.0
2018-08-20 16:41:00,89.62062,31.79261,1014.901,273.69,82.8,3.8,6.22,6.93,-18.89,119.63,80.54,258.14,316.89,126.97,80.52,257.56,314.29,0.0
2018-08-20 16:41:00,89.62062,31.79262,1014.902,273.69,82.8,3.8,6.62,6.77,-19.34,120.09,80.47,258.02,316.4,127.01,80.52,257.57,314.37,0.0
2018-08-20 16:41:00,89.62062,31.79262,1014.895,273.69,82.8,3.9,6.61,6.77,-19.75,121.27,80.4,257.36,314.77,126.96,80.51,257.55,314.31,0.0
2018-08-20 16:41:00,89.62062,31.79262,1014.891,273.69,82.8,3.9,6.43,6.98,-20.12,121.73,80.4,257.94,313.58,126.83,80.49,257.5,314.13,0.0
2018-08-20 16:41:00,89.62062,31.79263,1014.89,273.69,82.8,3.9,7.12,6.06,-20.42,121.86,80.61,258.84,316.13,126.61,80.44,257.59,314.16,0.0
2018-08-20 16:41:00,89.62062,31.79263,1014.877,273.69,82.8,4.0,6.8,6.53,-21.14,121.27,80.74,257.39,314.78,126.29,80.38,257.67,314.08,0.0
2018-08-20 16:41:00,89.62062,31.79263,1014.861,273.68,82.8,4.1,7.13,6.43,-21.63,122.32,80.54,257.88,314.49,125.87,80.31,257.69,313.79,0.0
2018-08-20 16:41:00,89.62062,31.79264,1014.85,273.68,82.8,4.2,7.2,6.51,-22.11,121.07,80.54,257.38,313.65,125.37,80.24,257.75,313.54,0.0
2018-08-20 16:41:00,89.62062,31.79264,1014.848,273.68,82.8,4.2,6.93,7.15,-22.69,123.04,80.61,257.32,313.4,124.82,80.17,257.85,313.47,0.0
2018-08-20 16:41:00,89.62062,31.79264,1014.851,273.68,82.8,4.2,7.76,7.58,-23.07,122.12,80.4,258.92,314.92,124.24,80.12,257.92,313.48,0.0
2018-08-20 16:41:00,89.62062,31.79263,1014.836,273.67,82.8,4.3,7.84,6.68,-23.9,121.4,80.47,258.06,313.43,123.67,80.09,257.87,313.26,0.0
2018-08-20 16:41:00,89.62062,31.79263,1014.816,273.67,82.8,4.5,7.74,7.08,-24.36,121.6,80.33,258.25,313.48,123.16,80.09,258.0,313.18,0.0
2018-08-20 16:41:00,89.62062,31.79263,1014.79,273.67,82.8,4.7,7.95,6.79,-24.96,122.58,80.4,258.15,313.35,122.74,80.12,258.09,313.16,0.0
2018-08-20 16:41:00,89.62062,31.79262,1014.768,273.66,82.9,4.9,7.96,6.38,-25.54,121.6,80.4,258.03,313.61,122.46,80.2,258.2,313.18,0.0
2018-08-20 16:41:00,89.62062,31.79262,1014.764,273.65,82.9,4.9,7.19,7.15,-25.71,122.64,80.54,258.57,313.06,122.34,80.32,258.38,313.23,0.0
2018-08-20 16:41:00,89.62062,31.79262,1014.789,273.64,82.9,4.7,7.92,6.4,-25.75,121.47,80.54,257.77,313.47,122.38,80.47,258.37,313.14,0.0
2018-08-20 16:41:00,89.62062,31.79261,1014.784,273.64,82.9,4.7,7.27,6.75,-25.85,122.25,80.54,258.3,313.95,122.57,80.66,258.44,313.16,0.0
2018-08-20 16:41:00,89.62062,31.79261,1014.755,273.64,82.9,5.0,6.79,6.67,-26.21,121.86,80.4,257.92,313.54,122.9,80.86,258.47,313.2,0.0
2018-08-20 16:41:00,89.62062,31.7926,1014.737,273.63,82.9,5.1,6.68,6.69,-26.56,121.01,80.33,257.85,313.47,123.32,81.06,258.53,313.24,0.0
2018-08-20 16:41:00,89.62062,31.7926,1014.76,273.63,82.9,4.9,6.7,7.15,-26.69,122.19,80.54,258.37,313.78,123.78,81.26,258.62,313.29,0.0
2018-08-20 16:41:00,89.62062,31.7926,1014.748,273.63,82.9,5.0,6.47,7.12,-26.76,121.92,80.4,258.39,313.99,124.24,81.43,258.63,313.35,0.0
2018-08-20 16:41:00,89.62062,31.79259,1014.695,273.62,82.9,5.4,7.34,7.1,-26.47,123.43,80.4,258.85,313.76,124.66,81.57,258.76,313.39,0.0
2018-08-20 16:41:00,89.62062,31.79259,1014.681,273.62,83.0,5.5,7.23,7.17,-26.76,122.71,80.68,258.76,313.95,124.99,81.66,258.78,313.37,0.0
2018-08-20 16:41:00,89.62062,31.79259,1014.672,273.62,83.0,5.6,7.78,7.26,-26.96,122.64,80.54,259.11,313.78,125.22,81.71,258.84,313.37,0.0
2018-08-20 16:41:00,89.62062,31.79259,1014.655,273.63,83.0,5.7,8.24,7.48,-27.09,120.81,80.74,259.38,313.86,125.34,81.72,258.9,313.39,0.0
2018-08-20 16:41:00,89.62062,31.79258,1014.664,273.63,83.0,5.7,7.05,7.95,-27.44,122.78,80.68,258.51,313.74,125.37,81.68,258.87,313.4,0.0
2018-08-20 16:41:00,89.62062,31.79258,1014.654,273.63,83.0,5.8,7.75,7.94,-27.48,121.99,80.81,258.92,313.72,125.31,81.61,258.91,313.38,0.0
2018-08-20 16:41:00,89.62062,31.79258,1014.618,273.62,83.0,6.0,7.72,8.39,-27.58,122.84,80.74,258.16,313.87,125.21,81.52,258.89,313.38,0.0
2018-08-20 16:41:00,89.62062,31.79258,1014.588,273.62,83.0,6.3,7.42,8.39,-27.93,122.71,80.81,258.25,313.82,125.11,81.41,258.85,313.37,0.0
2018-08-20 16:41:00,89.62062,31.79258,1014.583,273.62,83.0,6.3,7.51,8.61,-28.21,123.43,80.61,258.41,314.24,125.02,81.3,258.75,313.41,0.0
2018-08-20 16:41:00,89.62062,31.79258,1014.607,273.62,83.0,6.1,8.25,9.45,-28.2,123.82,80.74,257.97,313.9,125.0,81.17,258.59,313.53,0.0
2018-08-20 16:41:00,89.62062,31.79258,1014.582,273.61,83.0,6.3,8.62,9.44,-28.45,123.17,80.81,258.76,313.93,125.04,81.05,258.41,313.65,0.0
2018-08-20 16:41:00,89.62062,31.79257,1014.577,273.6,83.0,6.4,8.15,9.91,-28.76,121.86,80.74,258.25,313.93,125.16,80.92,258.24,313.81,0.0
2018-08-20 16:41:00,89.62062,31.79257,1014.553,273.6,83.0,6.6,8.61,10.27,-29.51,122.64,80.81,258.15,314.02,125.35,80.79,258.13,313.81,0.0
2018-08-20 16:41:00,89.62062,31.79257,1014.53,273.6,83.0,6.7,9.36,10.51,-30.04,122.06,80.61,258.39,314.41,125.61,80.66,257.97,313.79,0.0
2018-08-20 16:41:00,89.62062,31.79258,1014.527,273.6,83.0,6.8,9.47,10.76,-30.34,124.08,80.88,258.13,315.31,125.91,80.54,257.8,313.85,0.0
2018-08-20 16:41:00,89.62062,31.79259,1014.522,273.6,83.1,6.8,8.39,11.2,-30.93,122.58,80.74,257.42,315.3,126.23,80.42,257.65,313.95,0.0
2018-08-20 16:41:00,89.62062,31.7926,1014.537,273.6,83.1,6.7,11.26,11.96,-30.47,123.63,80.74,257.82,315.5,126.57,80.31,257.4,313.84,0.0
2018-08-20 16:41:00,89.62062,31.79261,1014.51,273.59,83.1,6.9,9.94,11.69,-30.95,124.15,80.81,257.59,314.04,126.91,80.22,257.33,313.72,0.0
2018-08-20 16:41:00,89.62062,31.79262,1014.479,273.59,83.1,7.1,10.11,11.93,-31.03,122.64,80.68,257.11,313.55,127.24,80.16,257.31,313.64,0.0
2018-08-20 16:41:00,89.62062,31.79263,1014.466,273.58,83.1,7.2,11.34,12.79,-30.99,123.56,80.74,256.69,314.41,127.58,80.12,257.34,313.54,0.0
2018-08-20 16:41:00,89.62062,31.79264,1014.472,273.58,83.1,7.2,11.24,13.64,-31.39,124.22,80.61,256.29,315.08,127.94,80.13,257.48,313.36,0.0
2018-08-20 16:41:00,89.62062,31.79264,1014.435,273.57,83.1,7.5,10.39,13.35,-30.94,123.23,80.74,255.65,312.72,128.34,80.16,257.6,313.11,0.0
2018-08-20 16:41:00,89.62062,31.79265,1014.424,273.57,83.1,7.6,10.99,13.81,-30.19,123.17,80.68,257.07,312.79,128.8,80.23,257.68,312.86,0.0
2018-08-20 16:41:00,89.62062,31.79266,1014.387,273.57,83.1,7.9,10.6,13.25,-29.95,124.54,80.61,257.1,313.0,129.34,80.31,257.76,312.76,0.0
2018-08-20 16:41:00,89.62062,31.79267,1014.35,273.56,83.1,8.1,9.69,12.92,-29.66,124.74,80.4,257.77,313.23,129.96,80.39,257.88,312.69,0.0
2018-08-20 16:41:00,89.62062,31.79268,1014.364,273.56,83.1,8.0,8.95,13.6,-28.97,124.15,80.54,258.61,313.93,130.66,80.47,258.04,312.54,0.0
2018-08-20 16:41:00,89.62062,31.7927,1014.341,273.56,83.2,8.2,7.61,12.81,-29.1,124.08,80.61,257.87,312.98,131.43,80.52,258.19,312.35,0.0
2018-08-20 16:41:00,89.62062,31.79272,1014.334,273.57,83.2,8.3,7.47,13.69,-28.44,125.46,80.81,258.55,312.59,132.24,80.54,258.47,312.43,0.0
2018-08-20 16:41:00,89.62062,31.79273,1014.322,273.57,83.2,8.4,6.69,13.71,-28.03,123.82,80.61,258.0,313.3,133.06,80.52,258.63,312.52,0.0
2018-08-20 16:41:00,89.62062,31.79275,1014.313,273.57,83.2,8.4,5.46,13.79,-27.44,123.95,80.61,258.32,312.98,133.86,80.47,258.8,312.58,0.0
2018-08-20 16:41:00,89.62062,31.79277,1014.304,273.57,83.2,8.5,4.87,14.18,-26.72,125.26,80.81,258.09,312.92,134.6,80.4,258.94,312.61,0.0
2018-08-20 16:41:00,89.62062,31.79278,1014.27,273.58,83.2,8.8,6.06,14.57,-26.3,127.03,80.54,257.75,313.05,135.24,80.3,258.96,312.63,0.0
2018-08-20 16:41:00,89.62062,31.7928,1014.275,273.58,83.2,8.7,4.48,14.79,-25.96,125.78,80.81,258.39,313.32,135.77,80.21,259.08,312.68,0.0
2018-08-20 16:41:00,89.62062,31.79282,1014.279,273.59,83.2,8.7,5.42,15.14,-25.36,126.18,80.4,258.47,313.28,136.17,80.11,259.15,312.72,0.0
2018-08-20 16:41:00,89.62062,31.79283,1014.272,273.59,83.2,8.8,5.72,15.2,-25.09,125.92,80.68,258.78,313.52,136.45,80.04,259.19,312.69,0.0
2018-08-20 16:41:00,89.62062,31.79285,1014.262,273.58,83.2,8.8,5.46,15.28,-24.81,126.96,80.4,258.82,313.2,136.63,79.97,259.18,312.65,0.0
2018-08-20 16:41:00,89.62062,31.79286,1014.263,273.57,83.2,8.8,5.38,15.55,-24.19,127.55,80.54,258.44,312.99,136.74,79.92,259.16,312.65,0.0
2018-08-20 16:41:00,89.62062,31.79288,1014.24,273.56,83.2,9.0,4.81,15.04,-23.85,126.7,80.61,259.0,313.37,136.81,79.88,259.22,312.68,0.0
2018-08-20 16:41:00,89.62062,31.7929,1014.203,273.56,83.3,9.3,5.32,15.4,-22.97,126.77,80.54,258.82,313.08,136.9,79.83,259.14,312.65,0.0
2018-08-20 16:41:00,89.62062,31.79291,1014.175,273.55,83.3,9.5,4.3,15.2,-22.39,127.55,80.4,258.88,312.7,137.03,79.77,259.06,312.61,0.0
2018-08-20 16:41:00,89.62062,31.79294,1014.156,273.55,83.3,9.7,3.01,14.82,-21.77,127.42,80.47,258.41,312.7,137.23,79.68,258.95,312.6,0.0
2018-08-20 16:41:00,89.62062,31.79297,1014.14,273.55,83.3,9.8,2.29,14.59,-21.09,128.66,80.47,258.46,313.52,137.52,79.57,258.85,312.67,0.0
2018-08-20 16:41:00,89.62062,31.793,1014.13,273.54,83.3,9.9,1.92,14.45,-20.91,128.6,80.47,259.32,314.01,137.89,79.43,258.88,312.86,0.0
2018-08-20 16:41:00,89.62062,31.79303,1014.114,273.54,83.3,10.0,1.26,13.65,-20.52,128.53,80.4,258.35,313.63,138.33,79.27,258.85,313.1,0.0
2018-08-20 16:41:00,89.62062,31.79306,1014.108,273.53,83.3,10.0,1.04,13.36,-20.33,129.58,80.4,258.29,313.53,138.81,79.11,258.79,313.24,0.0
2018-08-20 16:41:00,89.62062,31.79309,1014.111,273.53,83.3,10.0,1.3,13.01,-20.05,128.27,80.54,258.41,313.46,139.29,78.96,258.68,313.48,0.0
2018-08-20 16:41:00,89.62062,31.79312,1014.106,273.52,83.3,10.1,1.88,12.55,-19.79,128.73,80.33,258.23,314.27,139.73,78.84,258.58,313.77,0.0
2018-08-20 16:41:00,89.62062,31.79315,1014.074,273.52,83.3,10.3,2.52,12.2,-19.87,129.25,80.33,258.88,315.0,140.08,78.77,258.52,313.99,0.0
2018-08-20 16:41:00,89.62062,31.79318,1014.092,273.51,83.3,10.2,3.24,12.01,-20.24,129.78,80.19,258.58,315.1,140.31,78.74,258.45,314.16,0.0
2018-08-20 16:41:00,89.62062,31.79321,1014.07,273.51,83.3,10.3,4.58,12.15,-20.85,130.3,79.99,258.15,313.68,140.39,78.77,258.36,314.33,0.0
2018-08-20 16:41:00,89.62062,31.79324,1014.029,273.51,83.3,10.7,4.67,12.29,-21.61,131.22,79.99,257.15,313.84,140.33,78.84,258.23,314.49,0.0
2018-08-20 16:41:00,89.62062,31.79326,1013.992,273.5,83.4,11.0,4.29,12.49,-22.34,130.3,80.06,256.8,314.57,140.13,78.94,258.13,314.62,0.0
2018-08-20 16:41:00,89.62062,31.79329,1013.978,273.5,83.4,11.1,4.34,12.65,-23.03,131.15,80.12,257.76,315.31,139.8,79.06,258.06,314.68,0.0
2018-08-20 16:41:00,89.62062,31.79332,1014.005,273.49,83.4,10.9,4.3,12.08,-24.04,131.74,79.99,258.41,315.35,139.38,79.17,258.03,314.63,0.0
2018-08-20 16:41:00,89.62062,31.79334,1014.008,273.49,83.4,10.8,4.41,12.34,-24.59,130.82,80.12,257.74,315.2,138.9,79.25,258.07,314.55,0.0
2018-08-20 16:41:00,89.62062,31.79337,1013.984,273.48,83.4,11.0,4.87,12.55,-25.22,131.54,80.06,257.55,315.09,138.39,79.3,258.16,314.61,0.0
2018-08-20 16:41:00,89.62062,31.7934,1013.944,273.48,83.4,11.3,4.85,12.27,-25.88,131.54,80.12,257.5,314.84,137.89,79.29,258.25,314.6,0.0
2018-08-20 16:41:00,89.62062,31.79342,1013.91,273.48,83.4,11.6,4.52,11.94,-26.54,131.41,79.99,257.98,315.11,137.41,79.24,258.35,314.52,0.0
2018-08-20 16:41:00,89.62062,31.79345,1013.917,273.48,83.4,11.5,4.84,12.45,-27.06,132.59,79.92,259.07,314.68,136.96,79.14,258.47,314.49,0.0
2018-08-20 16:41:00,89.62062,31.79348,1013.888,273.48,83.4,11.8,5.63,11.51,-27.03,130.82,80.12,259.43,314.51,136.53,79.0,258.43,314.38,0.0
2018-08-20 16:41:00,89.62062,31.7935,1013.862,273.48,83.4,12.0,4.11,11.94,-26.79,133.44,79.92,259.24,314.53,136.12,78.83,258.58,314.36,0.0
2018-08-20 16:41:00,89.62062,31.79353,1013.847,273.48,83.4,12.1,4.23,11.73,-26.88,131.74,79.99,257.97,314.32,135.71,78.65,258.69,314.36,0.0
2018-08-20 16:41:00,89.62062,31.79355,1013.84,273.48,83.5,12.1,4.55,11.47,-27.19,132.2,79.78,257.69,313.97,135.29,78.47,258.73,314.35,0.0
2018-08-20 16:41:00,89.62062,31.79357,1013.83,273.47,83.5,12.2,2.91,12.17,-27.39,133.12,79.71,258.55,314.5,134.85,78.3,258.71,314.3,0.0
2018-08-20 16:41:00,89.62062,31.79359,1013.817,273.47,83.5,12.3,4.86,11.33,-27.38,131.54,79.71,257.71,313.74,134.4,78.14,258.6,314.19,0.0
2018-08-20 16:41:00,89.62062,31.79362,1013.802,273.47,83.5,12.4,4.09,12.29,-27.67,132.53,79.92,258.99,315.05,133.96,78.01,258.46,314.21,0.0
2018-08-20 16:41:00,89.62062,31.79364,1013.786,273.47,83.5,12.6,4.81,12.55,-27.72,132.13,79.71,258.56,315.04,133.55,77.89,258.4,314.1,0.0
2018-08-20 16:41:00,89.62062,31.79366,1013.767,273.47,83.5,12.7,5.26,12.55,-27.77,133.05,79.57,258.11,315.02,133.19,77.8,258.45,314.01,0.0
2018-08-20 16:41:00,89.62062,31.79368,1013.748,273.47,83.5,12.9,4.81,12.61,-28.02,132.59,79.71,257.85,314.66,132.94,77.73,258.48,313.94,0.0
2018-08-20 16:41:00,89.62062,31.7937,1013.749,273.47,83.5,12.9,5.01,12.51,-28.51,133.38,79.57,258.12,313.96,132.81,77.68,258.42,313.82,0.0
2018-08-20 16:41:00,89.62062,31.79372,1013.75,273.47,83.5,12.9,4.82,12.33,-29.26,131.54,79.57,258.23,314.82,132.82,77.65,258.53,313.77,0.0
2018-08-20 16:41:00,89.62062,31.79374,1013.707,273.46,83.6,13.2,5.16,12.04,-29.87,132.2,79.16,258.63,313.64,132.99,77.64,258.51,313.62,0.0
2018-08-20 16:41:00,89.62062,31.79376,1013.685,273.46,83.6,13.4,5.13,11.95,-30.41,132.0,79.57,258.83,312.93,133.29,77.66,258.56,313.54,0.0
2018-08-20 16:41:00,89.62062,31.79379,1013.694,273.46,83.6,13.3,4.59,11.88,-30.77,132.4,79.36,258.16,313.13,133.7,77.69,258.63,313.51,0.0
2018-08-20 16:41:00,89.62062,31.79381,1013.67,273.46,83.6,13.5,3.94,11.51,-30.83,133.12,79.3,258.11,312.81,134.17,77.74,258.64,313.48,0.0
2018-08-20 16:41:00,89.62062,31.79383,1013.629,273.46,83.6,13.8,4.31,11.74,-31.07,132.4,79.3,258.58,312.57,134.65,77.8,258.69,313.51,0.0
2018-08-20 16:41:00,89.62062,31.79385,1013.61,273.45,83.6,14.0,3.4,11.6,-31.47,133.12,79.16,258.54,312.79,135.08,77.87,258.78,313.45,0.0
2018-08-20 16:41:00,89.62062,31.79388,1013.61,273.45,83.6,14.0,3.58,11.54,-31.47,131.61,79.16,258.82,313.93,135.42,77.94,258.79,313.51,0.0
2018-08-20 16:41:00,89.62063,31.7939,1013.617,273.45,83.6,13.9,3.66,11.48,-31.33,133.31,79.16,258.68,315.09,135.64,78.01,258.79,313.64,0.0
2018-08-20 16:41:00,89.62063,31.79392,1013.615,273.45,83.6,13.9,2.84,11.33,-31.26,132.85,79.23,258.16,315.14,135.72,78.06,258.84,313.81,0.0
2018-08-20 16:41:00,89.62063,31.79394,1013.622,273.45,83.6,13.9,3.58,11.26,-30.91,133.31,79.16,258.82,315.16,135.67,78.1,258.87,314.04,0.0
2018-08-20 16:41:00,89.62063,31.79397,1013.575,273.45,83.6,14.2,3.92,11.15,-30.85,132.98,79.09,259.14,314.98,135.51,78.12,258.9,314.32,0.0
2018-08-20 16:41:00,89.62063,31.79399,1013.549,273.45,83.6,14.4,3.73,10.86,-30.65,132.66,79.16,258.95,315.05,135.28,78.12,258.96,314.63,0.0
2018-08-20 16:41:00,89.62063,31.79401,1013.542,273.45,83.6,14.5,3.79,10.59,-30.49,133.38,79.09,259.26,314.94,135.02,78.1,258.94,314.84,0.0
2018-08-20 16:41:00,89.62063,31.79404,1013.534,273.44,83.6,14.6,3.83,10.29,-30.6,133.7,79.09,259.25,315.05,134.76,78.06,258.92,314.96,0.0
2018-08-20 16:41:00,89.62063,31.79406,1013.506,273.44,83.6,14.8,2.93,9.74,-31.07,133.18,79.02,258.52,314.63,134.51,78.0,258.98,315.03,0.0
2018-08-20 16:41:00,89.62063,31.79408,1013.499,273.44,83.6,14.8,3.67,10.27,-31.06,133.05,78.95,258.88,314.91,134.3,77.92,258.89,315.03,0.0
2018-08-20 16:41:00,89.62063,31.7941,1013.492,273.44,83.7,14.9,4.07,9.8,-30.78,133.84,78.81,259.05,314.9,134.12,77.82,258.72,314.96,0.0
2018-08-20 16:41:00,89.62063,31.79413,1013.465,273.44,83.7,15.1,4.09,9.74,-30.61,132.98,78.95,258.45,314.86,133.94,77.7,258.59,314.77,0.0
2018-08-20 16:41:00,89.62063,31.79415,1013.437,273.44,83.7,15.3,4.45,9.85,-30.52,132.53,78.95,258.06,314.91,133.75,77.56,258.48,314.54,0.0
2018-08-20 16:41:00,89.62063,31.79417,1013.444,273.45,83.7,15.3,5.4,9.69,-30.34,132.98,78.88,259.08,314.68,133.5,77.41,258.37,314.3,0.0
2018-08-20 16:41:00,89.62063,31.79419,1013.439,273.44,83.7,15.3,4.22,10.35,-30.16,133.97,79.02,257.88,314.51,133.2,77.25,258.27,313.92,0.0
2018-08-20 16:41:00,89.62063,31.79421,1013.417,273.44,83.7,15.5,4.24,9.96,-29.91,133.38,78.74,257.88,314.6,132.84,77.07,258.19,313.74,0.0
2018-08-20 16:41:00,89.62063,31.79423,1013.415,273.44,83.7,15.5,3.68,10.17,-29.57,133.38,78.74,258.59,313.9,132.44,76.9,258.15,313.63,0.0
2018-08-20 16:41:00,89.62063,31.79425,1013.412,273.44,83.7,15.5,3.18,10.12,-29.38,133.12,78.68,258.95,314.11,132.03,76.75,258.15,313.59,0.0
2018-08-20 16:41:00,89.62063,31.79427,1013.383,273.44,83.7,15.7,3.02,9.55,-29.39,133.7,78.74,258.52,314.2,131.66,76.61,258.13,313.58,0.0
2018-08-20 16:41:00,89.62063,31.79429,1013.346,273.44,83.7,16.0,2.61,9.55,-29.27,133.18,78.47,258.61,312.78,131.39,76.51,258.12,313.55,0.0
2018-08-20 16:41:00,89.62063,31.79431,1013.344,273.43,83.7,16.0,2.75,9.54,-29.02,133.18,78.54,258.76,314.33,131.25,76.46,258.25,313.72,0.0
2018-08-20 16:41:00,89.62063,31.79434,1013.334,273.43,83.8,16.1,2.93,9.51,-28.81,132.98,78.4,259.29,314.66,131.27,76.44,258.34,313.8,0.0
2018-08-20 16:41:00,89.62063,31.79436,1013.32,273.43,83.8,16.2,2.74,9.71,-28.65,132.59,78.47,259.02,314.64,131.46,76.47,258.36,313.86,0.0
2018-08-20 16:41:00,89.62063,31.79438,1013.316,273.43,83.8,16.3,2.88,10.06,-28.43,132.98,78.4,258.4,313.98,131.79,76.54,258.39,313.86,0.0
2018-08-20 16:41:00,89.62063,31.7944,1013.339,273.43,83.8,16.1,4.28,10.26,-28.07,132.92,78.26,258.78,312.76,132.23,76.63,258.42,313.8,0.0
2018-08-20 16:41:00,89.62063,31.79442,1013.283,273.42,83.8,16.5,4.4,10.37,-28.1,132.53,78.33,259.37,314.83,132.71,76.73,258.42,313.77,0.0
2018-08-20 16:41:00,89.62063,31.79444,1013.245,273.42,83.8,16.8,5.36,10.4,-27.45,132.07,78.12,258.51,313.56,133.16,76.82,258.23,313.5,0.0
2018-08-20 16:41:00,89.62063,31.79446,1013.235,273.42,83.8,16.9,6.32,10.97,-27.15,133.57,78.26,258.24,313.23,133.53,76.89,258.09,313.19,0.0
2018-08-20 16:41:00,89.62063,31.79448,1013.237,273.41,83.8,16.9,6.92,11.57,-27.12,133.44,78.12,258.87,313.32,133.78,76.92,257.99,312.9,0.0
2018-08-20 16:41:00,89.62063,31.7945,1013.218,273.41,83.8,17.0,7.17,11.77,-27.04,132.13,78.12,259.45,313.58,133.89,76.91,257.87,312.7,0.0
2018-08-20 16:41:00,89.62063,31.79452,1013.196,273.41,83.8,17.2,7.48,12.49,-26.91,135.01,78.19,258.76,312.92,133.87,76.86,257.75,312.69,0.0
2018-08-20 16:41:00,89.62063,31.79454,1013.191,273.41,83.8,17.2,7.34,12.73,-26.6,131.81,78.12,257.74,312.82,133.79,76.78,257.58,312.56,0.0
2018-08-20 16:41:00,89.62063,31.79457,1013.185,273.4,83.8,17.3,7.49,13.17,-26.55,132.92,78.19,258.5,312.91,133.69,76.68,257.52,312.59,0.0
2018-08-20 16:41:00,89.62063,31.79459,1013.164,273.4,83.8,17.5,6.91,12.98,-26.45,132.79,78.12,258.12,312.93,133.65,76.57,257.47,312.7,0.0
2018-08-20 16:41:00,89.62063,31.7947,1013.132,273.4,83.8,17.7,5.81,12.28,-26.19,133.12,78.05,257.48,313.08,133.73,76.46,257.35,312.81,0.0
2018-08-20 16:41:00,89.62063,31.79491,1013.141,273.39,83.8,17.6,5.95,12.41,-25.93,134.56,77.85,257.4,313.04,133.98,76.38,257.21,312.9,0.0
2018-08-20 16:41:00,89.62063,31.79512,1013.114,273.4,83.9,17.8,5.65,11.88,-25.77,133.12,77.92,256.94,312.85,134.41,76.33,257.26,313.16,0.0
2018-08-20 16:41:00,89.62063,31.79534,1013.083,273.4,83.9,18.1,5.29,11.54,-25.38,133.18,77.71,257.36,312.67,134.98,76.31,257.38,313.41,0.0
2018-08-20 16:41:00,89.62063,31.79555,1013.067,273.4,83.9,18.2,4.87,11.56,-24.99,131.81,77.85,257.08,312.74,135.64,76.34,257.35,313.47,0.0
2018-08-20 16:41:00,89.62064,31.79576,1013.056,273.39,83.9,18.3,4.6,11.8,-24.56,132.79,77.78,256.6,312.27,136.32,76.39,257.28,313.39,0.0
2018-08-20 16:41:00,89.62064,31.79598,1013.015,273.39,83.9,18.6,4.65,11.98,-24.06,132.4,77.78,256.43,312.06,136.93,76.47,257.3,313.29,0.0
2018-08-20 16:41:00,89.62064,31.79619,1012.997,273.39,83.9,18.8,4.84,11.78,-23.95,134.88,77.64,257.96,314.14,137.4,76.55,257.37,313.31,0.0
2018-08-20 16:41:00,89.62064,31.7964,1012.987,273.39,83.9,18.8,4.62,12.23,-24.11,133.57,77.71,257.93,314.29,137.66,76.64,257.43,313.28,0.0
2018-08-20 16:41:00,89.62064,31.79661,1012.989,273.39,83.9,18.8,4.86,12.11,-24.55,133.44,77.78,257.16,313.42,137.7,76.72,257.53,313.28,0.0
2018-08-20 16:41:00,89.62064,31.79682,1012.98,273.38,83.9,18.9,4.79,11.69,-25.04,134.42,77.64,256.85,312.36,137.55,76.78,257.64,313.32,0.0
2018-08-20 16:41:00,89.62064,31.79704,1012.943,273.38,83.9,19.2,4.25,11.45,-25.45,134.36,77.71,257.2,313.4,137.25,76.81,257.76,313.38,0.0
2018-08-20 16:41:00,89.62064,31.79721,1012.925,273.38,83.9,19.3,4.48,11.71,-25.9,133.97,77.36,258.02,314.78,136.9,76.83,257.92,313.41,0.0
2018-08-20 16:41:00,89.62064,31.79733,1012.938,273.38,83.9,19.2,4.0,11.71,-26.28,134.1,77.71,257.46,314.22,136.58,76.82,257.9,313.33,0.0
2018-08-20 16:41:00,89.62064,31.79744,1012.922,273.38,83.9,19.4,3.86,11.11,-26.45,134.29,77.64,258.36,314.23,136.38,76.79,257.95,313.34,0.0
2018-08-20 16:41:00,89.62064,31.79756,1012.906,273.38,83.9,19.5,3.4,10.77,-26.93,133.77,77.64,258.38,313.98,136.37,76.75,258.1,313.47,0.0
2018-08-20 16:41:00,89.62064,31.79768,1012.904,273.38,84.0,19.5,3.01,10.85,-27.65,134.69,77.64,257.68,313.34,136.57,76.69,258.28,313.68,0.0
2018-08-20 16:41:00,89.62064,31.79779,1012.882,273.38,84.0,19.7,3.5,10.99,-28.19,134.1,77.3,257.97,312.34,136.98,76.63,258.42,313.82,0.0
2018-08-20 16:41:00,89.62064,31.79791,1012.87,273.37,84.0,19.8,2.82,10.88,-28.66,134.29,77.43,257.4,312.2,137.54,76.56,258.45,313.7,0.0
2018-08-20 16:41:00,89.62064,31.79803,1012.854,273.37,84.0,19.9,2.52,10.76,-29.04,132.98,77.43,257.84,312.82,138.17,76.48,258.43,313.42,0.0
2018-08-20 16:41:00,89.62064,31.79814,1012.834,273.37,84.0,20.1,1.96,10.65,-29.28,134.29,77.64,257.82,313.34,138.78,76.41,258.41,313.2,0.0
2018-08-20 16:41:00,89.62064,31.79826,1012.813,273.36,84.0,20.2,1.36,10.57,-29.42,134.95,77.43,258.27,313.72,139.28,76.33,258.46,313.11,0.0
2018-08-20 16:41:00,89.62064,31.79838,1012.796,273.36,84.0,20.4,1.11,10.55,-29.54,134.49,77.43,258.5,314.01,139.58,76.24,258.57,313.11,0.0
2018-08-20 16:41:00,89.62064,31.7985,1012.79,273.36,84.0,20.4,1.28,10.78,-29.7,135.67,77.36,258.24,313.21,139.65,76.16,258.62,313.14,0.0
2018-08-20 16:41:00,89.62064,31.79861,1012.772,273.36,84.0,20.5,0.96,10.95,-29.51,135.14,77.23,257.14,311.82,139.47,76.09,258.76,313.27,0.0
2018-08-20 16:41:00,89.62064,31.79872,1012.76,273.35,84.0,20.6,1.18,11.13,-29.16,135.73,77.36,257.8,312.35,139.06,76.02,258.82,313.17,0.0
2018-08-20 16:41:00,89.62064,31.79883,1012.762,273.35,84.0,20.6,1.38,11.15,-28.66,136.26,77.23,258.7,313.72,138.49,75.96,258.88,313.04,0.0
2018-08-20 16:41:00,89.62064,31.79894,1012.769,273.35,84.0,20.6,1.25,11.08,-28.17,134.95,77.3,258.83,314.23,137.84,75.92,258.93,312.95,0.0
2018-08-20 16:41:00,89.62064,31.79905,1012.736,273.36,84.0,20.8,1.06,11.24,-27.92,135.01,77.09,258.82,313.38,137.17,75.9,258.92,312.79,0.0
2018-08-20 16:41:00,89.62064,31.79916,1012.714,273.35,84.0,21.0,0.81,11.28,-27.58,134.95,77.23,259.3,314.24,136.58,75.89,258.93,312.78,0.0
2018-08-20 16:41:00,89.62064,31.79927,1012.69,273.35,84.0,21.2,0.96,11.26,-27.01,135.14,77.02,258.86,312.35,136.1,75.9,259.0,312.97,0.0
2018-08-20 16:41:00,89.62064,31.79938,1012.671,273.35,84.0,21.3,1.24,11.48,-26.6,135.8,77.09,259.02,311.88,135.76,75.91,258.93,313.1,0.0
2018-08-20 16:41:00,89.62065,31.79949,1012.669,273.35,84.1,21.4,1.4,11.5,-26.45,135.28,77.16,259.01,312.23,135.56,75.93,258.8,313.13,0.0
2018-08-20 16:41:00,89.62065,31.7996,1012.689,273.35,84.1,21.2,1.35,10.9,-26.51,135.14,77.09,258.69,311.86,135.47,75.95,258.72,313.12,0.0
2018-08-20 16:41:00,89.62065,31.79971,1012.666,273.36,84.1,21.4,1.83,10.93,-26.72,135.67,76.95,258.62,312.52,135.45,75.96,258.65,313.18,0.0
2018-08-20 16:41:00,89.62065,31.79982,1012.634,273.36,84.1,21.6,1.95,10.81,-27.01,135.6,77.02,258.88,313.15,135.45,75.96,258.54,313.16,0.0
2018-08-20 16:41:00,89.62065,31.79993,1012.622,273.36,84.1,21.7,2.28,10.71,-27.27,135.28,77.02,258.12,313.88,135.43,75.95,258.48,313.34,0.0
2018-08-20 16:41:00,89.62065,31.80003,1012.626,273.36,84.1,21.7,2.48,10.39,-27.32,135.14,76.81,258.28,314.1,135.35,75.92,258.42,313.56,0.0
2018-08-20 16:41:00,89.62065,31.80014,1012.622,273.35,84.1,21.7,2.32,9.86,-27.25,135.47,76.95,258.96,314.3,135.21,75.88,258.34,313.73,0.0
2018-08-20 16:41:00,89.62065,31.80024,1012.592,273.35,84.1,22.0,2.3,10.07,-27.81,135.73,76.74,258.74,314.62,135.01,75.83,258.23,313.85,0.0
2018-08-20 16:41:00,89.62065,31.80034,1012.563,273.35,84.1,22.2,2.33,10.2,-28.13,135.86,77.02,258.44,314.49,134.77,75.78,258.27,314.02,0.0
2018-08-20 16:41:00,89.62065,31.80044,1012.541,273.35,84.2,22.4,1.97,10.44,-28.45,134.88,76.88,258.57,314.39,134.52,75.74,258.33,314.14,0.0
2018-08-20 16:41:00,89.62065,31.80054,1012.532,273.35,84.2,22.4,1.81,10.64,-28.66,135.14,76.88,258.48,314.59,134.28,75.7,258.39,314.21,0.0
2018-08-20 16:41:00,89.62065,31.80064,1012.53,273.35,84.2,22.4,1.89,10.74,-28.73,135.54,76.88,258.32,314.04,134.09,75.68,258.41,314.23,0.0
2018-08-20 16:41:00,89.62065,31.80075,1012.509,273.35,84.2,22.6,1.83,10.71,-28.72,134.82,76.6,257.19,312.48,133.95,75.67,258.34,314.2,0.0
2018-08-20 16:41:00,89.62065,31.80085,1012.493,273.35,84.2,22.7,2.09,11.05,-28.23,135.14,76.6,258.72,314.13,133.88,75.67,258.29,314.11,0.0
2018-08-20 16:41:00,89.62065,31.80095,1012.488,273.35,84.2,22.8,2.13,10.71,-27.99,135.47,76.54,259.03,314.18,133.86,75.68,258.31,314.05,0.0
2018-08-20 16:41:00,89.62065,31.80105,1012.479,273.35,84.2,22.8,2.19,10.73,-27.75,135.34,76.88,258.26,313.85,133.88,75.69,258.27,313.94,0.0
2018-08-20 16:41:00,89.62065,31.80115,1012.471,273.35,84.2,22.9,2.4,11.01,-27.4,135.28,76.67,258.03,314.3,133.94,75.7,258.23,313.83,0.0
2018-08-20 16:41:00,89.62065,31.80126,1012.479,273.34,84.2,22.8,2.75,11.18,-26.93,134.82,76.67,258.28,314.14,134.01,75.7,258.26,313.78,0.0
2018-08-20 16:41:00,89.62065,31.80136,1012.487,273.35,84.2,22.8,2.87,11.31,-26.84,134.88,76.54,257.98,313.58,134.08,75.68,258.3,313.8,0.0
2018-08-20 16:41:00,89.62065,31.80139,1012.453,273.34,84.2,23.1,3.37,11.62,-26.73,134.95,76.47,258.89,314.12,134.15,75.65,258.2,313.69,0.0
2018-08-20 16:41:00,89.62065,31.80139,1012.434,273.34,84.2,23.2,3.9,11.64,-26.64,135.01,76.6,258.28,313.84,134.21,75.61,258.12,313.6,0.0
2018-08-20 16:41:00,89.62065,31.80139,1012.418,273.34,84.2,23.3,4.26,11.61,-26.53,135.14,76.6,258.64,313.68,134.26,75.55,258.1,313.51,0.0
2018-08-20 16:41:00,89.62065,31.80139,1012.392,273.34,84.2,23.5,4.36,11.59,-26.45,134.62,76.54,259.08,313.7,134.3,75.49,258.11,313.44,0.0
2018-08-20 16:41:00,89.62065,31.80139,1012.38,273.34,84.2,23.6,4.26,11.37,-26.5,136.52,76.47,258.14,313.22,134.32,75.42,258.16,313.39,0.0
2018-08-20 16:41:00,89.62065,31.80139,1012.389,273.34,84.2,23.6,4.54,11.27,-26.43,134.36,76.54,258.23,313.45,134.32,75.35,258.27,313.44,0.0
2018-08-20 16:41:00,89.62065,31.80139,1012.393,273.33,84.2,23.5,4.23,11.25,-26.29,133.9,76.33,258.29,313.37,134.28,75.28,258.29,313.47,0.0
2018-08-20 16:41:00,89.62065,31.80139,1012.38,273.33,84.3,23.6,4.03,11.14,-26.19,134.88,76.4,258.14,313.59,134.21,75.23,258.34,313.48,0.0
2018-08-20 16:41:00,89.62065,31.80139,1012.355,273.33,84.3,23.8,4.02,10.93,-26.13,134.82,76.4,258.24,313.4,134.09,75.18,258.36,313.45,0.0
2018-08-20 16:41:00,89.62066,31.80139,1012.334,273.32,84.3,24.0,3.96,10.73,-26.02,135.8,76.4,258.53,313.4,133.95,75.14,258.32,313.37,0.0
2018-08-20 16:41:00,89.62066,31.8014,1012.316,273.32,84.3,24.1,3.81,11.08,-25.47,134.36,76.19,259.04,314.36,133.79,75.11,258.36,313.21,0.0
2018-08-20 16:41:00,89.62066,31.80141,1012.306,273.32,84.3,24.2,3.99,11.26,-25.02,135.93,76.26,259.03,314.3,133.65,75.09,258.37,313.14,0.0
2018-08-20 16:41:00,89.62066,31.80145,1012.299,273.32,84.3,24.3,3.84,11.02,-24.55,133.9,76.26,258.8,313.8,133.57,75.07,258.44,313.2,0.0
2018-08-20 16:41:00,89.62066,31.80149,1012.285,273.32,84.3,24.4,3.54,10.96,-24.24,134.88,76.19,258.7,313.16,133.6,75.07,258.52,313.29,0.0
2018-08-20 16:41:00,89.62066,31.80152,1012.256,273.32,84.3,24.6,3.33,11.31,-24.06,134.69,76.19,258.46,312.79,133.78,75.07,258.51,313.32,0.0
2018-08-20 16:41:00,89.62066,31.80156,1012.223,273.32,84.3,24.9,3.23,11.01,-23.31,135.01,76.19,258.36,311.45,134.15,75.09,258.38,313.29,0.0
2018-08-20 16:41:00,89.62066,31.8016,1012.214,273.32,84.3,24.9,3.71,12.02,-22.5,134.16,76.19,258.38,312.36,134.73,75.11,258.35,313.3,0.0
2018-08-20 16:41:00,89.62066,31.80164,1012.205,273.32,84.3,25.0,3.99,11.6,-21.49,135.14,76.05,259.23,313.76,135.51,75.15,258.3,313.24,0.0
2018-08-20 16:41:00,89.62066,31.80168,1012.191,273.32,84.3,25.1,4.61,11.85,-20.46,134.29,76.05,259.18,313.87,136.47,75.19,258.27,313.24,0.0
2018-08-20 16:41:00,89.62066,31.80171,1012.173,273.31,84.4,25.3,5.48,13.09,-19.51,134.36,76.05,258.19,313.35,137.55,75.24,258.25,313.3,0.0
2018-08-20 16:41:00,89.62066,31.80175,1012.163,273.31,84.4,25.3,5.07,12.58,-18.79,134.56,75.98,257.3,312.68,138.7,75.29,258.25,313.39,0.0
2018-08-20 16:41:00,89.62066,31.80179,1012.181,273.31,84.4,25.2,5.22,13.06,-18.02,134.16,76.12,258.51,313.8,139.84,75.32,258.26,313.62,0.0
2018-08-20 16:41:00,89.62066,31.80183,1012.162,273.31,84.4,25.3,5.22,12.89,-17.33,136.39,76.05,258.54,313.86,140.91,75.35,258.27,313.77,0.0
2018-08-20 16:41:00,89.62066,31.80184,1012.144,273.31,84.4,25.5,5.75,13.07,-16.63,135.08,75.78,258.42,313.68,141.85,75.35,258.28,313.83,0.0
2018-08-20 16:41:00,89.62066,31.80185,1012.133,273.31,84.4,25.6,6.42,13.21,-15.92,135.41,75.98,258.57,314.6,142.63,75.33,258.29,313.89,0.0
2018-08-20 16:41:00,89.62066,31.80186,1012.098,273.31,84.4,25.8,6.61,12.76,-15.16,135.86,76.19,258.33,314.51,143.24,75.29,258.33,314.03,0.0
2018-08-20 16:41:00,89.62066,31.80188,1012.094,273.31,84.4,25.9,6.76,12.75,-14.3,135.41,75.84,258.43,314.49,143.69,75.22,258.46,314.22,0.0
2018-08-20 16:41:00,89.62066,31.80189,1012.089,273.31,84.4,25.9,6.93,12.44,-13.58,137.04,75.91,258.46,314.21,144.01,75.14,258.48,314.25,0.0
2018-08-20 16:41:00,89.62066,31.8019,1012.077,273.31,84.4,26.0,6.84,12.08,-13.0,136.26,75.91,259.03,314.66,144.24,75.05,258.47,314.27,0.0
2018-08-20 16:41:00,89.62066,31.80191,1012.05,273.31,84.4,26.2,6.51,11.78,-12.41,135.73,75.91,258.94,314.66,144.43,74.96,258.45,314.27,0.0
2018-08-20 16:41:00,89.62066,31.80192,1012.008,273.31,84.4,26.6,5.98,11.54,-11.84,136.85,75.98,258.35,314.45,144.61,74.88,258.43,314.23,0.0
2018-08-20 16:41:00,89.62066,31.80193,1011.99,273.31,84.4,26.7,5.34,11.18,-11.59,137.3,75.84,258.36,314.53,144.8,74.8,258.39,314.14,0.0
2018-08-20 16:41:00,89.62066,31.80194,1011.99,273.32,84.4,26.7,4.57,11.31,-10.96,137.37,75.78,258.67,314.16,145.02,74.75,258.41,314.07,0.0
2018-08-20 16:41:00,89.62066,31.80196,1011.964,273.32,84.5,26.9,4.19,11.19,-9.93,137.44,75.71,258.54,313.57,145.25,74.7,258.38,313.93,0.0
2018-08-20 16:41:00,89.62066,31.80197,1011.949,273.32,84.5,27.0,3.9,11.23,-8.91,137.37,75.78,258.05,313.65,145.5,74.67,258.28,313.76,0.0
2018-08-20 16:41:00,89.62066,31.80197,1011.951,273.31,84.5,27.0,3.8,11.35,-7.9,137.44,75.64,258.16,313.71,145.72,74.65,258.2,313.57,0.0
2018-08-20 16:41:00,89.62066,31.80197,1011.916,273.32,84.5,27.3,4.09,11.2,-6.68,137.7,75.71,258.19,313.32,145.91,74.63,258.22,313.41,0.0
2018-08-20 16:41:00,89.62066,31.80196,1011.886,273.31,84.5,27.5,3.92,10.89,-5.89,137.56,75.71,258.87,313.86,146.06,74.61,258.3,313.32,0.0
2018-08-20 16:41:00,89.62065,31.80196,1011.876,273.31,84.5,27.6,4.04,10.38,-4.54,139.07,75.57,258.52,313.3,146.16,74.59,258.31,313.24,0.0
2018-08-20 16:41:00,89.62065,31.80195,1011.874,273.31,84.5,27.6,4.13,10.28,-3.24,138.15,75.64,258.09,313.14,146.24,74.56,258.38,313.14,0.0
2018-08-20 16:41:00,89.62065,31.80194,1011.876,273.31,84.5,27.6,4.19,10.3,-2.09,140.31,75.5,258.22,313.23,146.32,74.54,258.43,313.04,0.0
2018-08-20 16:41:00,89.62065,31.80194,1011.875,273.31,84.5,27.6,4.3,10.21,-1.1,138.02,75.71,258.5,313.29,146.43,74.53,258.43,312.93,0.0
2018-08-20 16:41:00,89.62065,31.80193,1011.848,273.3,84.5,27.8,4.47,10.52,-0.36,138.74,75.5,258.91,313.94,146.59,74.53,258.4,312.76,0.0
2018-08-20 16:41:00,89.62065,31.80193,1011.804,273.31,84.5,28.2,4.49,10.47,0.3,139.53,75.71,258.47,313.46,146.83,74.55,258.39,312.67,0.0
2018-08-20 16:41:00,89.62065,31.80192,1011.787,273.31,84.5,28.3,4.97,10.5,0.5,139.72,75.5,258.5,312.52,147.13,74.59,258.43,312.64,0.0
2018-08-20 16:41:00,89.62065,31.80192,1011.783,273.31,84.5,28.3,5.52,10.7,0.55,139.92,75.5,258.14,312.2,147.49,74.64,258.46,312.62,0.0
2018-08-20 16:41:00,89.62065,31.80191,1011.774,273.31,84.5,28.4,5.97,10.93,0.55,139.07,75.16,257.25,312.35,147.88,74.71,258.5,312.63,0.0
2018-08-20 16:41:00,89.62065,31.80192,1011.756,273.31,84.5,28.5,6.42,10.86,0.3,139.66,75.22,257.09,311.02,148.25,74.77,258.54,312.65,0.0
2018-08-20 16:41:00,89.62065,31.80193,1011.754,273.3,84.5,28.5,6.11,11.2,-0.08,140.18,75.5,258.05,312.6,148.56,74.82,258.44,312.54,0.0
2018-08-20 16:41:00,89.62065,31.80195,1011.732,273.31,84.5,28.7,5.87,10.73,-0.64,141.3,75.36,258.34,313.04,148.75,74.86,258.48,312.57,0.0
2018-08-20 16:41:00,89.62065,31.80196,1011.707,273.31,84.5,28.9,5.3,10.98,-1.14,140.44,75.5,258.43,313.25,148.82,74.87,258.55,312.7,0.0
2018-08-20 16:41:00,89.62065,31.80198,1011.698,273.31,84.5,29.0,4.9,11.33,-1.62,140.38,75.5,258.94,313.63,148.73,74.85,258.62,312.85,0.0
2018-08-20 16:41:00,89.62064,31.80199,1011.717,273.31,84.6,28.8,4.88,11.12,-2.15,141.62,75.36,259.45,313.99,148.51,74.79,258.71,313.02,0.0
2018-08-20 16:41:00,89.62064,31.80201,1011.688,273.31,84.6,29.1,3.79,11.42,-2.57,142.08,75.43,258.32,313.42,148.18,74.72,258.82,313.27,0.0
2018-08-20 16:41:00,89.62064,31.80202,1011.679,273.31,84.6,29.1,3.52,11.29,-3.02,141.49,75.29,259.38,313.88,147.78,74.63,258.7,313.29,0.0
2018-08-20 16:41:00,89.62064,31.80204,1011.657,273.31,84.6,29.3,3.75,11.34,-3.52,141.1,75.29,259.49,313.98,147.37,74.53,258.68,313.32,0.0
2018-08-20 16:41:00,89.62064,31.80206,1011.636,273.31,84.6,29.5,4.15,11.38,-4.02,142.28,75.29,259.14,313.97,146.98,74.45,258.71,313.37,0.0
2018-08-20 16:41:00,89.62064,31.80207,1011.628,273.31,84.6,29.5,4.6,11.4,-4.41,141.43,75.29,258.45,313.67,146.66,74.38,258.59,313.35,0.0
2018-08-20 16:41:00,89.62064,31.80209,1011.62,273.31,84.6,29.6,5.13,11.63,-4.6,142.67,75.29,258.39,313.84,146.42,74.33,258.3,313.2,0.0
2018-08-20 16:41:00,89.62064,31.8021,1011.6,273.31,84.6,29.8,5.74,11.52,-5.09,141.69,75.22,256.7,312.57,146.25,74.31,258.28,313.16,0.0
2018-08-20 16:41:00,89.62064,31.80212,1011.602,273.31,84.6,29.7,5.53,11.65,-5.62,141.49,75.09,257.73,313.12,146.14,74.31,258.1,313.01,0.0
2018-08-20 16:41:00,89.62064,31.80215,1011.616,273.31,84.6,29.6,5.8,11.72,-6.36,141.82,75.09,258.35,313.54,146.05,74.33,257.93,312.79,0.0
2018-08-20 16:41:00,89.62064,31.8022,1011.618,273.32,84.6,29.6,6.41,11.6,-7.25,143.32,75.16,257.42,313.31,145.94,74.35,257.82,312.58,0.0
2018-08-20 16:41:00,89.62064,31.80224,1011.575,273.32,84.6,30.0,6.39,11.35,-8.03,142.6,75.29,256.5,312.9,145.77,74.37,257.73,312.39,0.0
2018-08-20 16:41:00,89.62064,31.80228,1011.552,273.33,84.6,30.1,6.62,11.57,-8.75,141.82,75.09,258.83,313.36,145.52,74.39,257.58,312.2,0.0
2018-08-20 16:41:00,89.62064,31.80233,1011.527,273.33,84.6,30.3,6.53,11.32,-9.98,142.8,75.09,258.38,312.63,145.17,74.39,257.68,312.31,0.0
2018-08-20 16:41:00,89.62064,31.80237,1011.522,273.33,84.6,30.4,5.88,11.33,-11.29,142.87,74.95,258.75,312.23,144.73,74.39,257.63,312.3,0.0
2018-08-20 16:41:00,89.62064,31.80242,1011.52,273.32,84.6,30.4,5.27,11.37,-12.54,142.87,75.09,258.88,311.93,144.24,74.38,257.53,312.21,0.0
2018-08-20 16:41:00,89.62064,31.80246,1011.494,273.33,84.6,30.6,5.1,11.26,-13.71,143.0,75.22,258.47,311.93,143.72,74.37,257.56,312.16,0.0
2018-08-20 16:41:00,89.62064,31.8025,1011.483,273.33,84.6,30.7,4.81,11.63,-14.64,143.0,74.95,257.68,311.93,143.22,74.37,257.71,312.16,0.0
2018-08-20 16:41:00,89.62064,31.80255,1011.482,273.32,84.6,30.7,5.02,11.73,-15.25,142.87,75.16,258.53,313.79,142.79,74.38,257.69,312.1,0.0
2018-08-20 16:41:00,89.62064,31.8026,1011.464,273.32,84.6,30.8,5.38,11.66,-16.06,142.47,75.09,257.84,312.35,142.45,74.42,257.72,312.08,0.0
2018-08-20 16:41:00,89.62064,31.8027,1011.445,273.32,84.6,31.0,5.47,11.54,-16.79,142.28,74.95,257.23,311.53,142.23,74.47,257.66,312.06,0.0
2018-08-20 16:41:00,89.62063,31.8028,1011.432,273.32,84.6,31.1,5.44,11.58,-17.17,142.02,74.67,257.18,311.89,142.12,74.55,257.56,312.04,0.0
2018-08-20 16:41:00,89.62063,31.8029,1011.396,273.31,84.6,31.4,5.96,11.91,-17.07,143.19,74.88,257.05,311.47,142.1,74.65,257.51,312.06,0.0
2018-08-20 16:41:00,89.62063,31.803,1011.387,273.31,84.7,31.4,6.19,11.65,-17.16,142.54,74.95,257.49,311.6,142.14,74.75,257.49,312.13,0.0
2018-08-20 16:41:00,89.62063,31.8031,1011.376,273.31,84.7,31.5,6.12,12.12,-17.32,143.26,75.02,257.46,311.99,142.19,74.86,257.39,312.04,0.0
2018-08-20 16:41:00,89.62063,31.8032,1011.374,273.31,84.7,31.5,6.53,12.24,-17.75,141.95,75.09,256.96,311.57,142.24,74.97,257.35,312.05,0.0
2018-08-20 16:41:00,89.62063,31.8033,1011.379,273.31,84.7,31.5,6.73,12.17,-18.3,142.67,74.95,257.04,311.24,142.24,75.08,257.36,312.1,0.0
2018-08-20 16:41:00,89.62063,31.8034,1011.375,273.3,84.7,31.5,6.24,12.31,-18.74,142.74,74.95,257.48,311.9,142.17,75.19,257.4,312.19,0.0
2018-08-20 16:41:00,89.62063,31.80349,1011.364,273.3,84.7,31.6,7.2,12.48,-18.72,142.54,74.88,256.77,312.46,142.05,75.29,257.52,312.45,0.0
2018-08-20 16:41:00,89.62063,31.80359,1011.32,273.3,84.7,32.0,7.16,12.8,-18.9,142.6,75.02,257.26,311.85,141.88,75.38,257.58,312.61,0.0
2018-08-20 16:41:00,89.62063,31.80369,1011.289,273.3,84.7,32.2,6.97,12.96,-19.06,142.74,75.16,257.28,311.89,141.68,75.47,257.68,312.8,0.0
2018-08-20 16:41:00,89.62063,31.80379,1011.294,273.29,84.7,32.2,7.08,13.11,-19.01,142.74,74.95,257.36,312.09,141.49,75.54,257.83,312.99,0.0
2018-08-20 16:41:00,89.62063,31.80384,1011.326,273.29,84.7,31.9,7.44,13.4,-18.78,142.28,74.88,257.96,312.21,141.34,75.6,257.99,313.12,0.0
2018-08-20 16:41:00,89.62063,31.80386,1011.25,273.29,84.7,32.5,7.16,13.74,-18.72,142.87,75.09,258.63,314.4,141.24,75.63,258.12,313.19,0.0
2018-08-20 16:41:00,89.62063,31.80388,1011.256,273.3,84.7,32.5,7.5,13.54,-18.32,141.95,75.02,258.63,313.14,141.21,75.63,258.28,313.33,0.0
2018-08-20 16:41:00,89.62063,31.8039,1011.253,273.29,84.7,32.5,7.13,13.45,-18.11,142.15,75.16,258.56,313.9,141.24,75.59,258.41,313.49,0.0
2018-08-20 16:41:00,89.62063,31.80392,1011.251,273.28,84.7,32.5,6.64,13.35,-18.0,142.87,75.02,258.51,313.64,141.31,75.5,258.57,313.64,0.0
2018-08-20 16:41:00,89.62063,31.80393,1011.241,273.29,84.7,32.6,6.18,13.19,-17.82,141.69,75.02,258.4,313.18,141.4,75.37,258.73,313.8,0.0
2018-08-20 16:41:00,89.62063,31.80395,1011.194,273.28,84.7,33.0,5.66,12.97,-17.42,142.02,75.16,258.32,313.24,141.48,75.2,258.81,313.92,0.0
2018-08-20 16:41:00,89.62063,31.80397,1011.209,273.28,84.7,32.8,4.95,12.81,-17.07,142.8,75.29,257.96,314.28,141.52,75.01,258.78,313.77,0.0
2018-08-20 16:41:00,89.62063,31.80399,1011.2,273.27,84.7,32.9,4.98,13.01,-15.96,142.8,75.02,258.04,314.57,141.5,74.8,258.81,313.83,0.0
2018-08-20 16:41:00,89.62063,31.80401,1011.179,273.27,84.7,33.1,5.08,12.87,-15.17,142.47,75.36,258.26,314.22,141.42,74.61,258.72,313.72,0.0
2018-08-20 16:41:00,89.62063,31.80402,1011.171,273.27,84.7,33.1,5.16,12.71,-14.52,141.56,74.95,258.5,314.2,141.27,74.44,258.61,313.62,0.0
2018-08-20 16:41:00,89.62063,31.80404,1011.195,273.27,84.8,32.9,5.39,12.79,-13.77,141.56,75.16,258.44,313.86,141.08,74.31,258.54,313.65,0.0
2018-08-20 16:41:00,89.62063,31.80405,1011.146,273.26,84.8,33.3,6.22,12.55,-13.48,143.0,75.09,258.04,312.48,140.87,74.24,258.42,313.66,0.0
2018-08-20 16:41:00,89.62063,31.80403,1011.157,273.26,84.8,33.2,6.32,12.19,-12.6,143.19,74.88,258.67,313.77,140.69,74.23,258.44,313.57,0.0
2018-08-20 16:41:00,89.62063,31.80401,1011.148,273.26,84.8,33.3,6.18,12.05,-11.94,141.62,74.74,257.93,312.87,140.56,74.27,258.41,313.45,0.0
2018-08-20 16:41:00,89.62063,31.80399,1011.112,273.26,84.8,33.6,6.02,11.95,-11.61,141.3,74.88,257.99,312.42,140.51,74.36,258.37,313.35,0.0
2018-08-20 16:41:00,89.62063,31.80397,1011.071,273.25,84.8,33.9,5.69,11.81,-11.74,141.69,74.95,258.32,313.44,140.56,74.48,258.39,313.28,0.0
2018-08-20 16:41:00,89.62063,31.80395,1011.09,273.25,84.8,33.8,4.7,11.72,-12.61,142.41,74.95,258.12,313.53,140.73,74.62,258.46,313.28,0.0
2018-08-20 16:41:00,89.62063,31.80394,1011.058,273.25,84.8,34.0,4.81,12.05,-13.71,142.21,74.88,259.3,313.58,141.0,74.75,258.59,313.42,0.0
2018-08-20 16:41:00,89.62063,31.80392,1011.043,273.26,84.8,34.1,5.21,12.12,-13.8,141.82,74.95,258.75,313.67,141.36,74.87,258.63,313.39,0.0
2018-08-20 16:41:00,89.62063,31.8039,1011.034,273.26,84.8,34.2,5.48,11.77,-13.21,142.34,75.09,258.69,313.61,141.78,74.97,258.78,313.53,0.0
2018-08-20 16:41:00,89.62063,31.80388,1011.018,273.26,84.8,34.3,5.55,11.31,-12.39,141.43,74.95,258.74,313.92,142.21,75.04,258.93,313.68,0.0
2018-08-20 16:41:00,89.62063,31.80386,1010.985,273.26,84.8,34.6,5.49,11.06,-11.76,141.56,75.02,259.33,314.28,142.63,75.09,258.99,313.69,0.0
2018-08-20 16:41:00,89.62062,31.80384,1010.96,273.27,84.8,34.8,5.39,10.56,-11.43,141.3,74.95,259.08,314.28,143.01,75.11,259.05,313.69,0.0
2018-08-20 16:41:00,89.62062,31.80382,1010.961,273.26,84.8,34.8,4.49,10.88,-11.3,142.6,74.95,258.6,313.14,143.31,75.11,258.98,313.67,0.0
2018-08-20 16:41:00,89.62062,31.80381,1010.959,273.26,84.8,34.8,4.12,10.88,-10.96,142.47,74.74,258.51,313.75,143.53,75.1,258.95,313.58,0.0
2018-08-20 16:41:00,89.62062,31.80381,1010.951,273.26,84.8,34.9,3.82,10.8,-10.59,141.69,74.95,258.5,313.62,143.66,75.08,258.87,313.39,0.0
2018-08-20 16:41:00,89.62062,31.80381,1010.944,273.26,84.8,34.9,3.48,10.98,-10.28,142.87,75.16,258.47,312.87,143.71,75.05,258.7,313.19,0.0
2018-08-20 16:41:00,89.62062,31.80381,1010.914,273.26,84.9,35.2,3.89,11.47,-9.94,142.21,74.74,258.38,312.86,143.7,75.02,258.5,313.15,0.0
2018-08-20 16:41:00,89.62062,31.8038,1010.889,273.26,84.9,35.4,5.08,11.43,-9.75,142.08,75.09,258.3,313.05,143.64,74.98,258.39,313.08,0.0
2018-08-20 16:41:00,89.62062,31.8038,1010.876,273.25,84.9,35.5,5.09,11.55,-9.85,141.88,75.02,258.94,312.71,143.56,74.93,258.34,313.12,0.0
2018-08-20 16:41:00,89.62062,31.8038,1010.858,273.25,84.9,35.6,5.57,11.8,-10.07,142.08,75.02,258.59,311.44,143.48,74.87,258.2,313.09,0.0
2018-08-20 16:41:00,89.62062,31.8038,1010.829,273.25,84.9,35.8,6.45,12.11,-10.5,142.6,74.88,258.28,312.0,143.4,74.81,258.09,313.06,0.0
2018-08-20 16:41:00,89.62062,31.8038,1010.801,273.25,84.9,36.0,6.7,12.39,-11.26,141.82,75.02,258.34,314.13,143.33,74.75,258.16,313.17,0.0
2018-08-20 16:41:00,89.62062,31.80379,1010.822,273.25,84.9,35.9,6.53,12.25,-11.81,143.0,74.95,259.15,313.97,143.26,74.69,258.23,313.3,0.0
2018-08-20 16:41:00,89.62062,31.80379,1010.836,273.25,84.9,35.8,6.24,12.7,-12.56,142.6,74.95,259.05,314.23,143.17,74.65,258.29,313.37,0.0
2018-08-20 16:41:00,89.62062,31.80379,1010.837,273.25,84.9,35.8,5.86,12.94,-13.37,142.28,75.02,257.51,313.64,143.06,74.62,258.28,313.44,0.0
2018-08-20 16:41:00,89.62062,31.80379,1010.825,273.25,84.9,35.9,5.54,12.95,-14.2,142.74,74.95,257.4,313.29,142.89,74.63,258.28,313.61,0.0
2018-08-20 16:41:00,89.62062,31.80378,1010.811,273.24,84.9,36.0,5.41,12.94,-15.11,142.34,74.88,258.52,313.94,142.66,74.66,258.34,313.81,0.0
2018-08-20 16:41:00,89.62062,31.80376,1010.817,273.25,84.9,35.9,5.4,12.97,-15.86,141.82,74.67,257.99,314.1,142.36,74.71,258.36,313.8,0.0
2018-08-20 16:41:00,89.62062,31.80374,1010.749,273.25,84.9,36.5,5.14,13.15,-16.59,142.34,75.02,257.74,313.5,141.97,74.78,258.25,313.79,0.0
2018-08-20 16:41:00,89.62062,31.80372,1010.707,273.25,84.9,36.8,5.14,13.03,-17.27,143.13,74.95,256.96,312.8,141.52,74.87,258.16,313.73,0.0
2018-08-20 16:41:00,89.62062,31.8037,1010.707,273.24,84.9,36.8,5.27,13.06,-17.82,141.69,74.67,257.37,312.9,141.03,74.95,258.17,313.65,0.0
2018-08-20 16:41:00,89.62062,31.80367,1010.711,273.24,84.9,36.8,5.38,13.29,-18.27,142.8,74.95,258.11,314.15,140.51,75.02,258.16,313.57,0.0
2018-08-20 16:41:00,89.62062,31.80365,1010.72,273.24,84.9,36.7,5.71,12.92,-18.84,142.47,74.88,258.02,314.16,140.01,75.08,258.02,313.47,0.0
2018-08-20 16:41:00,89.62062,31.80362,1010.704,273.24,84.9,36.8,5.58,12.58,-19.56,142.21,75.09,258.04,314.25,139.57,75.12,258.05,313.43,0.0
2018-08-20 16:41:00,89.62062,31.8036,1010.725,273.23,84.9,36.6,5.48,12.67,-19.97,142.47,75.02,258.63,314.02,139.2,75.15,258.04,313.42,0.0
2018-08-20 16:41:00,89.62062,31.80358,1010.716,273.23,84.9,36.7,5.51,12.51,-20.56,142.02,74.95,258.9,313.36,138.94,75.16,258.17,313.52,0.0
2018-08-20 16:41:00,89.62062,31.80355,1010.669,273.23,84.9,37.1,5.5,12.39,-21.37,142.47,74.95,258.35,313.03,138.8,75.17,258.33,313.59,0.0
2018-08-20 16:41:00,89.62062,31.80353,1010.647,273.23,84.9,37.3,5.3,12.77,-22.23,141.23,74.88,258.18,313.45,138.77,75.18,258.42,313.55,0.0
2018-08-20 16:41:00,89.62062,31.80354,1010.641,273.23,84.9,37.3,5.47,12.44,-22.74,141.03,74.88,258.85,313.92,138.86,75.2,258.67,313.59,0.0
2018-08-20 16:41:00,89.62062,31.80355,1010.634,273.23,85.0,37.4,5.61,13.07,-23.41,142.08,74.88,258.15,313.14,139.02,75.23,258.8,313.56,0.0
2018-08-20 16:41:00,89.62062,31.80356,1010.623,273.23,85.0,37.5,5.65,13.24,-23.97,141.23,74.95,258.49,313.57,139.24,75.27,258.88,313.58,0.0
2018-08-20 16:41:00,89.62062,31.80357,1010.613,273.23,85.0,37.5,5.57,13.37,-24.39,141.69,75.02,258.69,313.53,139.49,75.32,258.95,313.67,0.0
2018-08-20 16:41:00,89.62062,31.80358,1010.61,273.22,85.0,37.6,5.42,13.69,-24.69,141.16,74.95,258.45,313.21,139.73,75.36,259.01,313.74,0.0
2018-08-20 16:41:00,89.62062,31.8036,1010.6,273.22,85.0,37.6,5.35,13.69,-24.79,142.02,75.02,259.86,314.22,139.93,75.39,259.04,313.7,0.0
2018-08-20 16:41:00,89.62062,31.80361,1010.59,273.22,85.0,37.7,5.07,13.79,-25.08,142.08,75.09,258.25,313.0,140.09,75.4,258.94,313.6,0.0
2018-08-20 16:41:00,89.62062,31.80362,1010.573,273.21,85.0,37.8,4.74,13.89,-25.04,141.3,75.02,258.46,313.85,140.2,75.37,258.95,313.62,0.0
2018-08-20 16:41:00,89.62062,31.80363,1010.557,273.21,85.0,38.0,4.35,14.14,-24.92,141.88,74.95,258.58,313.95,140.26,75.31,258.87,313.46,0.0
2018-08-20 16:41:00,89.62062,31.80364,1010.546,273.21,85.0,38.1,4.02,14.49,-24.82,140.71,75.02,258.54,313.91,140.29,75.21,258.79,313.22,0.0
2018-08-20 16:41:00,89.62062,31.80365,1010.542,273.2,85.0,38.1,3.91,14.71,-24.66,141.62,75.16,258.53,312.81,140.31,75.09,258.78,313.1,0.0
2018-08-20 16:41:00,89.62062,31.80366,1010.531,273.2,85.0,38.2,3.71,14.59,-24.29,140.44,75.09,258.36,312.82,140.36,74.97,258.62,312.99,0.0
2018-08-20 16:41:00,89.62062,31.80362,1010.517,273.2,85.0,38.3,3.88,14.65,-23.92,141.43,74.88,259.11,313.89,140.47,74.85,258.58,313.03,0.0
2018-08-20 16:41:00,89.62062,31.80356,1010.484,273.2,85.0,38.5,4.14,14.77,-23.31,141.49,75.16,258.62,312.28,140.67,74.75,258.56,313.05,0.0
2018-08-20 16:41:00,89.62062,31.8035,1010.455,273.19,85.0,38.8,4.12,14.92,-22.52,141.75,74.95,258.85,311.32,140.99,74.69,258.6,313.04,0.0
2018-08-20 16:41:00,89.62062,31.80344,1010.469,273.19,85.0,38.7,3.89,15.17,-21.81,140.64,75.09,259.02,312.28,141.45,74.67,258.69,313.02,0.0
2018-08-20 16:41:00,89.62062,31.80337,1010.458,273.19,85.0,38.8,4.64,15.78,-21.44,142.34,75.02,258.52,313.2,142.05,74.7,258.59,313.0,0.0
2018-08-20 16:41:00,89.62062,31.80331,1010.42,273.19,85.0,39.0,5.16,15.89,-20.9,140.84,74.95,258.2,313.76,142.79,74.77,258.62,313.13,0.0
2018-08-20 16:41:00,89.62062,31.80325,1010.406,273.19,85.0,39.2,5.39,15.96,-20.38,140.84,74.88,258.26,313.8,143.65,74.88,258.59,313.2,0.0
2018-08-20 16:41:00,89.62062,31.80318,1010.409,273.18,85.0,39.1,5.51,15.84,-19.79,140.97,74.81,258.84,313.46,144.57,75.0,258.56,313.41,0.0
2018-08-20 16:41:00,89.62062,31.80312,1010.378,273.18,85.0,39.4,5.83,15.44,-19.03,141.69,75.09,259.09,313.31,145.51,75.13,258.53,313.72,0.0
2018-08-20 16:41:00,89.62062,31.80306,1010.384,273.18,85.0,39.3,5.87,15.49,-18.65,142.15,74.81,256.51,312.29,146.41,75.23,258.44,313.93,0.0
2018-08-20 16:41:00,89.62062,31.803,1010.381,273.18,85.1,39.4,5.57,15.13,-17.94,141.69,75.09,258.17,313.95,147.2,75.31,258.38,314.05,0.0
2018-08-20 16:41:00,89.62062,31.80294,1010.358,273.18,85.1,39.5,5.7,14.87,-17.38,141.75,75.02,258.03,314.07,147.81,75.34,258.37,314.01,0.0
2018-08-20 16:41:00,89.62062,31.80291,1010.326,273.18,85.1,39.8,5.28,14.53,-16.91,141.03,75.02,257.92,313.82,148.2,75.34,258.36,313.91,0.0
2018-08-20 16:41:00,89.62062,31.80288,1010.304,273.17,85.1,40.0,4.49,14.27,-16.5,142.28,75.16,258.1,314.2,148.33,75.29,258.27,313.84,0.0
2018-08-20 16:41:00,89.62062,31.80285,1010.309,273.17,85.1,39.9,4.16,14.21,-16.1,143.85,75.09,258.07,314.21,148.21,75.21,258.16,313.85,0.0
2018-08-20 16:41:00,89.62062,31.80283,1010.297,273.16,85.1,40.0,3.79,13.34,-15.31,141.95,75.09,257.98,314.33,147.85,75.11,258.33,313.96,0.0
2018-08-20 16:41:00,89.62062,31.8028,1010.3,273.16,85.1,40.0,3.57,13.25,-14.41,143.98,75.02,258.48,313.07,147.3,75.0,258.38,313.9,0.0
2018-08-20 16:41:00,89.62062,31.80278,1010.286,273.16,85.1,40.1,3.85,12.92,-13.72,142.41,74.95,258.33,313.08,146.64,74.91,258.47,313.85,0.0
2018-08-20 16:41:00,89.62062,31.80275,1010.261,273.16,85.1,40.3,4.02,12.6,-13.08,143.59,74.95,258.41,313.35,145.96,74.84,258.46,313.74,0.0
2018-08-20 16:41:00,89.62062,31.80272,1010.242,273.16,85.1,40.4,3.81,12.54,-12.62,142.21,75.16,258.31,313.77,145.34,74.79,258.38,313.59,0.0
2018-08-20 16:41:00,89.62062,31.8027,1010.256,273.17,85.1,40.3,3.99,12.69,-13.2,143.39,74.95,258.95,313.86,144.87,74.78,258.49,313.56,0.0
2018-08-20 16:41:00,89.62062,31.80267,1010.241,273.17,85.2,40.5,4.39,11.99,-14.15,142.87,74.95,258.84,313.76,144.62,74.79,258.51,313.47,0.0
2018-08-20 16:41:00,89.62062,31.80264,1010.211,273.17,85.2,40.7,3.82,12.07,-14.6,143.46,75.09,259.12,313.99,144.62,74.83,258.53,313.53,0.0
2018-08-20 16:41:00,89.62062,31.80262,1010.193,273.17,85.2,40.8,4.17,12.28,-14.69,142.6,75.02,258.02,313.02,144.87,74.87,258.53,313.58,0.0
2018-08-20 16:41:00,89.62062,31.80259,1010.19,273.18,85.2,40.9,5.34,12.27,-14.62,142.8,74.81,257.21,312.72,145.33,74.92,258.54,313.55,0.0
2018-08-20 16:41:00,89.62062,31.80256,1010.153,273.18,85.2,41.2,5.5,12.08,-14.62,142.74,74.95,259.05,313.58,145.94,74.96,258.56,313.47,0.0
2018-08-20 16:41:00,89.62062,31.80253,1010.139,273.19,85.2,41.3,6.11,12.63,-15.07,143.59,75.09,258.12,313.14,146.63,74.98,258.51,313.37,0.0
2018-08-20 16:41:00,89.62062,31.80251,1010.109,273.19,85.2,41.5,7.56,12.64,-15.63,143.06,75.02,258.56,313.92,147.28,74.98,258.37,313.22,0.0
2018-08-20 16:41:00,89.62062,31.80248,1010.09,273.19,85.2,41.6,7.55,12.48,-16.15,144.24,75.16,258.47,313.78,147.83,74.95,258.28,313.09,0.0
2018-08-20 16:41:00,89.62062,31.80245,1010.074,273.2,85.2,41.8,7.0,12.33,-16.62,143.85,74.95,258.6,313.15,148.22,74.9,258.36,313.07,0.0
2018-08-20 16:41:00,89.62062,31.80242,1010.041,273.2,85.2,42.0,7.15,12.29,-17.02,142.47,74.95,258.69,313.03,148.39,74.82,258.54,313.09,0.0
2018-08-20 16:41:00,89.62062,31.80239,1010.084,273.2,85.2,41.7,6.82,12.39,-17.35,144.04,74.95,258.51,313.15,148.37,74.73,258.48,312.83,0.0
2018-08-20 16:41:00,89.62062,31.80236,1010.045,273.21,85.2,42.0,5.48,12.43,-17.5,144.63,74.95,257.31,312.18,148.17,74.64,258.52,312.72,0.0
2018-08-20 16:41:00,89.62062,31.80233,1010.03,273.21,85.2,42.1,5.38,12.45,-17.51,143.59,74.95,258.08,312.63,147.86,74.54,258.56,312.64,0.0
2018-08-20 16:41:00,89.62062,31.80231,1010.024,273.21,85.2,42.2,5.19,12.59,-17.78,145.29,75.02,258.89,313.22,147.51,74.46,258.54,312.6,0.0
2018-08-20 16:41:00,89.62062,31.80228,1009.988,273.21,85.2,42.5,4.5,12.75,-18.14,143.85,74.95,259.26,313.47,147.19,74.39,258.51,312.6,0.0
2018-08-20 16:41:00,89.62062,31.80225,1009.976,273.21,85.2,42.5,4.73,12.52,-17.68,144.63,74.95,258.61,311.44,146.96,74.34,258.51,312.66,0.0
2018-08-20 16:41:00,89.62062,31.80222,1009.983,273.21,85.3,42.5,4.84,12.82,-16.99,143.98,75.02,258.62,312.28,146.86,74.31,258.47,312.65,0.0
2018-08-20 16:41:00,89.62062,31.80219,1009.972,273.21,85.3,42.6,4.38,13.06,-16.13,144.9,74.88,258.96,313.33,146.9,74.3,258.54,312.66,0.0
2018-08-20 16:41:00,89.62062,31.80212,1009.955,273.21,85.3,42.7,4.62,13.08,-15.64,144.31,74.74,258.65,313.47,147.05,74.3,258.56,312.64,0.0
2018-08-20 16:41:00,89.62062,31.80203,1009.951,273.2,85.3,42.7,5.17,12.98,-15.59,144.24,75.09,258.51,313.28,147.27,74.32,258.41,312.52,0.0
2018-08-20 16:41:00,89.62062,31.80194,1009.98,273.21,85.3,42.5,4.69,12.96,-15.59,144.11,74.67,258.99,313.74,147.5,74.33,258.16,312.41,0.0
2018-08-20 16:41:00,89.62062,31.80185,1009.971,273.2,85.3,42.6,4.73,12.59,-15.33,144.9,74.53,258.25,312.97,147.67,74.35,258.11,312.63,0.0
2018-08-20 16:41:00,89.62062,31.80176,1009.943,273.21,85.3,42.8,5.43,12.51,-15.6,144.44,74.88,258.75,312.6,147.72,74.36,258.12,312.78,0.0
2018-08-20 16:41:00,89.62062,31.80167,1009.916,273.21,85.3,43.0,5.41,12.51,-16.01,144.04,74.88,258.79,312.42,147.62,74.36,258.03,312.74,0.0
2018-08-20 16:41:00,89.62062,31.80158,1009.896,273.2,85.3,43.2,5.17,12.51,-16.22,145.88,74.88,257.58,312.39,147.35,74.35,257.93,312.64,0.0
2018-08-20 16:41:00,89.62062,31.80149,1009.88,273.2,85.3,43.3,5.36,12.43,-16.22,145.35,74.95,256.56,312.41,146.92,74.34,257.85,312.56,0.0
2018-08-20 16:41:00,89.62062,31.8014,1009.887,273.2,85.3,43.3,5.53,11.94,-16.77,146.01,74.88,258.38,314.1,146.37,74.32,257.77,312.44,0.0
2018-08-20 16:41:00,89.62062,31.80131,1009.877,273.2,85.3,43.3,4.83,11.85,-16.86,145.16,74.74,258.8,313.83,145.76,74.3,257.81,312.55,0.0
2018-08-20 16:41:00,89.62062,31.80119,1009.852,273.19,85.3,43.5,4.86,11.34,-16.95,144.96,74.67,257.76,312.67,145.14,74.28,257.68,312.56,0.0
2018-08-20 16:41:00,89.62062,31.80104,1009.829,273.19,85.3,43.7,4.36,11.18,-17.02,144.7,74.74,256.9,311.98,144.56,74.28,257.55,312.6,0.0
2018-08-20 16:41:00,89.62061,31.8009,1009.813,273.19,85.3,43.8,3.38,11.35,-16.86,144.5,74.6,256.95,311.46,144.08,74.29,257.61,312.76,0.0
2018-08-20 16:41:00,89.62061,31.80075,1009.799,273.18,85.3,43.9,3.12,11.23,-16.25,145.29,74.53,257.51,311.37,143.7,74.33,257.82,312.93,0.0
2018-08-20 16:41:00,89.62061,31.80061,1009.799,273.18,85.3,43.9,2.81,11.91,-16.13,144.63,74.88,258.29,313.29,143.43,74.39,257.76,312.79,0.0
2018-08-20 16:41:00,89.62061,31.80046,1009.793,273.17,85.3,44.0,2.97,11.93,-15.58,144.63,74.6,257.12,311.9,143.25,74.47,257.69,312.65,0.0
2018-08-20 16:41:00,89.62061,31.80032,1009.751,273.17,85.3,44.3,3.23,12.09,-14.86,144.9,74.88,257.09,312.04,143.12,74.57,257.72,312.64,0.0
2018-08-20 16:41:00,89.62061,31.80017,1009.713,273.17,85.3,44.6,3.78,12.24,-14.17,145.29,74.67,258.18,313.16,143.01,74.68,257.85,312.7,0.0
2018-08-20 16:41:00,89.62061,31.80002,1009.744,273.17,85.3,44.4,4.69,12.18,-13.65,144.44,74.88,258.57,313.48,142.88,74.8,258.01,312.83,0.0
2018-08-20 16:41:00,89.62061,31.79988,1009.723,273.16,85.4,44.5,5.08,12.68,-13.41,144.7,74.53,257.38,311.96,142.73,74.91,258.08,313.06,0.0
2018-08-20 16:41:00,89.62061,31.79973,1009.706,273.16,85.4,44.7,4.94,12.41,-13.26,145.16,74.53,257.18,311.9,142.55,75.01,258.12,313.02,0.0
