Date/Time,Latitude,Longitude,PPPP [hPa],TTT grad [K],RH [%],Height [m],Pitch [deg],Roll [deg],Yaw [deg],SWD [W/m**2] (raw),SWU [W/m**2] (raw),LWD [W/m**2] (raw),LWU [W/m**2] (raw),SWD [W/m**2] (corrected),SWU [W/m**2] (corrected),LWD [W/m**2] (corrected),LWU [W/m**2] (corrected),Flag
2018-08-20 16:56:00,89.61871,30.98255,931.662,274.28,69.1,679.9,5.54,5.35,-15.06,76.24,64.11,245.12,315.5,76.52,64.2,244.77,316.05,0.0
2018-08-20 16:56:00,89.61871,30.98257,931.687,274.28,69.1,679.7,5.32,5.4,-16.69,76.57,64.32,244.3,316.23,76.88,64.18,244.61,316.01,0.0
2018-08-20 16:56:00,89.61871,30.98258,931.723,274.29,69.1,679.4,5.12,5.43,-18.22,76.37,64.32,243.2,317.25,77.16,64.14,244.48,315.95,0.0
2018-08-20 16:56:00,89.61871,30.9826,931.706,274.28,69.1,679.5,5.39,5.7,-19.57,76.96,64.11,243.14,318.2,77.3,64.09,244.31,316.01,0.0
2018-08-20 16:56:00,89.61871,30.98261,931.717,274.29,69.1,679.5,5.21,5.75,-21.01,76.44,64.39,244.96,316.58,77.27,64.04,244.16,316.09,0.0
2018-08-20 16:56:00,89.61871,30.98263,931.733,274.29,69.1,679.3,5.03,5.87,-22.37,76.11,64.18,245.22,315.71,77.05,64.0,244.09,316.25,0.0
2018-08-20 16:56:00,89.61871,30.98264,931.732,274.29,69.1,679.3,4.9,5.99,-23.79,76.96,64.11,244.76,315.9,76.67,63.98,244.12,316.42,0.0
2018-08-20 16:56:00,89.61871,30.98266,931.707,274.29,69.1,679.5,4.73,6.0,-25.33,76.96,64.18,245.05,316.0,76.18,64.0,244.28,316.49,0.0
2018-08-20 16:56:00,89.61872,30.98267,931.748,274.29,69.1,679.2,4.55,6.09,-26.87,76.11,64.25,244.76,316.0,75.64,64.04,244.55,316.37,0.0
2018-08-20 16:56:00,89.61872,30.98269,931.75,274.29,69.1,679.2,3.97,6.22,-28.26,77.55,64.25,244.95,316.2,75.13,64.12,244.8,316.2,0.0
2018-08-20 16:56:00,89.61872,30.9827,931.754,274.29,69.1,679.1,4.14,6.31,-29.34,76.37,64.32,244.88,315.66,74.74,64.23,244.79,316.08,0.0
2018-08-20 16:56:00,89.61872,30.98272,931.741,274.29,69.1,679.2,4.47,6.38,-30.46,76.31,64.11,245.2,315.92,74.53,64.34,244.73,315.96,0.0
2018-08-20 16:56:00,89.61872,30.98273,931.699,274.29,69.1,679.6,4.5,6.45,-31.65,77.16,64.04,245.2,316.05,74.55,64.46,244.68,315.78,0.0
2018-08-20 16:56:00,89.61872,30.98274,931.693,274.29,69.1,679.7,4.28,6.54,-32.4,74.94,64.18,244.89,315.47,74.82,64.57,244.6,315.53,0.0
2018-08-20 16:56:00,89.61872,30.98275,931.708,274.29,69.1,679.5,3.94,6.58,-33.01,76.44,64.11,244.72,316.15,75.29,64.65,244.54,315.4,0.0
2018-08-20 16:56:00,89.61872,30.98276,931.706,274.29,69.1,679.5,4.07,6.53,-33.33,76.64,64.32,244.01,316.0,75.92,64.7,244.48,315.24,0.0
2018-08-20 16:56:00,89.61872,30.98277,931.705,274.29,69.1,679.6,4.43,6.49,-33.44,76.11,64.25,243.84,316.01,76.62,64.72,244.44,315.14,0.0
2018-08-20 16:56:00,89.61872,30.98278,931.708,274.29,69.1,679.5,4.79,6.46,-33.34,75.92,64.18,244.12,315.54,77.29,64.71,244.43,315.16,0.0
2018-08-20 16:56:00,89.61872,30.98278,931.686,274.28,69.1,679.7,5.05,6.44,-33.04,75.98,64.39,244.18,314.58,77.83,64.69,244.43,315.3,0.0
2018-08-20 16:56:00,89.61872,30.98279,931.708,274.29,69.1,679.5,5.28,6.43,-32.44,75.85,64.53,244.82,315.71,78.16,64.66,244.48,315.38,0.0
2018-08-20 16:56:00,89.61872,30.9828,931.709,274.28,69.1,679.5,5.65,6.42,-31.33,76.83,64.46,244.57,314.87,78.24,64.64,244.58,315.4,0.0
2018-08-20 16:56:00,89.61872,30.98281,931.693,274.28,69.1,679.7,6.01,6.34,-30.05,76.96,64.18,245.1,314.84,78.04,64.64,244.79,315.47,0.0
2018-08-20 16:56:00,89.61872,30.98282,931.677,274.28,69.1,679.8,6.26,6.29,-28.72,77.16,64.25,245.47,316.0,77.6,64.65,245.02,315.54,0.0
2018-08-20 16:56:00,89.61872,30.98283,931.704,274.28,69.1,679.6,6.17,6.39,-27.42,76.64,64.04,245.37,316.65,76.99,64.7,245.22,315.59,0.0
2018-08-20 16:56:00,89.61872,30.98284,931.702,274.28,69.1,679.6,5.98,6.4,-25.91,76.44,64.32,245.4,314.84,76.29,64.76,245.4,315.75,0.0
2018-08-20 16:56:00,89.61872,30.98285,931.664,274.28,69.1,679.9,5.89,6.3,-24.42,77.03,64.39,245.56,314.82,75.59,64.82,245.48,315.75,0.0
2018-08-20 16:56:00,89.61872,30.98286,931.663,274.28,69.1,679.9,5.65,6.31,-22.82,76.83,64.46,245.67,315.05,75.0,64.89,245.54,315.8,0.0
2018-08-20 16:56:00,89.61872,30.98287,931.673,274.28,69.1,679.8,5.4,6.33,-21.13,76.44,64.25,245.57,315.44,74.58,64.95,245.55,315.8,0.0
2018-08-20 16:56:00,89.61872,30.98289,931.66,274.28,69.1,679.9,5.22,6.3,-19.34,76.18,64.39,245.27,314.84,74.37,64.98,245.5,315.71,0.0
2018-08-20 16:56:00,89.61872,30.98293,931.688,274.27,69.1,679.7,5.53,6.19,-17.47,76.11,64.46,244.88,315.74,74.4,64.99,245.41,315.52,0.0
2018-08-20 16:56:00,89.61872,30.98297,931.679,274.28,69.1,679.8,6.0,6.01,-15.3,76.11,64.39,244.51,315.91,74.63,64.96,245.31,315.54,0.0
2018-08-20 16:56:00,89.61872,30.98301,931.68,274.29,69.1,679.8,6.31,6.0,-13.36,75.65,64.53,244.94,315.82,75.02,64.91,245.22,315.66,0.0
2018-08-20 16:56:00,89.61872,30.98305,931.674,274.29,69.1,679.8,6.53,5.9,-11.6,75.65,64.46,245.02,315.91,75.5,64.83,245.16,315.78,0.0
2018-08-20 16:56:00,89.61872,30.98309,931.667,274.28,69.1,679.9,6.77,5.72,-9.87,76.05,64.46,244.65,315.91,76.01,64.73,245.12,315.88,0.0
2018-08-20 16:56:00,89.61872,30.98313,931.686,274.28,69.1,679.7,7.04,5.59,-8.18,76.77,64.53,244.58,315.96,76.49,64.63,245.06,315.99,0.0
2018-08-20 16:56:00,89.61872,30.98317,931.685,274.28,69.1,679.7,7.2,5.49,-6.72,76.9,64.46,244.76,316.09,76.88,64.53,245.02,316.04,0.0
2018-08-20 16:56:00,89.61872,30.9832,931.668,274.28,69.1,679.9,7.17,5.47,-5.56,76.77,64.53,244.76,317.14,77.16,64.43,245.02,316.1,0.0
2018-08-20 16:56:00,89.61872,30.98324,931.662,274.28,69.1,679.9,7.52,5.33,-4.53,75.59,64.32,245.38,316.91,77.33,64.34,245.03,316.15,0.0
2018-08-20 16:56:00,89.61872,30.98326,931.663,274.29,69.1,679.9,7.98,5.15,-3.71,76.37,64.53,244.91,316.4,77.4,64.25,245.05,316.19,0.0
2018-08-20 16:56:00,89.61872,30.98327,931.664,274.29,69.1,679.9,8.36,4.96,-3.19,76.05,64.25,244.85,316.0,77.38,64.19,245.05,316.21,0.0
2018-08-20 16:56:00,89.61872,30.98329,931.691,274.29,69.1,679.7,8.72,4.66,-3.09,77.42,64.46,244.85,315.91,77.3,64.13,245.01,316.19,0.0
2018-08-20 16:56:00,89.61872,30.98331,931.718,274.29,69.1,679.4,8.99,4.32,-3.08,75.52,64.39,244.66,315.62,77.18,64.09,244.93,316.03,0.0
2018-08-20 16:56:00,89.61872,30.98333,931.704,274.29,69.1,679.6,8.97,4.05,-3.51,76.24,64.46,244.95,315.72,77.03,64.07,244.86,315.85,0.0
2018-08-20 16:56:00,89.61872,30.98335,931.673,274.29,69.1,679.8,8.79,3.78,-4.22,76.24,64.46,244.76,315.91,76.86,64.08,244.88,315.76,0.0
2018-08-20 16:56:00,89.61872,30.98337,931.665,274.28,69.1,679.9,8.48,3.49,-5.16,76.77,64.46,244.56,315.81,76.65,64.11,244.93,315.68,0.0
2018-08-20 16:56:00,89.61872,30.98338,931.71,274.29,69.1,679.5,8.06,3.22,-6.35,76.77,64.53,244.18,315.74,76.38,64.18,244.94,315.48,0.0
2018-08-20 16:56:00,89.61872,30.9834,931.714,274.28,69.1,679.5,7.7,2.92,-7.56,76.64,64.39,243.81,314.25,76.04,64.29,244.94,315.3,0.0
2018-08-20 16:56:00,89.61872,30.98342,931.68,274.29,69.1,679.8,7.38,2.73,-8.59,76.18,64.46,244.06,315.29,75.61,64.42,244.93,315.14,0.0
2018-08-20 16:56:00,89.61872,30.98344,931.671,274.29,69.1,679.8,7.08,2.57,-9.88,76.64,64.04,245.2,316.39,75.09,64.59,244.93,315.07,0.0
2018-08-20 16:56:00,89.61872,30.98347,931.683,274.28,69.1,679.7,6.86,2.42,-11.32,75.59,64.25,245.6,316.09,74.48,64.78,244.94,315.0,0.0
2018-08-20 16:56:00,89.61872,30.98352,931.68,274.28,69.1,679.8,6.79,2.28,-12.8,77.29,64.25,244.75,314.07,73.81,64.98,244.96,314.9,0.0
2018-08-20 16:56:00,89.61872,30.98358,931.697,274.29,69.1,679.6,6.84,2.11,-14.3,76.5,64.53,245.06,314.64,73.12,65.18,245.03,314.85,0.0
2018-08-20 16:56:00,89.61872,30.98363,931.736,274.29,69.1,679.3,6.64,2.12,-15.84,75.85,64.53,245.05,314.6,72.44,65.37,245.19,314.97,0.0
2018-08-20 16:56:00,89.61872,30.98368,931.734,274.29,69.0,679.3,6.72,2.12,-17.5,76.37,64.53,245.82,315.24,71.82,65.53,245.37,315.03,0.0
2018-08-20 16:56:00,89.61872,30.98374,931.718,274.29,69.0,679.4,6.9,2.23,-19.14,75.98,64.46,245.66,315.28,71.31,65.66,245.43,315.0,0.0
2018-08-20 16:56:00,89.61872,30.98379,931.718,274.29,69.1,679.4,7.09,2.46,-20.77,75.39,64.6,245.5,314.37,70.93,65.75,245.46,315.01,0.0
2018-08-20 16:56:00,89.61872,30.98384,931.735,274.28,69.0,679.3,7.32,2.65,-22.41,75.59,64.73,245.59,314.54,70.7,65.8,245.55,315.19,0.0
2018-08-20 16:56:00,89.61872,30.9839,931.699,274.28,69.0,679.6,7.18,2.85,-23.85,74.8,64.46,245.7,315.28,70.61,65.82,245.62,315.36,0.0
2018-08-20 16:56:00,89.61872,30.98395,931.707,274.29,69.0,679.5,6.95,3.01,-25.25,75.46,64.73,245.84,315.52,70.66,65.8,245.69,315.49,0.0
2018-08-20 16:56:00,89.61872,30.984,931.731,274.29,69.0,679.3,6.62,3.23,-26.61,76.05,64.6,245.99,315.08,70.81,65.74,245.68,315.52,0.0
2018-08-20 16:56:00,89.61872,30.98406,931.747,274.29,69.0,679.2,6.11,3.45,-27.96,75.0,64.73,245.52,315.3,71.03,65.67,245.63,315.54,0.0
2018-08-20 16:56:00,89.61872,30.98411,931.738,274.28,69.0,679.3,5.44,3.63,-29.21,74.8,64.67,245.2,315.52,71.27,65.57,245.54,315.6,0.0
2018-08-20 16:56:00,89.61872,30.98414,931.775,274.28,69.0,679.0,4.96,3.83,-30.13,75.0,64.73,244.94,315.64,71.51,65.45,245.43,315.65,0.0
2018-08-20 16:56:00,89.61872,30.98417,931.769,274.28,69.0,679.0,4.7,3.92,-30.87,74.67,64.73,244.85,315.92,71.72,65.32,245.27,315.66,0.0
2018-08-20 16:56:00,89.61872,30.9842,931.762,274.28,69.0,679.1,4.55,3.88,-31.35,74.74,64.87,245.19,315.82,71.88,65.19,245.06,315.71,0.0
2018-08-20 16:56:00,89.61872,30.98423,931.756,274.29,69.0,679.1,4.36,3.93,-31.57,75.13,64.73,244.84,315.91,71.98,65.05,244.87,315.79,0.0
2018-08-20 16:56:00,89.61872,30.98426,931.744,274.28,69.0,679.2,4.22,4.1,-31.53,74.67,64.8,244.84,315.71,72.04,64.93,244.74,315.89,0.0
2018-08-20 16:56:00,89.61872,30.98428,931.748,274.29,69.0,679.2,4.73,4.03,-31.14,74.28,64.94,244.84,315.92,72.08,64.82,244.62,316.02,0.0
2018-08-20 16:56:00,89.61872,30.98432,931.74,274.28,69.0,679.3,4.79,3.94,-30.61,75.0,64.67,244.75,315.9,72.12,64.74,244.69,316.1,0.0
2018-08-20 16:56:00,89.61872,30.98434,931.729,274.28,69.0,679.3,4.57,3.92,-29.86,74.28,64.8,244.58,316.29,72.19,64.71,244.72,316.18,0.0
2018-08-20 16:56:00,89.61872,30.98437,931.746,274.28,69.0,679.2,4.76,3.94,-29.04,73.82,64.67,244.41,316.18,72.31,64.72,244.84,316.27,0.0
2018-08-20 16:56:00,89.61872,30.9844,931.769,274.29,69.0,679.0,5.29,3.89,-28.18,74.22,64.8,244.76,316.06,72.5,64.78,245.01,316.35,0.0
2018-08-20 16:56:00,89.61872,30.98443,931.716,274.29,69.0,679.5,5.59,3.68,-27.29,74.8,64.73,244.24,316.39,72.75,64.89,245.11,316.37,0.0
2018-08-20 16:56:00,89.61872,30.98446,931.747,274.29,69.0,679.2,5.2,3.84,-26.11,75.39,64.87,245.62,315.65,73.07,65.03,245.19,316.35,0.0
2018-08-20 16:56:00,89.61872,30.98449,931.73,274.29,69.0,679.3,5.55,3.84,-24.9,74.08,64.67,244.94,315.76,73.42,65.18,245.15,316.19,0.0
2018-08-20 16:56:00,89.61872,30.98451,931.744,274.29,69.0,679.2,6.02,3.89,-23.59,73.43,64.73,245.28,315.7,73.78,65.34,245.1,315.93,0.0
2018-08-20 16:56:00,89.61872,30.98454,931.784,274.29,69.0,678.9,6.29,3.96,-22.12,73.89,64.67,245.16,316.13,74.11,65.47,245.04,315.67,0.0
2018-08-20 16:56:00,89.61872,30.98456,931.771,274.29,69.0,679.0,6.23,3.93,-20.41,74.41,64.67,244.85,315.79,74.37,65.56,244.98,315.43,0.0
2018-08-20 16:56:00,89.61872,30.98459,931.718,274.29,69.0,679.4,6.22,3.94,-18.45,74.61,64.87,244.85,315.99,74.53,65.59,244.93,315.18,0.0
2018-08-20 16:56:00,89.61872,30.98461,931.704,274.29,69.0,679.6,6.25,3.63,-16.62,74.02,65.08,243.83,314.73,74.57,65.56,244.8,315.1,0.0
2018-08-20 16:56:00,89.61872,30.98464,931.714,274.29,69.0,679.5,6.12,3.63,-14.62,74.48,65.08,243.88,314.34,74.49,65.48,244.72,314.99,0.0
2018-08-20 16:56:00,89.61872,30.98466,931.745,274.29,69.0,679.2,6.13,3.64,-12.68,73.95,64.87,244.6,314.8,74.28,65.35,244.62,314.92,0.0
2018-08-20 16:56:00,89.61872,30.98469,931.779,274.29,69.0,678.9,6.19,3.48,-10.84,74.54,64.94,244.93,314.6,73.98,65.19,244.53,314.94,0.0
2018-08-20 16:56:00,89.61872,30.98471,931.745,274.29,69.0,679.2,5.88,3.27,-9.14,74.54,65.08,244.67,314.77,73.61,65.04,244.54,314.99,0.0
2018-08-20 16:56:00,89.61872,30.98474,931.748,274.29,69.0,679.2,6.7,2.99,-7.63,75.33,64.73,245.35,315.57,73.22,64.91,244.58,315.05,0.0
2018-08-20 16:56:00,89.61872,30.98476,931.755,274.29,69.0,679.1,7.23,2.79,-6.36,73.56,64.87,245.16,315.09,72.83,64.82,244.73,315.22,0.0
2018-08-20 16:56:00,89.61872,30.98479,931.745,274.29,69.0,679.2,7.41,2.47,-5.15,74.08,64.8,245.04,315.31,72.48,64.79,244.9,315.43,0.0
2018-08-20 16:56:00,89.61872,30.98481,931.731,274.29,69.0,679.3,7.3,2.15,-4.13,74.02,65.08,245.02,315.99,72.2,64.82,245.01,315.59,0.0
2018-08-20 16:56:00,89.61872,30.98484,931.754,274.29,69.0,679.1,7.05,1.99,-3.5,74.15,65.08,245.05,316.16,72.01,64.9,245.06,315.71,0.0
2018-08-20 16:56:00,89.61872,30.98486,931.756,274.29,69.0,679.1,6.85,1.82,-3.41,75.2,64.67,244.93,315.58,71.9,65.02,245.14,315.87,0.0
2018-08-20 16:56:00,89.61872,30.98494,931.777,274.28,69.0,679.0,6.58,1.87,-3.62,73.23,64.67,244.84,315.4,71.86,65.17,245.16,315.92,0.0
2018-08-20 16:56:00,89.61872,30.98503,931.797,274.28,69.0,678.8,6.41,1.82,-4.0,73.56,64.87,245.05,315.92,71.89,65.31,245.15,316.04,0.0
2018-08-20 16:56:00,89.61872,30.98511,931.799,274.29,69.0,678.8,6.47,1.76,-4.59,73.43,64.73,244.94,315.97,71.96,65.43,245.13,316.13,0.0
2018-08-20 16:56:00,89.61872,30.9852,931.776,274.29,69.0,679.0,6.84,1.8,-5.4,73.04,65.15,245.0,316.18,72.05,65.52,245.11,316.17,0.0
2018-08-20 16:56:00,89.61872,30.98528,931.765,274.29,69.0,679.0,7.24,1.85,-6.42,74.35,65.08,245.9,316.74,72.15,65.56,245.09,316.23,0.0
2018-08-20 16:56:00,89.61872,30.98536,931.739,274.28,69.0,679.3,7.74,1.9,-7.36,74.48,65.15,245.47,317.13,72.24,65.55,245.08,316.32,0.0
2018-08-20 16:56:00,89.61872,30.98545,931.776,274.28,69.0,679.0,7.79,1.95,-8.38,73.5,64.94,245.32,317.21,72.32,65.51,245.02,316.29,0.0
2018-08-20 16:56:00,89.61872,30.98553,931.811,274.28,69.0,678.7,7.72,2.0,-9.45,73.5,65.01,244.94,316.69,72.39,65.45,244.99,316.3,0.0
2018-08-20 16:56:00,89.61872,30.9856,931.802,274.28,69.0,678.7,7.58,2.11,-10.65,74.22,64.94,244.83,317.21,72.45,65.38,245.01,316.4,0.0
2018-08-20 16:56:00,89.61872,30.98564,931.764,274.28,69.0,679.1,7.22,2.31,-12.07,74.61,65.08,244.7,317.03,72.5,65.31,245.03,316.52,0.0
2018-08-20 16:56:00,89.61872,30.98568,931.778,274.28,69.0,678.9,6.43,2.39,-13.6,73.04,65.15,244.65,317.25,72.55,65.27,245.0,316.56,0.0
2018-08-20 16:56:00,89.61872,30.98573,931.775,274.28,69.0,679.0,5.74,2.41,-15.27,73.1,64.87,243.76,315.83,72.61,65.26,244.94,316.52,0.0
2018-08-20 16:56:00,89.61872,30.98577,931.791,274.28,69.0,678.8,5.5,2.52,-16.8,72.51,64.94,244.13,315.86,72.65,65.28,244.89,316.48,0.0
2018-08-20 16:56:00,89.61872,30.98581,931.803,274.28,69.0,678.7,5.41,2.65,-18.3,73.95,65.01,244.56,317.08,72.69,65.33,244.83,316.45,0.0
2018-08-20 16:56:00,89.61872,30.98586,931.766,274.28,69.0,679.0,5.15,2.69,-19.88,72.51,64.94,244.43,316.94,72.71,65.39,244.75,316.39,0.0
2018-08-20 16:56:00,89.61872,30.9859,931.797,274.28,69.0,678.8,4.82,2.83,-21.52,74.08,65.15,244.75,316.9,72.71,65.46,244.7,316.33,0.0
2018-08-20 16:56:00,89.61872,30.98594,931.792,274.28,69.0,678.8,4.87,2.91,-23.12,73.82,65.15,244.43,316.2,72.68,65.52,244.61,316.26,0.0
2018-08-20 16:56:00,89.61872,30.98598,931.799,274.28,69.0,678.8,5.08,3.19,-24.63,73.82,65.08,244.31,316.12,72.64,65.56,244.64,316.25,0.0
2018-08-20 16:56:00,89.61872,30.98603,931.805,274.28,69.0,678.7,5.12,3.43,-25.83,74.28,65.15,244.49,316.01,72.58,65.57,244.66,316.22,0.0
2018-08-20 16:56:00,89.61872,30.98607,931.802,274.28,69.0,678.7,4.86,3.5,-26.76,73.1,65.15,244.28,316.08,72.5,65.56,244.64,316.13,0.0
2018-08-20 16:56:00,89.61872,30.98611,931.806,274.28,69.0,678.7,4.42,3.4,-27.6,73.3,65.01,244.58,315.24,72.42,65.53,244.68,316.03,0.0
2018-08-20 16:56:00,89.61872,30.98617,931.784,274.28,69.0,678.9,3.59,3.44,-28.29,73.3,65.15,244.15,315.58,72.35,65.47,244.74,315.92,0.0
2018-08-20 16:56:00,89.61872,30.98623,931.789,274.29,69.0,678.8,2.95,3.5,-29.0,73.36,65.15,244.65,315.11,72.27,65.41,244.83,315.85,0.0
2018-08-20 16:56:00,89.61872,30.98628,931.814,274.29,69.0,678.6,2.41,3.57,-29.43,72.45,65.29,244.5,315.18,72.21,65.34,244.92,315.75,0.0
2018-08-20 16:56:00,89.61873,30.98634,931.833,274.28,69.0,678.5,1.95,3.54,-29.55,73.1,65.08,244.52,315.87,72.14,65.29,245.0,315.65,0.0
2018-08-20 16:56:00,89.61873,30.9864,931.821,274.28,69.0,678.6,1.59,3.35,-29.42,73.43,65.01,244.74,315.86,72.08,65.24,245.07,315.59,0.0
2018-08-20 16:56:00,89.61873,30.98645,931.827,274.28,69.0,678.5,1.37,3.49,-29.04,72.64,65.22,245.08,315.77,72.01,65.21,245.18,315.51,0.0
2018-08-20 16:56:00,89.61873,30.98651,931.831,274.28,69.0,678.5,2.07,3.43,-28.16,74.28,65.15,244.98,315.67,71.94,65.2,245.29,315.41,0.0
2018-08-20 16:56:00,89.61873,30.98657,931.84,274.28,69.0,678.4,2.39,3.36,-27.18,72.97,65.15,244.97,315.64,71.88,65.2,245.28,315.33,0.0
2018-08-20 16:56:00,89.61873,30.98662,931.849,274.28,69.0,678.3,2.37,3.28,-26.16,73.56,65.08,245.06,315.36,71.83,65.2,245.21,315.31,0.0
2018-08-20 16:56:00,89.61873,30.98668,931.848,274.28,69.0,678.3,2.25,3.31,-25.01,73.43,65.29,245.26,315.56,71.81,65.21,245.15,315.32,0.0
2018-08-20 16:56:00,89.61873,30.98674,931.842,274.28,68.9,678.4,2.21,3.76,-23.65,72.84,65.08,246.32,315.62,71.84,65.21,245.06,315.28,0.0
2018-08-20 16:56:00,89.61873,30.98679,931.847,274.28,68.9,678.4,2.2,3.56,-22.38,72.64,65.36,246.23,314.86,71.91,65.21,244.88,315.3,0.0
2018-08-20 16:56:00,89.61873,30.98684,931.842,274.29,68.9,678.4,1.7,3.59,-20.97,73.23,64.94,245.54,314.69,72.04,65.2,244.74,315.26,0.0
2018-08-20 16:56:00,89.61873,30.98688,931.846,274.29,68.9,678.4,1.23,3.61,-19.32,72.06,65.22,245.08,314.94,72.2,65.18,244.73,315.32,0.0
2018-08-20 16:56:00,89.61873,30.98692,931.86,274.28,68.9,678.2,1.21,3.58,-17.48,72.84,65.08,244.99,315.59,72.39,65.15,244.79,315.47,0.0
2018-08-20 16:56:00,89.61873,30.98696,931.838,274.28,68.9,678.4,1.84,3.63,-15.7,73.23,65.29,244.96,314.95,72.55,65.12,244.79,315.57,0.0
2018-08-20 16:56:00,89.61873,30.98701,931.84,274.28,68.9,678.4,2.56,3.46,-13.91,73.95,65.08,243.62,315.45,72.67,65.1,244.76,315.71,0.0
2018-08-20 16:56:00,89.61873,30.98705,931.848,274.28,68.9,678.4,2.87,3.56,-12.37,71.6,65.08,244.04,314.47,72.69,65.08,244.7,315.87,0.0
2018-08-20 16:56:00,89.61873,30.98709,931.846,274.28,68.9,678.4,3.55,3.57,-11.05,72.91,65.15,245.01,315.73,72.61,65.08,244.65,315.94,0.0
2018-08-20 16:56:00,89.61873,30.98713,931.845,274.28,68.9,678.4,4.28,3.38,-9.73,74.08,65.15,245.8,317.11,72.4,65.1,244.6,315.93,0.0
2018-08-20 16:56:00,89.61873,30.98717,931.863,274.29,68.9,678.2,4.47,3.14,-8.3,72.25,65.22,244.81,317.15,72.09,65.13,244.56,315.88,0.0
2018-08-20 16:56:00,89.61873,30.98721,931.839,274.28,68.9,678.4,4.15,3.37,-7.47,72.64,65.29,245.11,317.36,71.72,65.18,244.55,315.86,0.0
2018-08-20 16:56:00,89.61873,30.98726,931.845,274.29,68.9,678.4,4.0,3.04,-6.68,74.15,65.22,244.77,316.85,71.34,65.25,244.64,315.97,0.0
2018-08-20 16:56:00,89.61873,30.9873,931.852,274.29,68.9,678.3,3.88,2.92,-6.08,72.45,65.08,243.59,315.76,71.01,65.33,244.71,316.16,0.0
2018-08-20 16:56:00,89.61873,30.98734,931.857,274.28,68.9,678.3,3.65,2.9,-5.81,73.36,65.01,243.34,315.35,70.82,65.4,244.64,316.24,0.0
2018-08-20 16:56:00,89.61873,30.98737,931.858,274.28,68.9,678.3,3.25,2.82,-5.79,71.92,65.01,243.46,315.26,70.83,65.47,244.52,316.23,0.0
2018-08-20 16:56:00,89.61873,30.98741,931.844,274.28,68.9,678.4,2.7,2.68,-5.72,71.99,65.01,243.9,314.54,71.05,65.52,244.48,316.21,0.0
2018-08-20 16:56:00,89.61873,30.98744,931.847,274.28,68.9,678.4,3.22,2.59,-6.11,73.23,65.42,244.44,316.36,71.51,65.55,244.4,316.12,0.0
2018-08-20 16:56:00,89.61873,30.98748,931.852,274.28,68.9,678.3,3.5,2.62,-6.61,72.06,65.15,244.76,316.56,72.17,65.56,244.37,316.02,0.0
2018-08-20 16:56:00,89.61873,30.98751,931.839,274.28,68.9,678.4,3.62,2.48,-7.22,72.45,65.42,244.78,316.69,72.95,65.53,244.44,316.04,0.0
2018-08-20 16:56:00,89.61873,30.98755,931.823,274.28,68.9,678.6,3.73,2.36,-7.94,72.71,65.15,244.77,316.48,73.77,65.48,244.57,316.09,0.0
2018-08-20 16:56:00,89.61873,30.98758,931.857,274.28,68.9,678.3,3.99,2.53,-8.85,72.78,65.22,244.83,316.22,74.51,65.41,244.7,316.13,0.0
2018-08-20 16:56:00,89.61873,30.98762,931.854,274.28,68.9,678.3,4.19,2.58,-10.06,72.38,65.29,244.69,315.82,75.08,65.32,244.83,316.21,0.0
2018-08-20 16:56:00,89.61873,30.98765,931.849,274.28,68.9,678.3,4.45,2.39,-11.41,71.99,65.29,244.86,315.62,75.39,65.23,244.94,316.13,0.0
2018-08-20 16:56:00,89.61873,30.98769,931.844,274.28,68.9,678.4,4.68,2.55,-12.77,73.56,65.15,244.89,315.68,75.39,65.14,245.05,316.05,0.0
2018-08-20 16:56:00,89.61873,30.98772,931.854,274.28,68.9,678.3,4.64,2.74,-14.26,72.25,65.22,244.72,315.83,75.07,65.08,245.16,315.98,0.0
2018-08-20 16:56:00,89.61873,30.98776,931.889,274.28,68.9,678.0,4.22,2.69,-15.78,74.61,65.22,245.06,315.56,74.46,65.04,245.24,315.91,0.0
2018-08-20 16:56:00,89.61873,30.9878,931.899,274.28,68.9,677.9,3.54,2.62,-16.96,72.45,65.08,245.06,315.87,73.64,65.03,245.26,315.79,0.0
2018-08-20 16:56:00,89.61873,30.98783,931.888,274.28,68.9,678.0,2.83,2.7,-18.61,74.08,65.36,244.97,315.95,72.7,65.05,245.27,315.78,0.0
2018-08-20 16:56:00,89.61873,30.98789,931.889,274.28,68.9,678.0,2.16,2.68,-20.34,73.76,65.08,244.98,315.96,71.76,65.1,245.35,315.78,0.0
2018-08-20 16:56:00,89.61873,30.98796,931.882,274.28,68.9,678.1,1.58,2.56,-21.83,72.64,65.15,245.08,315.86,70.92,65.17,245.38,315.72,0.0
2018-08-20 16:56:00,89.61873,30.98803,931.86,274.28,68.9,678.2,1.09,2.52,-23.08,72.58,65.29,244.82,315.6,70.27,65.25,245.34,315.62,0.0
2018-08-20 16:56:00,89.61873,30.9881,931.846,274.27,68.9,678.4,0.7,2.78,-24.28,71.86,65.15,244.3,315.0,69.86,65.33,245.28,315.56,0.0
2018-08-20 16:56:00,89.61873,30.98818,931.869,274.28,68.9,678.2,0.62,2.77,-25.23,72.38,65.22,244.18,315.29,69.7,65.4,245.19,315.58,0.0
2018-08-20 16:56:00,89.61873,30.98825,931.876,274.28,68.9,678.1,0.52,2.81,-26.07,72.19,65.15,245.6,315.38,69.78,65.45,245.11,315.52,0.0
2018-08-20 16:56:00,89.61873,30.98832,931.87,274.28,68.9,678.2,0.52,2.73,-26.78,73.23,65.29,245.55,315.19,70.04,65.49,245.13,315.55,0.0
2018-08-20 16:56:00,89.61873,30.98839,931.87,274.28,68.9,678.2,0.63,2.76,-27.34,72.91,65.15,245.15,314.87,70.41,65.5,245.22,315.64,0.0
2018-08-20 16:56:00,89.61873,30.98846,931.895,274.28,68.9,678.0,0.78,3.04,-27.72,72.71,65.36,244.94,315.51,70.83,65.5,245.31,315.76,0.0
2018-08-20 16:56:00,89.61873,30.98854,931.887,274.28,68.9,678.0,0.6,2.94,-28.0,71.99,65.15,244.83,316.35,71.23,65.49,245.45,315.95,0.0
2018-08-20 16:56:00,89.61873,30.98862,931.876,274.28,68.9,678.1,0.75,3.08,-28.2,72.64,65.36,245.03,315.32,71.56,65.47,245.6,316.1,0.0
2018-08-20 16:56:00,89.61873,30.98871,931.86,274.28,68.9,678.2,0.47,2.99,-28.29,72.32,65.15,246.04,316.37,71.8,65.46,245.64,316.16,0.0
2018-08-20 16:56:00,89.61873,30.98879,931.855,274.28,68.9,678.3,0.19,3.0,-27.94,71.47,65.29,246.5,317.3,71.94,65.45,245.64,316.29,0.0
2018-08-20 16:56:00,89.61873,30.98888,931.869,274.28,68.9,678.2,0.1,3.13,-27.16,71.79,65.36,246.23,317.41,71.99,65.45,245.65,316.49,0.0
2018-08-20 16:56:00,89.61873,30.98896,931.878,274.28,68.9,678.1,-0.06,2.88,-26.34,73.23,65.15,246.15,317.38,72.0,65.46,245.64,316.67,0.0
2018-08-20 16:56:00,89.61873,30.98905,931.878,274.28,68.9,678.1,0.45,3.21,-25.15,72.25,65.36,245.96,317.21,71.97,65.46,245.62,316.74,0.0
2018-08-20 16:56:00,89.61873,30.98913,931.894,274.28,68.9,678.0,0.8,3.18,-23.98,72.91,65.22,246.01,316.2,71.94,65.47,245.46,316.81,0.0
2018-08-20 16:56:00,89.61873,30.98921,931.896,274.28,68.9,677.9,1.26,3.3,-22.74,72.64,65.29,245.4,316.25,71.93,65.46,245.25,316.8,0.0
2018-08-20 16:56:00,89.61873,30.9893,931.877,274.28,68.9,678.1,1.9,3.47,-21.35,72.32,65.15,244.94,317.11,71.94,65.44,245.06,316.73,0.0
2018-08-20 16:56:00,89.61873,30.98938,931.856,274.28,68.9,678.3,2.62,3.36,-19.79,72.25,65.36,245.17,317.36,71.95,65.39,244.91,316.65,0.0
2018-08-20 16:56:00,89.61873,30.98947,931.896,274.28,68.9,677.9,3.3,3.58,-18.13,72.25,65.36,244.81,317.31,71.97,65.32,244.77,316.55,0.0
2018-08-20 16:56:00,89.61873,30.98956,931.887,274.28,68.9,678.0,4.01,3.31,-16.24,72.51,65.36,243.48,316.25,71.99,65.24,244.67,316.45,0.0
2018-08-20 16:56:00,89.61873,30.98965,931.876,274.28,68.9,678.1,4.44,3.26,-14.16,70.81,65.36,243.93,316.28,71.99,65.15,244.58,316.45,0.0
2018-08-20 16:56:00,89.61873,30.98975,931.876,274.28,68.9,678.1,4.93,3.19,-12.22,71.86,65.22,244.99,316.76,71.99,65.06,244.56,316.44,0.0
2018-08-20 16:56:00,89.61873,30.98985,931.88,274.28,68.9,678.1,5.58,3.0,-10.5,72.51,65.36,244.82,316.66,72.01,64.99,244.57,316.36,0.0
2018-08-20 16:56:00,89.61873,30.98994,931.878,274.28,68.8,678.1,5.98,3.07,-8.54,73.95,65.15,244.89,316.3,72.05,64.95,244.52,316.27,0.0
2018-08-20 16:56:00,89.61873,30.99004,931.874,274.28,68.8,678.1,6.72,2.72,-7.35,71.66,65.29,244.88,316.21,72.16,64.94,244.48,316.25,0.0
2018-08-20 16:56:00,89.61873,30.99014,931.864,274.27,68.8,678.2,6.37,2.53,-6.4,73.1,65.22,244.77,316.19,72.33,64.97,244.62,316.27,0.0
2018-08-20 16:56:00,89.61873,30.99024,931.864,274.27,68.8,678.2,5.79,2.32,-5.57,71.6,65.29,244.8,315.85,72.59,65.04,244.61,316.24,0.0
2018-08-20 16:56:00,89.61873,30.99033,931.891,274.27,68.8,678.0,5.52,2.14,-4.91,72.45,65.22,244.79,316.0,72.91,65.15,244.48,316.11,0.0
2018-08-20 16:56:00,89.61873,30.99043,931.945,274.27,68.8,677.5,5.74,2.17,-4.6,71.86,65.15,243.65,315.4,73.27,65.28,244.42,315.87,0.0
2018-08-20 16:56:00,89.61873,30.99053,931.9,274.27,68.9,677.9,5.57,1.92,-4.25,72.12,65.15,243.77,316.02,73.62,65.41,244.38,315.6,0.0
2018-08-20 16:56:00,89.61874,30.99062,931.884,274.27,68.9,678.1,5.45,1.94,-4.29,72.32,65.29,244.72,315.79,73.9,65.54,244.37,315.49,0.0
2018-08-20 16:56:00,89.61874,30.99072,931.892,274.27,68.8,678.0,5.63,1.7,-4.56,72.25,65.29,243.88,315.4,74.08,65.64,244.4,315.28,0.0
2018-08-20 16:56:00,89.61874,30.99082,931.9,274.28,68.8,677.9,5.73,1.47,-5.21,72.25,65.22,243.45,314.58,74.09,65.72,244.44,315.03,0.0
2018-08-20 16:56:00,89.61874,30.99092,931.884,274.27,68.8,678.0,5.33,1.52,-6.35,72.84,65.29,244.28,313.85,73.94,65.76,244.52,314.87,0.0
2018-08-20 16:56:00,89.61874,30.99102,931.859,274.27,68.8,678.3,4.56,1.24,-7.55,72.06,65.36,244.78,313.79,73.6,65.76,244.69,314.86,0.0
2018-08-20 16:56:00,89.61874,30.99112,931.893,274.28,68.8,678.0,4.62,1.61,-8.82,73.43,65.29,245.18,315.54,73.13,65.72,244.86,314.78,0.0
2018-08-20 16:56:00,89.61874,30.99122,931.886,274.27,68.8,678.0,4.54,1.42,-10.01,72.71,65.36,245.15,314.46,72.56,65.67,244.98,314.77,0.0
2018-08-20 16:56:00,89.61874,30.99132,931.878,274.27,68.8,678.1,4.09,1.34,-11.4,73.04,65.36,244.97,313.66,71.97,65.6,245.23,314.89,0.0
2018-08-20 16:56:00,89.61874,30.99142,931.907,274.27,68.8,677.9,3.59,1.49,-12.99,72.45,65.29,245.15,314.65,71.44,65.54,245.51,315.12,0.0
2018-08-20 16:56:00,89.61874,30.99152,931.914,274.27,68.8,677.8,3.93,1.21,-14.38,72.91,65.36,244.95,315.93,71.02,65.5,245.61,315.42,0.0
2018-08-20 16:56:00,89.61874,30.99162,931.931,274.27,68.8,677.7,4.0,1.41,-16.07,72.32,65.49,244.95,315.44,70.77,65.47,245.73,315.81,0.0
2018-08-20 16:56:00,89.61874,30.99172,931.923,274.27,68.8,677.7,4.2,1.43,-17.61,72.64,65.36,245.04,315.68,70.71,65.47,245.78,316.04,0.0
2018-08-20 16:56:00,89.61874,30.99182,931.909,274.27,68.8,677.8,4.22,1.68,-19.19,71.33,65.36,245.68,316.37,70.84,65.49,245.77,316.32,0.0
2018-08-20 16:56:00,89.61874,30.99192,931.898,274.27,68.8,677.9,4.28,1.89,-20.84,72.06,65.15,245.77,316.76,71.11,65.52,245.74,316.62,0.0
2018-08-20 16:56:00,89.61874,30.99201,931.895,274.27,68.8,678.0,4.69,1.65,-22.43,71.6,65.15,245.12,316.28,71.49,65.57,245.68,316.79,0.0
2018-08-20 16:56:00,89.61874,30.9921,931.916,274.27,68.8,677.8,4.54,1.78,-24.05,73.3,65.42,246.19,317.34,71.91,65.6,245.58,316.72,0.0
2018-08-20 16:56:00,89.61874,30.99218,931.92,274.27,68.8,677.7,4.33,1.81,-25.49,71.6,65.42,246.08,317.18,72.29,65.63,245.49,316.77,0.0
2018-08-20 16:56:00,89.61874,30.99227,931.923,274.27,68.8,677.7,4.08,1.93,-26.86,72.32,65.49,245.83,317.15,72.6,65.63,245.42,316.77,0.0
2018-08-20 16:56:00,89.61874,30.99236,931.922,274.27,68.8,677.7,3.91,2.08,-28.16,72.84,65.29,245.92,317.24,72.79,65.6,245.33,316.7,0.0
2018-08-20 16:56:00,89.61874,30.99244,931.916,274.27,68.8,677.8,3.75,2.23,-29.36,71.79,65.49,245.6,317.03,72.84,65.56,245.24,316.6,0.0
2018-08-20 16:56:00,89.61874,30.99253,931.935,274.27,68.8,677.6,3.17,2.46,-30.3,72.64,65.36,245.22,315.88,72.75,65.49,245.19,316.45,0.0
2018-08-20 16:56:00,89.61874,30.99262,931.921,274.27,68.8,677.7,2.95,2.58,-30.87,73.43,65.49,245.12,317.07,72.56,65.41,245.23,316.38,0.0
2018-08-20 16:56:00,89.61874,30.9927,931.918,274.27,68.8,677.8,2.91,2.66,-31.24,71.66,65.36,244.84,317.02,72.29,65.33,245.21,316.32,0.0
2018-08-20 16:56:00,89.61874,30.99279,931.93,274.27,68.8,677.7,2.96,2.78,-31.39,72.06,65.56,245.02,316.63,71.99,65.26,245.17,316.26,0.0
2018-08-20 16:56:00,89.61874,30.99287,931.95,274.27,68.8,677.5,3.05,2.92,-31.36,73.5,65.15,245.02,316.5,71.68,65.21,245.13,316.17,0.0
2018-08-20 16:56:00,89.61874,30.99296,931.927,274.27,68.9,677.7,3.29,2.86,-30.8,71.73,65.29,244.46,315.0,71.41,65.18,245.08,316.09,0.0
2018-08-20 16:56:00,89.61874,30.99305,931.944,274.28,68.8,677.5,3.43,2.91,-30.03,71.6,65.36,245.71,316.66,71.19,65.17,245.06,316.15,0.0
2018-08-20 16:56:00,89.61874,30.99313,931.959,274.28,68.8,677.4,4.05,2.91,-29.17,72.25,65.36,245.36,316.47,71.03,65.19,245.02,316.15,0.0
2018-08-20 16:56:00,89.61874,30.99322,931.965,274.28,68.8,677.4,4.58,2.93,-28.05,72.19,65.49,245.14,315.87,70.94,65.23,244.85,316.03,0.0
2018-08-20 16:56:00,89.61874,30.99332,931.956,274.27,68.8,677.4,4.96,2.9,-26.79,71.86,65.56,245.29,315.75,70.9,65.28,244.65,315.86,0.0
2018-08-20 16:56:00,89.61874,30.99346,931.932,274.27,68.8,677.6,5.44,2.82,-25.54,72.51,65.22,244.92,314.83,70.91,65.34,244.56,315.74,0.0
2018-08-20 16:56:00,89.61874,30.9936,931.915,274.28,68.8,677.8,6.35,2.96,-24.37,71.47,65.22,244.93,315.35,70.97,65.4,244.57,315.64,0.0
2018-08-20 16:56:00,89.61874,30.99375,931.916,274.27,68.8,677.8,6.88,2.78,-22.76,73.17,65.15,244.69,315.99,71.05,65.46,244.51,315.53,0.0
2018-08-20 16:56:00,89.61874,30.99389,931.926,274.27,68.8,677.7,7.11,2.74,-21.12,72.84,65.29,243.48,314.8,71.16,65.51,244.5,315.4,0.0
2018-08-20 16:56:00,89.61874,30.99404,931.925,274.26,68.8,677.7,7.19,2.73,-19.35,72.45,65.63,243.51,314.28,71.29,65.55,244.52,315.28,0.0
2018-08-20 16:56:00,89.61874,30.99418,931.912,274.27,68.8,677.8,7.34,2.63,-17.37,71.53,65.56,244.25,314.51,71.43,65.57,244.54,315.2,0.0
2018-08-20 16:56:00,89.61874,30.99433,931.961,274.27,68.8,677.4,7.64,2.56,-15.37,70.42,65.36,244.68,314.56,71.57,65.57,244.55,315.17,0.0
2018-08-20 16:56:00,89.61874,30.99447,931.945,274.27,68.8,677.5,7.88,2.35,-13.53,71.53,65.29,245.25,315.54,71.72,65.56,244.56,315.14,0.0
2018-08-20 16:56:00,89.61874,30.99462,931.956,274.27,68.8,677.4,7.68,2.18,-11.76,71.73,65.49,245.07,315.45,71.86,65.53,244.58,315.08,0.0
2018-08-20 16:56:00,89.61874,30.99474,931.979,274.27,68.8,677.2,7.49,2.0,-10.07,73.5,65.15,245.07,315.32,71.98,65.49,244.73,315.17,0.0
2018-08-20 16:56:00,89.61874,30.99484,931.993,274.27,68.8,677.1,7.58,1.8,-8.51,70.94,65.49,245.07,315.21,72.08,65.43,244.91,315.33,0.0
2018-08-20 16:56:00,89.61874,30.99494,931.984,274.27,68.8,677.2,7.94,1.61,-7.29,73.17,65.36,244.96,315.29,72.16,65.37,245.01,315.45,0.0
2018-08-20 16:56:00,89.61874,30.99504,931.936,274.27,68.8,677.6,7.6,1.59,-6.59,72.51,65.36,245.06,315.66,72.23,65.31,245.04,315.63,0.0
2018-08-20 16:56:00,89.61874,30.99514,931.956,274.27,68.8,677.4,6.86,1.43,-6.17,71.53,65.42,245.06,315.87,72.29,65.25,245.05,315.68,0.0
2018-08-20 16:56:00,89.61874,30.99524,931.964,274.27,68.8,677.4,6.96,1.32,-5.86,71.4,65.49,244.96,315.83,72.36,65.2,245.1,315.75,0.0
2018-08-20 16:56:00,89.61874,30.99534,931.945,274.27,68.8,677.5,7.53,1.18,-5.72,72.19,65.36,245.24,316.03,72.46,65.18,245.17,315.8,0.0
2018-08-20 16:56:00,89.61874,30.99544,931.912,274.27,68.8,677.8,8.1,1.02,-5.78,72.45,65.49,244.87,315.83,72.59,65.18,245.26,315.8,0.0
2018-08-20 16:56:00,89.61874,30.99554,931.875,274.27,68.8,678.1,8.51,1.05,-6.05,71.73,65.29,244.56,315.83,72.77,65.21,245.4,315.78,0.0
2018-08-20 16:56:00,89.61874,30.99564,931.906,274.27,68.8,677.9,8.74,1.11,-6.73,72.38,65.36,245.16,316.23,72.98,65.27,245.48,315.83,0.0
2018-08-20 16:56:00,89.61874,30.99574,931.912,274.27,68.8,677.8,8.98,1.01,-7.73,71.66,65.36,244.94,315.64,73.22,65.35,245.54,315.81,0.0
2018-08-20 16:56:00,89.61874,30.99585,931.923,274.27,68.8,677.7,9.08,1.17,-8.83,72.45,65.29,245.0,315.56,73.45,65.46,245.54,315.84,0.0
2018-08-20 16:56:00,89.61874,30.99595,931.946,274.26,68.8,677.5,8.78,1.47,-10.02,71.33,65.29,245.09,314.85,73.63,65.57,245.52,315.87,0.0
2018-08-20 16:56:00,89.61874,30.99603,931.92,274.27,68.8,677.7,7.7,1.39,-11.49,72.25,65.29,245.68,314.95,73.74,65.69,245.54,315.84,0.0
2018-08-20 16:56:00,89.61874,30.99612,931.922,274.27,68.8,677.7,6.81,1.66,-12.89,72.38,65.36,245.13,316.03,73.74,65.79,245.58,315.82,0.0
2018-08-20 16:56:00,89.61874,30.9962,931.942,274.26,68.8,677.6,6.31,1.75,-14.51,72.51,65.49,244.98,315.89,73.61,65.88,245.56,315.85,0.0
2018-08-20 16:56:00,89.61874,30.99629,931.954,274.26,68.8,677.5,6.18,1.92,-16.13,73.1,65.49,244.54,316.51,73.35,65.94,245.55,315.86,0.0
2018-08-20 16:56:00,89.61874,30.99638,931.956,274.27,68.8,677.4,6.1,2.06,-17.73,72.45,65.29,244.58,316.6,72.95,65.98,245.55,315.92,0.0
2018-08-20 16:56:00,89.61874,30.99646,931.962,274.26,68.8,677.4,5.84,2.07,-19.3,72.45,65.49,245.25,316.11,72.45,65.99,245.51,316.04,0.0
2018-08-20 16:56:00,89.61874,30.99655,931.978,274.26,68.8,677.3,5.67,2.22,-21.05,72.25,65.49,245.24,315.83,71.89,65.99,245.37,316.14,0.0
2018-08-20 16:56:00,89.61874,30.99663,931.975,274.27,68.8,677.3,5.88,2.24,-22.71,72.19,65.49,245.03,315.92,71.31,65.97,245.34,316.12,0.0
2018-08-20 16:56:00,89.61874,30.99672,931.958,274.26,68.8,677.4,5.82,2.34,-24.34,71.47,65.7,245.1,315.54,70.77,65.94,245.33,316.11,0.0
2018-08-20 16:56:00,89.61874,30.9968,931.943,274.26,68.8,677.6,5.48,2.41,-25.97,72.84,65.49,245.16,315.58,70.29,65.91,245.34,316.02,0.0
2018-08-20 16:56:00,89.61874,30.99689,931.943,274.26,68.8,677.6,5.0,2.47,-27.56,72.78,65.29,244.84,315.8,69.92,65.87,245.32,315.88,0.0
2018-08-20 16:56:00,89.61874,30.99699,931.955,274.26,68.8,677.4,4.61,2.72,-29.16,71.86,65.36,244.39,315.77,69.66,65.81,245.18,315.76,0.0
2018-08-20 16:56:00,89.61874,30.99709,931.986,274.26,68.8,677.2,4.13,2.81,-30.37,72.25,65.63,245.04,315.8,69.52,65.74,245.06,315.62,0.0
2018-08-20 16:56:00,89.61874,30.9972,931.974,274.26,68.8,677.3,3.61,2.89,-31.53,72.64,65.56,245.21,315.93,69.48,65.65,244.97,315.48,0.0
2018-08-20 16:56:00,89.61874,30.99731,931.977,274.26,68.8,677.3,3.17,3.07,-32.44,70.81,65.49,245.24,315.93,69.51,65.53,244.91,315.37,0.0
2018-08-20 16:56:00,89.61874,30.99742,931.998,274.26,68.8,677.1,2.99,3.26,-33.09,71.66,65.56,244.98,315.56,69.6,65.4,244.87,315.3,0.0
2018-08-20 16:56:00,89.61874,30.99753,931.984,274.27,68.8,677.2,3.21,3.26,-33.48,71.4,65.49,244.85,315.7,69.72,65.24,244.87,315.27,0.0
2018-08-20 16:56:00,89.61874,30.99764,931.97,274.27,68.8,677.3,3.62,3.16,-33.7,71.79,65.63,244.73,315.29,69.86,65.09,244.95,315.29,0.0
2018-08-20 16:56:00,89.61874,30.99774,931.983,274.27,68.8,677.2,4.12,3.25,-33.34,71.86,65.56,244.92,315.52,70.01,64.95,244.98,315.3,0.0
2018-08-20 16:56:00,89.61874,30.99785,932.0,274.27,68.8,677.1,4.63,3.13,-32.6,72.12,65.49,245.07,315.26,70.16,64.84,244.94,315.34,0.0
2018-08-20 16:56:00,89.61874,30.99796,932.005,274.27,68.8,677.0,5.05,3.0,-31.77,71.99,65.42,245.22,315.44,70.34,64.78,244.9,315.35,0.0
2018-08-20 16:56:00,89.61874,30.99807,931.997,274.27,68.8,677.1,5.33,3.0,-30.97,71.79,65.42,245.35,315.33,70.56,64.78,244.93,315.34,0.0
2018-08-20 16:56:00,89.61874,30.99818,932.018,274.26,68.8,676.9,5.62,2.99,-29.84,72.06,65.49,245.24,315.56,70.83,64.85,245.0,315.41,0.0
2018-08-20 16:56:00,89.61874,30.99829,932.003,274.26,68.8,677.0,5.09,3.09,-28.64,70.68,65.36,245.12,314.84,71.15,64.98,245.02,315.44,0.0
2018-08-20 16:56:00,89.61874,30.99838,931.986,274.26,68.8,677.2,5.12,3.04,-27.15,70.09,65.29,244.36,315.24,71.54,65.17,245.01,315.42,0.0
2018-08-20 16:56:00,89.61874,30.99847,931.977,274.26,68.8,677.3,5.25,3.03,-25.57,71.66,65.15,244.36,314.71,71.97,65.4,244.97,315.38,0.0
2018-08-20 16:56:00,89.61874,30.99856,931.979,274.26,68.8,677.2,5.15,3.1,-23.93,71.99,65.29,244.6,314.34,72.42,65.64,244.9,315.33,0.0
2018-08-20 16:56:00,89.61874,30.99865,932.0,274.26,68.8,677.1,4.86,3.08,-22.13,72.71,65.49,245.04,315.53,72.87,65.86,244.84,315.26,0.0
2018-08-20 16:56:00,89.61874,30.99874,931.995,274.27,68.8,677.1,5.55,3.19,-19.89,71.33,65.42,245.03,315.82,73.27,66.05,244.8,315.22,0.0
2018-08-20 16:56:00,89.61874,30.99883,932.002,274.26,68.8,677.1,6.33,3.24,-17.77,71.4,65.49,245.22,316.02,73.59,66.18,244.79,315.25,0.0
2018-08-20 16:56:00,89.61874,30.99892,932.011,274.26,68.8,677.0,6.63,3.15,-15.83,71.66,65.49,245.31,315.63,73.8,66.24,244.89,315.34,0.0
2018-08-20 16:56:00,89.61874,30.99901,932.013,274.26,68.8,677.0,6.82,2.87,-13.89,72.06,65.56,245.21,315.92,73.88,66.23,245.04,315.52,0.0
2018-08-20 16:56:00,89.61874,30.9991,932.008,274.27,68.8,677.0,7.33,2.5,-11.89,71.66,65.63,245.22,316.12,73.81,66.16,245.17,315.74,0.0
2018-08-20 16:56:00,89.61874,30.99919,932.015,274.27,68.8,676.9,7.62,2.34,-10.1,72.06,65.49,245.41,315.92,73.6,66.05,245.31,315.9,0.0
2018-08-20 16:56:00,89.61874,30.99928,932.045,274.27,68.8,676.7,8.49,2.2,-8.54,72.06,65.42,245.22,315.63,73.27,65.92,245.46,316.06,0.0
2018-08-20 16:56:00,89.61874,30.99937,932.032,274.27,68.8,676.8,8.79,1.95,-7.34,71.79,65.77,245.22,316.19,72.85,65.78,245.58,316.23,0.0
2018-08-20 16:56:00,89.61874,30.99946,932.007,274.26,68.8,677.0,8.75,1.71,-6.49,72.32,65.49,245.03,316.31,72.38,65.66,245.68,316.39,0.0
2018-08-20 16:56:00,89.61874,30.99954,932.012,274.26,68.8,677.0,8.73,1.53,-5.92,72.32,65.49,245.32,315.97,71.91,65.57,245.75,316.49,0.0
2018-08-20 16:56:00,89.61874,30.99964,932.008,274.26,68.9,677.0,8.83,1.33,-5.69,72.32,65.56,245.22,316.05,71.46,65.52,245.76,316.53,0.0
2018-08-20 16:56:00,89.61874,30.99976,931.973,274.26,68.9,677.3,9.06,1.27,-5.64,72.25,65.49,245.23,315.74,71.1,65.5,245.73,316.49,0.0
2018-08-20 16:56:00,89.61874,30.9999,931.937,274.26,68.9,677.6,9.06,1.08,-6.03,70.81,65.49,244.85,316.27,70.84,65.52,245.66,316.4,0.0
2018-08-20 16:56:00,89.61874,31.00003,931.937,274.26,68.9,677.6,8.91,1.12,-6.65,72.91,65.49,245.19,316.15,70.7,65.56,245.58,316.26,0.0
2018-08-20 16:56:00,89.61874,31.00017,931.973,274.26,68.9,677.3,8.72,1.23,-7.44,71.27,65.56,245.1,316.39,70.7,65.6,245.47,316.11,0.0
2018-08-20 16:56:00,89.61874,31.00031,932.003,274.26,68.8,677.0,8.59,1.09,-8.39,71.27,65.63,245.26,316.13,70.81,65.65,245.31,315.96,0.0
2018-08-20 16:56:00,89.61874,31.00045,931.987,274.26,68.9,677.2,8.24,1.33,-9.36,71.6,65.56,245.12,315.81,71.02,65.68,245.19,315.84,0.0
2018-08-20 16:56:00,89.61874,31.00059,931.995,274.26,68.9,677.1,7.73,1.39,-10.57,72.78,65.42,245.1,316.1,71.29,65.71,245.1,315.77,0.0
2018-08-20 16:56:00,89.61874,31.00073,931.998,274.26,68.9,677.1,7.38,1.62,-11.94,71.6,65.49,245.23,315.81,71.59,65.73,245.08,315.69,0.0
2018-08-20 16:56:00,89.61874,31.00087,932.002,274.26,68.9,677.1,7.23,1.85,-13.47,72.45,65.63,244.99,316.04,71.88,65.74,245.09,315.7,0.0
2018-08-20 16:56:00,89.61874,31.001,932.027,274.26,68.9,676.8,7.28,1.92,-15.06,71.4,65.7,244.37,315.12,72.13,65.75,245.09,315.82,0.0
2018-08-20 16:56:00,89.61874,31.00107,932.036,274.26,68.9,676.8,7.44,2.04,-16.48,70.29,65.63,244.49,315.4,72.31,65.77,245.1,315.86,0.0
2018-08-20 16:56:00,89.61874,31.00114,932.037,274.26,68.9,676.8,7.41,2.03,-18.13,73.23,65.42,245.01,315.43,72.41,65.8,245.15,315.92,0.0
2018-08-20 16:56:00,89.61874,31.00121,932.031,274.26,68.9,676.8,7.4,2.27,-19.83,71.27,65.77,245.1,315.26,72.43,65.83,245.19,315.98,0.0
2018-08-20 16:56:00,89.61874,31.00127,932.026,274.26,68.9,676.9,7.32,2.42,-21.53,71.92,65.29,245.15,316.07,72.37,65.86,245.22,316.01,0.0
2018-08-20 16:56:00,89.61874,31.00134,932.027,274.26,68.8,676.8,7.18,2.41,-23.28,71.47,65.56,245.02,317.0,72.25,65.89,245.24,316.03,0.0
2018-08-20 16:56:00,89.61874,31.00141,932.042,274.25,68.9,676.7,7.05,2.57,-24.95,71.99,65.7,244.7,315.81,72.11,65.91,245.3,316.05,0.0
2018-08-20 16:56:00,89.61874,31.00147,932.028,274.26,68.9,676.8,6.36,2.71,-26.62,73.04,65.56,245.4,315.81,71.96,65.9,245.33,316.06,0.0
2018-08-20 16:56:00,89.61874,31.00154,932.01,274.25,68.9,677.0,5.91,2.89,-28.02,72.78,65.63,245.31,316.0,71.83,65.88,245.34,316.06,0.0
2018-08-20 16:56:00,89.61874,31.0016,932.018,274.25,68.9,676.9,5.86,2.92,-29.08,70.81,65.63,245.4,315.81,71.72,65.83,245.3,316.09,0.0
2018-08-20 16:56:00,89.61874,31.00167,932.041,274.26,68.9,676.7,5.99,3.0,-29.91,71.6,65.77,245.21,315.71,71.65,65.76,245.27,316.05,0.0
2018-08-20 16:56:00,89.61874,31.00174,932.041,274.26,68.9,676.7,6.04,3.29,-30.57,71.86,65.7,245.32,315.9,71.6,65.67,245.25,315.92,0.0
2018-08-20 16:56:00,89.61874,31.0018,932.038,274.26,68.9,676.8,5.88,3.24,-31.06,71.4,65.49,245.31,315.81,71.56,65.59,245.25,315.91,0.0
2018-08-20 16:56:00,89.61874,31.00199,932.043,274.26,68.9,676.7,6.05,3.15,-31.32,71.73,65.77,245.4,315.91,71.52,65.51,245.22,315.92,0.0
2018-08-20 16:56:00,89.61874,31.0022,932.05,274.26,68.9,676.7,6.48,3.08,-31.4,72.45,65.63,245.29,315.71,71.46,65.45,245.18,315.93,0.0
2018-08-20 16:56:00,89.61874,31.00241,932.049,274.26,68.9,676.7,6.7,3.14,-31.07,71.6,65.56,245.21,315.9,71.36,65.42,245.15,316.01,0.0
2018-08-20 16:56:00,89.61874,31.00262,932.038,274.26,68.9,676.8,6.65,3.28,-30.4,71.6,65.63,245.5,315.9,71.23,65.41,245.11,316.14,0.0
2018-08-20 16:56:00,89.61874,31.00283,932.043,274.26,68.9,676.7,6.84,3.23,-29.79,72.45,65.36,245.29,316.09,71.07,65.43,245.09,316.16,0.0
2018-08-20 16:56:00,89.61874,31.00304,932.053,274.26,68.9,676.6,6.33,3.25,-29.03,71.99,65.63,245.3,315.9,70.89,65.47,245.07,316.15,0.0
2018-08-20 16:56:00,89.61874,31.00325,932.055,274.26,68.9,676.6,5.45,3.35,-27.95,71.27,65.77,245.1,316.18,70.71,65.52,245.05,316.19,0.0
2018-08-20 16:56:00,89.61874,31.00346,932.057,274.26,68.9,676.6,4.87,3.37,-26.73,72.64,65.49,245.34,316.62,70.56,65.58,245.12,316.25,0.0
2018-08-20 16:56:00,89.61874,31.00367,932.055,274.26,68.9,676.6,4.72,3.31,-25.4,70.88,65.7,245.52,316.82,70.47,65.61,245.21,316.28,0.0
2018-08-20 16:56:00,89.61874,31.00387,932.031,274.26,68.9,676.8,4.77,3.23,-23.96,71.86,65.56,245.3,316.1,70.45,65.63,245.19,316.27,0.0
2018-08-20 16:56:00,89.61874,31.00408,932.053,274.26,68.9,676.6,4.81,3.26,-22.19,71.79,65.49,245.4,316.01,70.53,65.62,245.18,316.26,0.0
2018-08-20 16:56:00,89.61874,31.00429,932.052,274.26,68.9,676.6,5.57,3.15,-20.27,70.03,65.56,245.1,316.7,70.7,65.59,245.16,316.06,0.0
2018-08-20 16:56:00,89.61874,31.00449,932.053,274.26,68.9,676.6,6.38,3.07,-18.3,73.1,65.7,245.96,316.69,70.95,65.53,245.12,315.87,0.0
2018-08-20 16:56:00,89.61874,31.00464,932.058,274.26,68.9,676.6,6.96,2.92,-16.36,71.33,65.56,246.18,316.65,71.27,65.45,245.08,315.71,0.0
2018-08-20 16:56:00,89.61874,31.00478,932.061,274.26,68.9,676.6,7.31,2.69,-14.54,71.79,65.7,244.87,316.23,71.63,65.36,245.07,315.56,0.0
2018-08-20 16:56:00,89.61874,31.00492,932.061,274.26,68.9,676.6,7.92,2.62,-12.56,70.55,65.77,245.3,316.1,72.01,65.27,245.0,315.49,0.0
2018-08-20 16:56:00,89.61874,31.00507,932.091,274.26,68.9,676.3,9.05,2.16,-11.06,72.06,65.56,245.27,314.5,72.37,65.19,244.95,315.44,0.0
2018-08-20 16:56:00,89.61874,31.00521,932.092,274.26,68.9,676.3,9.24,2.03,-9.56,71.27,65.56,244.47,314.21,72.68,65.13,244.93,315.38,0.0
2018-08-20 16:56:00,89.61874,31.00535,932.077,274.26,68.9,676.4,9.12,1.93,-8.35,71.6,65.36,244.78,314.93,72.93,65.11,244.86,315.24,0.0
2018-08-20 16:56:00,89.61874,31.0055,932.062,274.26,68.9,676.5,9.3,1.73,-7.6,71.99,65.36,245.1,315.48,73.09,65.11,244.83,315.05,0.0
2018-08-20 16:56:00,89.61874,31.00564,932.022,274.25,68.9,676.9,9.86,1.65,-7.17,72.32,65.63,244.27,315.35,73.16,65.16,244.95,314.94,0.0
2018-08-20 16:56:00,89.61874,31.00578,932.045,274.26,68.9,676.7,9.43,1.48,-6.99,71.47,65.56,244.73,315.46,73.13,65.24,245.03,314.92,0.0
2018-08-20 16:56:00,89.61874,31.00593,932.038,274.26,68.9,676.8,8.46,1.42,-7.08,71.86,65.49,244.68,315.86,73.0,65.36,245.12,315.08,0.0
2018-08-20 16:56:00,89.61874,31.00607,932.044,274.26,68.9,676.7,7.93,1.29,-7.33,72.06,65.56,244.86,314.62,72.78,65.5,245.25,315.23,0.0
2018-08-20 16:56:00,89.61874,31.00622,932.072,274.25,68.9,676.5,7.94,1.2,-7.79,71.6,65.56,245.44,313.86,72.5,65.66,245.36,315.29,0.0
2018-08-20 16:56:00,89.61874,31.00628,932.082,274.26,68.9,676.4,8.16,1.34,-8.49,71.4,65.36,245.81,314.65,72.18,65.82,245.44,315.3,0.0
2018-08-20 16:56:00,89.61874,31.00633,932.036,274.25,68.9,676.8,8.27,1.28,-9.46,72.32,65.56,245.2,315.41,71.84,65.96,245.54,315.34,0.0
2018-08-20 16:56:00,89.61874,31.00638,932.059,274.26,68.9,676.6,8.66,1.38,-10.52,72.06,65.49,245.02,315.54,71.51,66.08,245.6,315.38,0.0
2018-08-20 16:56:00,89.61874,31.00644,932.054,274.25,68.9,676.6,9.06,1.56,-11.86,71.86,65.63,245.3,316.03,71.21,66.16,245.63,315.4,0.0
2018-08-20 16:56:00,89.61874,31.00649,932.054,274.25,68.9,676.6,9.45,1.79,-13.21,71.79,65.56,245.3,315.61,70.98,66.18,245.62,315.5,0.0
2018-08-20 16:56:00,89.61874,31.00655,932.09,274.25,68.9,676.3,9.75,2.02,-14.52,71.53,65.63,245.49,316.1,70.83,66.15,245.55,315.66,0.0
2018-08-20 16:56:00,89.61874,31.0066,932.077,274.25,68.9,676.4,9.69,2.11,-15.99,71.53,65.49,245.21,316.0,70.77,66.05,245.44,315.8,0.0
2018-08-20 16:56:00,89.61874,31.00666,932.089,274.25,68.9,676.3,9.53,2.48,-17.44,72.97,65.63,245.38,315.62,70.79,65.91,245.41,315.85,0.0
2018-08-20 16:56:00,89.61874,31.00671,932.078,274.25,68.9,676.4,9.08,2.67,-18.81,71.2,65.63,245.27,315.89,70.88,65.72,245.38,315.91,0.0
2018-08-20 16:56:00,89.61874,31.00676,932.066,274.25,68.9,676.5,8.58,2.89,-20.18,72.12,65.77,245.28,315.8,71.03,65.5,245.35,316.03,0.0
2018-08-20 16:56:00,89.61874,31.00682,932.064,274.25,68.9,676.5,8.04,3.1,-21.66,71.01,65.7,245.19,316.0,71.19,65.29,245.33,316.14,0.0
2018-08-20 16:56:00,89.61874,31.00687,932.073,274.25,68.9,676.5,7.38,3.19,-23.24,71.66,65.56,245.56,315.81,71.33,65.1,245.36,316.17,0.0
2018-08-20 16:56:00,89.61874,31.00692,932.089,274.25,68.9,676.3,6.83,3.35,-24.49,70.48,65.77,245.39,315.79,71.43,64.96,245.47,316.19,0.0
2018-08-20 16:56:00,89.61874,31.00698,932.099,274.25,68.9,676.2,7.12,3.28,-25.52,72.32,65.77,245.46,316.09,71.47,64.87,245.53,316.15,0.0
2018-08-20 16:56:00,89.61874,31.00703,932.107,274.25,68.9,676.2,7.75,3.5,-26.56,71.73,65.56,245.12,316.73,71.43,64.86,245.63,316.18,0.0
2018-08-20 16:56:00,89.61874,31.00718,932.11,274.25,68.9,676.1,8.2,3.76,-27.37,71.6,65.08,244.99,316.4,71.33,64.93,245.71,316.23,0.0
2018-08-20 16:56:00,89.61874,31.00738,932.101,274.25,68.9,676.2,8.11,3.84,-27.83,72.06,65.36,245.16,315.74,71.19,65.06,245.73,316.27,0.0
2018-08-20 16:56:00,89.61874,31.00758,932.115,274.25,68.9,676.1,7.6,3.99,-28.36,71.86,65.56,245.83,315.79,71.04,65.25,245.77,316.33,0.0
2018-08-20 16:56:00,89.61874,31.00778,932.093,274.25,68.9,676.3,7.61,3.77,-28.26,72.25,65.49,245.06,315.12,70.92,65.47,245.71,316.33,0.0
2018-08-20 16:56:00,89.61874,31.00798,932.09,274.25,68.9,676.3,7.82,3.93,-28.2,71.79,65.36,245.81,316.16,70.86,65.69,245.62,316.32,0.0
2018-08-20 16:56:00,89.61874,31.00818,932.087,274.25,68.9,676.3,7.65,3.96,-28.02,70.22,65.49,245.69,316.74,70.89,65.9,245.55,316.26,0.0
2018-08-20 16:56:00,89.61874,31.00838,932.074,274.25,68.9,676.4,6.93,3.74,-27.59,72.25,65.56,245.41,316.71,71.02,66.06,245.49,316.2,0.0
2018-08-20 16:56:00,89.61874,31.00858,932.116,274.25,68.9,676.1,6.03,3.68,-26.96,71.14,65.63,246.05,316.63,71.25,66.16,245.42,316.22,0.0
2018-08-20 16:56:00,89.61874,31.00878,932.104,274.25,68.9,676.2,6.46,3.67,-26.14,71.27,65.77,245.54,315.88,71.55,66.2,245.33,316.25,0.0
2018-08-20 16:56:00,89.61874,31.00896,932.086,274.25,68.9,676.4,6.42,3.66,-25.24,71.14,65.49,245.28,315.81,71.89,66.18,245.32,316.31,0.0
2018-08-20 16:56:00,89.61874,31.00914,932.079,274.25,68.9,676.4,6.09,3.48,-24.18,72.45,65.7,245.27,315.9,72.23,66.1,245.3,316.3,0.0
2018-08-20 16:56:00,89.61874,31.00932,932.08,274.25,68.9,676.4,6.01,3.38,-22.96,71.01,65.63,245.55,315.62,72.53,65.99,245.31,316.25,0.0
2018-08-20 16:56:00,89.61874,31.0095,932.073,274.25,68.9,676.5,6.59,3.59,-21.64,71.47,65.56,245.37,315.91,72.74,65.85,245.37,316.2,0.0
2018-08-20 16:56:00,89.61874,31.00969,932.098,274.25,68.9,676.2,7.58,3.64,-20.64,70.81,65.56,245.18,316.0,72.85,65.71,245.39,316.12,0.0
2018-08-20 16:56:00,89.61874,31.00986,932.084,274.25,68.9,676.4,8.33,3.43,-18.96,72.71,65.56,245.46,315.9,72.84,65.59,245.55,316.1,0.0
2018-08-20 16:56:00,89.61874,31.01005,932.091,274.25,68.9,676.3,9.06,3.25,-17.12,72.64,65.63,245.37,316.39,72.74,65.49,245.64,316.06,0.0
2018-08-20 16:56:00,89.61874,31.01023,932.105,274.25,68.9,676.2,9.87,3.07,-15.4,71.47,65.63,245.37,316.0,72.56,65.43,245.66,316.02,0.0
2018-08-20 16:56:00,89.61874,31.01041,932.101,274.25,68.9,676.2,10.75,2.85,-13.8,71.92,65.7,245.27,315.9,72.34,65.39,245.64,316.0,0.0
2018-08-20 16:56:00,89.61874,31.01059,932.113,274.25,68.9,676.1,11.51,2.64,-12.15,71.6,65.63,245.51,315.9,72.12,65.39,245.61,315.97,0.0
2018-08-20 16:56:00,89.61874,31.01077,932.095,274.25,68.9,676.3,12.23,2.57,-10.72,71.99,65.56,246.22,315.9,71.93,65.41,245.63,315.91,0.0
2018-08-20 16:56:00,89.61874,31.01095,932.096,274.25,68.9,676.3,12.37,2.36,-9.58,71.01,65.49,245.86,315.46,71.78,65.44,245.63,315.86,0.0
2018-08-20 16:56:00,89.61874,31.01108,932.111,274.25,68.9,676.1,12.18,2.08,-8.72,72.19,65.7,245.27,315.91,71.7,65.48,245.63,315.82,0.0
2018-08-20 16:56:00,89.61874,31.0112,932.114,274.25,68.9,676.1,12.01,1.84,-8.13,70.68,65.49,245.17,316.1,71.67,65.53,245.63,315.8,0.0
2018-08-20 16:56:00,89.61874,31.01132,932.079,274.25,68.9,676.4,12.07,1.7,-7.89,71.99,65.56,245.48,315.85,71.67,65.57,245.62,315.81,0.0
2018-08-20 16:56:00,89.61874,31.01144,932.107,274.25,68.9,676.2,11.61,1.41,-8.36,72.12,65.49,246.12,315.59,71.69,65.62,245.52,315.88,0.0
2018-08-20 16:56:00,89.61874,31.01155,932.077,274.25,68.9,676.4,11.23,1.3,-8.62,72.06,65.63,246.3,315.49,71.69,65.67,245.36,315.93,0.0
2018-08-20 16:56:00,89.61874,31.01167,932.089,274.25,68.9,676.3,10.93,1.26,-9.03,71.6,65.56,245.97,315.85,71.65,65.74,245.34,315.95,0.0
2018-08-20 16:56:00,89.61874,31.01179,932.115,274.25,68.9,676.1,10.73,1.26,-9.64,72.78,65.63,246.08,315.78,71.57,65.81,245.4,316.0,0.0
2018-08-20 16:56:00,89.61874,31.01191,932.078,274.25,68.9,676.4,10.74,1.29,-10.45,71.86,65.7,245.49,316.01,71.43,65.9,245.46,316.09,0.0
2018-08-20 16:56:00,89.61874,31.01203,932.106,274.24,68.9,676.2,11.38,1.33,-11.5,71.07,65.49,244.39,316.76,71.27,66.0,245.5,316.18,0.0
2018-08-20 16:56:00,89.61874,31.01214,932.124,274.25,68.9,676.0,11.29,1.52,-12.64,70.88,65.49,244.03,316.46,71.08,66.1,245.46,316.3,0.0
2018-08-20 16:56:00,89.61874,31.01226,932.096,274.25,68.9,676.3,10.72,1.62,-13.89,71.07,65.7,244.83,316.1,70.9,66.19,245.41,316.4,0.0
2018-08-20 16:56:00,89.61874,31.01238,932.09,274.24,68.9,676.3,10.1,1.8,-15.28,73.23,65.77,245.16,316.38,70.75,66.25,245.36,316.47,0.0
2018-08-20 16:56:00,89.61874,31.01251,932.142,274.24,68.9,675.9,9.84,2.11,-16.86,71.66,65.56,245.14,317.38,70.65,66.27,245.31,316.51,0.0
2018-08-20 16:56:00,89.61874,31.01266,932.112,274.24,68.9,676.1,10.2,2.42,-18.51,71.07,65.77,245.23,317.18,70.6,66.25,245.3,316.53,0.0
2018-08-20 16:56:00,89.61874,31.01281,932.125,274.24,68.9,676.0,10.21,2.76,-19.95,71.92,65.7,245.16,317.32,70.6,66.19,245.41,316.45,0.0
2018-08-20 16:56:00,89.61874,31.01296,932.113,274.24,68.9,676.1,10.21,3.0,-21.4,72.06,65.63,245.45,316.85,70.64,66.08,245.65,316.41,0.0
2018-08-20 16:56:00,89.61874,31.01312,932.114,274.24,68.9,676.1,10.13,3.34,-22.88,70.75,65.7,245.45,316.53,70.69,65.94,245.78,316.42,0.0
2018-08-20 16:56:00,89.61874,31.01327,932.134,274.24,69.0,675.9,10.0,3.61,-24.36,71.27,65.7,245.45,316.51,70.73,65.79,245.82,316.41,0.0
2018-08-20 16:56:00,89.61874,31.01342,932.146,274.24,69.0,675.8,9.89,3.63,-25.75,71.79,65.77,245.46,316.51,70.74,65.63,245.87,316.34,0.0
2018-08-20 16:56:00,89.61874,31.01357,932.095,274.24,69.0,676.3,9.77,3.93,-27.3,71.79,65.77,245.27,315.81,70.7,65.5,245.91,316.27,0.0
2018-08-20 16:56:00,89.61874,31.01372,932.103,274.24,69.0,676.2,9.22,4.02,-28.8,70.88,65.91,246.63,315.89,70.61,65.4,246.05,316.29,0.0
2018-08-20 16:56:00,89.61874,31.01388,932.116,274.24,69.0,676.1,9.0,4.13,-30.11,71.99,65.77,246.01,315.89,70.46,65.34,246.11,316.25,0.0
2018-08-20 16:56:00,89.61874,31.01403,932.125,274.24,69.0,676.0,8.91,4.22,-31.27,71.47,65.63,245.45,316.09,70.29,65.34,246.11,316.18,0.0
2018-08-20 16:56:00,89.61874,31.01418,932.135,274.24,69.0,675.9,8.6,4.3,-32.44,71.07,65.7,245.43,315.82,70.11,65.37,246.09,316.12,0.0
2018-08-20 16:56:00,89.61874,31.01432,932.14,274.24,69.0,675.9,7.8,4.65,-33.77,71.79,65.49,245.39,316.02,69.94,65.44,246.06,316.06,0.0
2018-08-20 16:56:00,89.61874,31.01445,932.153,274.24,69.0,675.8,7.54,4.87,-34.24,70.88,65.56,246.69,316.61,69.82,65.54,246.02,316.04,0.0
2018-08-20 16:56:00,89.61874,31.01458,932.158,274.25,69.0,675.7,7.23,4.98,-34.49,72.12,65.36,245.94,316.18,69.75,65.64,245.86,316.02,0.0
2018-08-20 16:56:00,89.61874,31.01471,932.146,274.25,69.0,675.8,6.76,4.97,-34.4,70.75,65.7,245.46,315.89,69.75,65.73,245.77,316.0,0.0
2018-08-20 16:56:00,89.61874,31.01484,932.129,274.24,69.0,676.0,6.31,4.98,-33.93,71.4,65.77,245.45,316.09,69.81,65.8,245.74,316.0,0.0
2018-08-20 16:56:00,89.61874,31.01497,932.151,274.24,69.0,675.8,6.23,5.21,-33.2,70.09,65.77,245.54,315.8,69.91,65.85,245.74,316.03,0.0
2018-08-20 16:56:00,89.61874,31.01509,932.14,274.24,69.0,675.9,7.16,4.76,-32.78,71.47,65.7,245.36,315.89,70.04,65.88,245.83,316.09,0.0
2018-08-20 16:56:00,89.61874,31.01522,932.139,274.25,69.0,675.9,7.19,4.7,-31.62,71.14,65.77,245.72,315.79,70.18,65.88,245.78,315.99,0.0
2018-08-20 16:56:00,89.61874,31.01535,932.143,274.25,69.0,675.9,7.22,4.51,-30.29,71.14,65.77,245.72,316.17,70.31,65.87,245.79,315.94,0.0
2018-08-20 16:56:00,89.61874,31.01548,932.137,274.24,69.0,675.9,7.71,4.38,-28.86,71.6,65.7,245.54,315.89,70.41,65.86,245.82,315.95,0.0
2018-08-20 16:56:00,89.61874,31.01561,932.112,274.24,69.0,676.1,8.66,4.39,-27.33,71.27,65.77,245.72,316.17,70.49,65.85,245.84,315.96,0.0
2018-08-20 16:56:00,89.61874,31.01574,932.1,274.24,69.0,676.2,9.47,3.8,-25.62,70.48,65.56,246.55,315.97,70.55,65.85,245.82,315.97,0.0
2018-08-20 16:56:00,89.61874,31.01586,932.1,274.24,69.0,676.2,9.54,3.95,-23.14,71.07,65.56,245.98,315.16,70.62,65.85,245.77,315.97,0.0
2018-08-20 16:56:00,89.61874,31.01599,932.106,274.24,69.0,676.2,9.73,3.7,-21.01,70.55,65.7,245.93,315.48,70.73,65.86,245.72,315.96,0.0
2018-08-20 16:56:00,89.61874,31.01612,932.118,274.24,69.0,676.1,10.03,3.46,-19.07,71.2,65.7,246.15,315.22,70.89,65.87,245.69,315.93,0.0
2018-08-20 16:56:00,89.61874,31.01625,932.142,274.24,69.0,675.9,10.32,3.26,-17.03,71.14,65.7,245.97,315.56,71.12,65.88,245.68,315.93,0.0
2018-08-20 16:56:00,89.61874,31.01643,932.182,274.24,69.0,675.5,10.41,2.62,-14.86,71.14,65.7,245.92,315.78,71.44,65.88,245.68,316.0,0.0
2018-08-20 16:56:00,89.61874,31.01662,932.134,274.24,69.0,675.9,10.56,2.68,-12.64,71.27,65.77,245.56,315.96,71.82,65.86,245.62,316.04,0.0
2018-08-20 16:56:00,89.61874,31.01681,932.142,274.24,69.0,675.9,10.63,2.32,-10.97,71.66,65.77,245.43,315.9,72.24,65.84,245.61,316.16,0.0
2018-08-20 16:56:00,89.61874,31.017,932.149,274.24,69.0,675.8,10.91,2.01,-9.57,69.9,65.77,245.43,315.8,72.66,65.8,245.63,316.29,0.0
2018-08-20 16:56:00,89.61874,31.01719,932.143,274.24,69.0,675.9,10.98,1.7,-8.39,71.01,65.7,245.33,316.54,73.03,65.77,245.65,316.4,0.0
2018-08-20 16:56:00,89.61874,31.01738,932.165,274.24,69.0,675.7,10.44,1.23,-7.43,70.09,65.91,245.4,317.28,73.3,65.74,245.68,316.48,0.0
2018-08-20 16:56:00,89.61874,31.01757,932.126,274.24,69.0,676.0,10.49,1.22,-6.83,72.71,65.77,245.32,317.62,73.42,65.72,245.71,316.56,0.0
2018-08-20 16:56:00,89.61874,31.01776,932.138,274.24,69.0,675.9,11.11,0.8,-6.7,71.6,65.77,245.34,316.8,73.38,65.72,245.74,316.6,0.0
2018-08-20 16:56:00,89.61874,31.01795,932.154,274.24,69.0,675.8,11.55,0.73,-6.68,71.4,65.56,245.25,317.07,73.17,65.74,245.74,316.62,0.0
2018-08-20 16:56:00,89.61874,31.01809,932.153,274.24,69.0,675.8,11.75,0.76,-6.85,71.2,65.56,245.43,316.53,72.82,65.78,245.72,316.64,0.0
2018-08-20 16:56:00,89.61874,31.01816,932.141,274.24,69.0,675.9,11.81,0.74,-7.29,71.33,65.7,245.24,316.33,72.37,65.82,245.67,316.61,0.0
2018-08-20 16:56:00,89.61874,31.01823,932.183,274.24,69.0,675.5,11.94,1.0,-7.98,72.12,65.7,245.44,316.37,71.88,65.87,245.63,316.48,0.0
2018-08-20 16:56:00,89.61874,31.0183,932.18,274.24,69.0,675.6,12.21,1.1,-8.92,71.47,65.77,245.44,315.92,71.42,65.9,245.66,316.33,0.0
2018-08-20 16:56:00,89.61874,31.01837,932.183,274.24,69.0,675.5,12.24,1.27,-10.07,71.47,65.77,245.53,315.97,71.06,65.92,245.66,316.21,0.0
2018-08-20 16:56:00,89.61874,31.01844,932.172,274.24,69.0,675.6,12.14,1.39,-11.42,70.68,65.77,245.53,315.78,70.85,65.91,245.65,316.1,0.0
2018-08-20 16:56:00,89.61874,31.0185,932.145,274.23,69.0,675.9,11.86,1.55,-12.93,72.12,65.77,245.62,315.98,70.8,65.88,245.68,316.0,0.0
2018-08-20 16:56:00,89.61874,31.01857,932.148,274.23,69.0,675.8,11.3,1.94,-14.5,71.66,65.91,245.89,315.88,70.91,65.83,245.75,315.97,0.0
2018-08-20 16:56:00,89.61874,31.01864,932.179,274.23,69.0,675.6,11.13,2.17,-16.32,71.14,65.7,246.39,315.78,71.15,65.76,245.92,316.03,0.0
2018-08-20 16:56:00,89.61874,31.01871,932.166,274.23,69.0,675.7,11.0,2.42,-18.07,71.27,65.91,245.75,315.78,71.45,65.69,246.01,316.06,0.0
2018-08-20 16:56:00,89.61874,31.01878,932.166,274.23,69.0,675.7,10.65,2.77,-19.67,71.01,65.84,245.53,316.26,71.74,65.63,246.06,316.09,0.0
2018-08-20 16:56:00,89.61874,31.01884,932.186,274.23,69.0,675.5,10.19,3.04,-21.22,70.88,65.56,245.54,315.8,71.97,65.6,246.1,316.12,0.0
2018-08-20 16:56:00,89.61874,31.01892,932.198,274.23,69.0,675.4,9.82,3.13,-22.9,71.73,65.7,245.86,316.38,72.07,65.58,246.11,316.17,0.0
2018-08-20 16:56:00,89.61874,31.019,932.197,274.23,69.0,675.4,9.61,3.38,-24.76,71.01,65.49,246.71,316.86,72.03,65.6,246.09,316.21,0.0
2018-08-20 16:56:00,89.61874,31.01909,932.177,274.23,69.0,675.6,9.24,3.56,-26.36,71.92,65.84,245.7,316.0,71.84,65.64,245.99,316.16,0.0
2018-08-20 16:56:00,89.61874,31.01918,932.168,274.23,69.0,675.7,9.58,3.95,-27.89,71.79,65.77,245.53,316.07,71.55,65.71,245.98,316.13,0.0
2018-08-20 16:56:00,89.61874,31.01927,932.172,274.23,69.0,675.6,9.87,4.25,-29.28,71.6,65.77,245.53,315.78,71.22,65.78,246.0,316.12,0.0
2018-08-20 16:56:00,89.61874,31.01936,932.178,274.23,69.0,675.6,9.72,4.43,-30.51,71.66,65.7,245.53,316.07,70.93,65.85,246.02,316.1,0.0
2018-08-20 16:56:00,89.61874,31.01945,932.178,274.23,69.0,675.6,9.45,4.87,-31.52,71.53,65.7,245.72,315.71,70.74,65.91,246.01,316.06,0.0
2018-08-20 16:56:00,89.61874,31.01954,932.173,274.23,69.0,675.6,9.14,4.93,-32.19,72.06,65.84,245.43,315.15,70.71,65.95,245.9,315.93,0.0
2018-08-20 16:56:00,89.61874,31.01963,932.2,274.23,68.9,675.4,8.87,4.96,-32.77,71.01,65.77,246.06,315.23,70.88,65.96,245.87,315.87,0.0
2018-08-20 16:56:00,89.61874,31.01972,932.219,274.23,68.9,675.2,8.75,4.92,-33.23,71.66,65.77,246.32,315.47,71.22,65.95,245.87,315.84,0.0
2018-08-20 16:56:00,89.61874,31.01981,932.215,274.23,68.9,675.3,8.7,4.95,-33.42,69.83,65.77,246.29,315.47,71.69,65.92,245.87,315.79,0.0
2018-08-20 16:56:00,89.61874,31.0199,932.204,274.23,68.9,675.4,8.59,5.12,-33.18,71.01,65.77,246.15,315.87,72.22,65.88,245.88,315.76,0.0
2018-08-20 16:56:00,89.61874,31.01999,932.193,274.23,68.9,675.5,8.7,4.83,-32.69,71.53,65.77,245.83,315.68,72.72,65.82,245.89,315.8,0.0
2018-08-20 16:56:00,89.61874,31.02017,932.207,274.23,68.9,675.3,8.93,4.83,-31.73,71.2,65.63,245.61,316.03,73.1,65.77,245.89,315.96,0.0
2018-08-20 16:56:00,89.61874,31.02037,932.204,274.23,68.9,675.4,8.9,4.8,-30.64,71.86,65.84,245.53,316.17,73.3,65.71,245.81,316.1,0.0
2018-08-20 16:56:00,89.61874,31.02058,932.198,274.23,68.9,675.4,8.63,4.73,-29.32,72.32,65.7,245.71,316.17,73.28,65.67,245.72,316.21,0.0
2018-08-20 16:56:00,89.61874,31.02078,932.213,274.23,68.9,675.3,8.37,4.6,-27.9,71.27,65.91,245.56,316.17,73.05,65.63,245.63,316.31,0.0
2018-08-20 16:56:00,89.61874,31.02099,932.215,274.24,68.9,675.3,8.63,4.2,-26.78,72.12,65.77,245.93,316.97,72.65,65.59,245.59,316.4,0.0
2018-08-20 16:56:00,89.61874,31.02119,932.209,274.24,68.9,675.3,8.5,4.3,-26.16,72.64,65.77,245.46,316.85,72.15,65.56,245.63,316.48,0.0
2018-08-20 16:56:00,89.61874,31.0214,932.215,274.23,68.9,675.3,8.63,3.94,-24.77,70.68,65.7,245.68,317.05,71.64,65.54,245.7,316.48,0.0
2018-08-20 16:56:00,89.61874,31.0216,932.218,274.23,68.9,675.2,8.39,3.75,-23.02,71.27,65.7,245.68,317.12,71.19,65.53,245.77,316.48,0.0
2018-08-20 16:56:00,89.61874,31.02181,932.219,274.23,68.9,675.2,7.81,3.73,-21.12,72.64,65.77,245.7,316.67,70.88,65.52,245.82,316.49,0.0
2018-08-20 16:56:00,89.61874,31.02202,932.243,274.24,68.9,675.0,7.46,3.42,-19.02,71.07,65.77,245.5,316.82,70.74,65.52,245.87,316.49,0.0
