Date/Time,Latitude,Longitude,PPPP [hPa],TTT grad [K],RH [%],Height [m],Pitch [deg],Roll [deg],Yaw [deg],SWD [W/m**2] (raw),SWU [W/m**2] (raw),LWD [W/m**2] (raw),LWU [W/m**2] (raw),SWD [W/m**2] (corrected),SWU [W/m**2] (corrected),LWD [W/m**2] (corrected),LWU [W/m**2] (corrected),Flag
2018-08-21 10:46:00,89.59134,21.51934,930.07,273.05,95.8,663.1,16.66,1.34,-47.73,72.25,54.59,312.37,317.23,72.6,54.87,312.86,317.43,1.0
2018-08-21 10:46:00,89.59134,21.51932,930.162,273.06,95.8,662.3,16.98,0.92,-47.12,72.58,54.59,311.93,316.83,72.54,54.81,312.92,317.47,1.0
2018-08-21 10:46:00,89.59134,21.5193,930.189,273.06,95.8,662.1,16.8,1.12,-47.15,72.51,54.52,312.72,317.21,72.49,54.78,312.94,317.47,1.0
2018-08-21 10:46:00,89.59134,21.51929,930.172,273.06,95.8,662.2,16.62,1.14,-47.45,72.12,54.45,312.64,317.36,72.46,54.77,312.91,317.45,1.0
2018-08-21 10:46:00,89.59134,21.51927,930.151,273.06,95.8,662.4,15.9,1.14,-47.95,72.19,54.66,312.46,317.27,72.44,54.79,312.84,317.4,1.0
2018-08-21 10:46:00,89.59134,21.51926,930.167,273.06,95.8,662.3,14.8,1.27,-48.46,71.73,54.52,312.55,317.26,72.43,54.81,312.79,317.34,1.0
2018-08-21 10:46:00,89.59134,21.51924,930.264,273.06,95.8,661.4,14.61,1.5,-48.51,71.33,54.73,312.46,317.26,72.42,54.83,312.81,317.26,1.0
2018-08-21 10:46:00,89.59134,21.51922,930.23,273.06,95.8,661.7,15.85,1.58,-48.58,72.19,54.52,312.65,317.08,72.4,54.83,312.85,317.19,1.0
2018-08-21 10:46:00,89.59134,21.51921,930.186,273.06,95.8,662.1,18.56,1.42,-48.51,72.97,54.59,312.64,317.08,72.36,54.8,312.75,317.13,1.0
2018-08-21 10:46:00,89.59134,21.51919,930.171,273.06,95.8,662.2,20.8,1.31,-48.21,72.45,54.66,312.46,317.28,72.3,54.74,312.7,317.09,1.0
2018-08-21 10:46:00,89.59134,21.51918,930.187,273.06,95.8,662.1,22.03,1.31,-47.77,71.86,54.66,312.91,317.39,72.22,54.65,312.71,317.07,1.0
2018-08-21 10:46:00,89.59134,21.51916,930.195,273.06,95.8,662.0,22.69,1.37,-47.41,72.71,54.8,313.78,317.26,72.12,54.54,312.74,317.07,1.0
2018-08-21 10:46:00,89.59134,21.51915,930.146,273.06,95.8,662.4,23.78,1.34,-47.3,72.19,54.59,313.66,317.02,72.03,54.42,312.88,317.09,1.0
2018-08-21 10:46:00,89.59134,21.51913,930.105,273.05,95.8,662.8,23.2,1.24,-47.47,72.45,54.66,312.8,317.03,71.95,54.32,313.06,317.11,1.0
2018-08-21 10:46:00,89.59134,21.51912,930.108,273.05,95.8,662.8,22.35,1.34,-47.65,71.92,54.45,312.78,317.08,71.88,54.25,313.15,317.13,1.0
2018-08-21 10:46:00,89.59134,21.5191,930.127,273.06,95.8,662.6,22.95,1.51,-47.76,71.79,54.8,312.89,317.08,71.84,54.23,313.17,317.15,1.0
2018-08-21 10:46:00,89.59134,21.5191,930.126,273.06,95.8,662.6,24.69,1.56,-47.74,72.12,54.59,312.68,317.29,71.83,54.26,313.14,317.16,1.0
2018-08-21 10:46:00,89.59134,21.51908,930.207,273.06,95.8,661.9,23.05,1.26,-47.36,71.92,54.45,313.5,317.1,71.82,54.34,313.0,317.18,1.0
2018-08-21 10:46:00,89.59134,21.51907,930.199,273.06,95.8,662.0,21.54,1.19,-47.13,72.71,54.38,313.74,317.08,71.83,54.46,312.85,317.21,1.0
2018-08-21 10:46:00,89.59134,21.51906,930.193,273.06,95.8,662.0,20.35,1.33,-47.17,71.86,54.59,312.89,317.09,71.83,54.62,312.78,317.24,1.0
2018-08-21 10:46:00,89.59134,21.51905,930.176,273.06,95.8,662.2,20.49,1.38,-47.32,71.66,54.52,312.46,317.37,71.83,54.77,312.75,317.27,1.0
2018-08-21 10:46:00,89.59134,21.51904,930.151,273.06,95.8,662.4,21.19,1.36,-47.47,72.51,54.52,312.46,317.36,71.83,54.91,312.74,317.31,1.0
2018-08-21 10:46:00,89.59134,21.51903,930.188,273.06,95.8,662.1,20.58,1.52,-47.52,71.99,54.59,312.46,317.07,71.83,55.02,312.7,317.37,1.0
2018-08-21 10:46:00,89.59134,21.51902,930.192,273.06,95.8,662.0,21.83,1.57,-47.56,72.71,54.66,312.55,317.26,71.86,55.08,312.59,317.42,1.0
2018-08-21 10:46:00,89.59134,21.51901,930.183,273.05,95.8,662.1,24.16,1.62,-47.84,72.32,54.66,312.37,317.07,71.93,55.09,312.49,317.46,1.0
2018-08-21 10:46:00,89.59134,21.519,930.157,273.05,95.8,662.3,26.21,1.6,-48.25,72.45,54.73,312.9,317.26,72.06,55.05,312.49,317.5,1.0
2018-08-21 10:46:00,89.59134,21.51898,930.131,273.05,95.8,662.6,27.29,1.55,-48.42,71.01,54.73,313.24,317.17,72.28,54.98,312.55,317.51,1.0
2018-08-21 10:46:00,89.59134,21.51896,930.131,273.05,95.8,662.6,27.2,1.54,-48.07,72.32,54.66,312.46,317.28,72.58,54.89,312.62,317.5,1.0
2018-08-21 10:46:00,89.59134,21.51894,930.19,273.06,95.8,662.1,27.4,1.4,-47.79,71.86,54.66,312.65,317.36,72.95,54.79,312.67,317.46,1.0
2018-08-21 10:46:00,89.59133,21.51892,930.162,273.05,95.8,662.3,28.29,1.44,-47.55,71.66,54.59,312.46,317.17,73.37,54.71,312.71,317.39,1.0
2018-08-21 10:46:00,89.59133,21.5189,930.171,273.06,95.8,662.2,29.51,1.42,-47.96,72.64,54.59,312.56,317.27,73.81,54.64,312.7,317.31,1.0
2018-08-21 10:46:00,89.59133,21.51888,930.178,273.06,95.8,662.2,28.55,1.46,-48.13,71.99,54.73,312.46,317.08,74.21,54.61,312.61,317.23,1.0
2018-08-21 10:46:00,89.59133,21.51886,930.146,273.05,95.8,662.4,25.37,1.59,-47.72,72.45,54.66,312.45,317.37,74.53,54.6,312.5,317.15,1.0
2018-08-21 10:46:00,89.59133,21.51885,930.183,273.06,95.8,662.1,23.27,1.55,-47.24,72.25,54.66,312.28,317.26,74.73,54.61,312.46,317.08,1.0
2018-08-21 10:46:00,89.59133,21.51883,930.12,273.05,95.8,662.7,22.11,1.59,-46.56,72.84,54.38,312.47,317.37,74.76,54.63,312.37,317.05,1.0
2018-08-21 10:46:00,89.59133,21.51881,930.124,273.05,95.8,662.6,23.23,1.41,-46.16,72.64,54.8,312.19,317.27,74.62,54.65,312.29,317.04,1.0
2018-08-21 10:46:00,89.59133,21.51879,930.15,273.05,95.8,662.4,25.7,1.21,-46.1,72.25,54.73,312.27,317.39,74.3,54.66,312.22,317.06,1.0
2018-08-21 10:46:00,89.59133,21.51877,930.161,273.06,95.8,662.3,27.88,1.14,-46.24,72.84,54.66,312.58,317.1,73.84,54.65,312.14,317.09,1.0
2018-08-21 10:46:00,89.59133,21.51875,930.153,273.05,95.8,662.4,28.12,1.36,-46.35,72.06,54.59,312.75,317.16,73.27,54.61,312.04,317.11,1.0
2018-08-21 10:46:00,89.59133,21.51874,930.166,273.05,95.8,662.3,27.85,1.77,-46.39,73.23,54.59,312.66,317.25,72.66,54.57,312.14,317.11,1.0
2018-08-21 10:46:00,89.59133,21.51873,930.195,273.05,95.8,662.0,27.03,1.74,-46.57,72.64,54.8,312.46,317.19,72.08,54.51,312.28,317.13,1.0
2018-08-21 10:46:00,89.59133,21.51872,930.2,273.05,95.8,662.0,25.62,1.84,-46.86,73.63,54.66,312.65,317.28,71.58,54.46,312.38,317.15,1.0
2018-08-21 10:46:00,89.59133,21.5187,930.169,273.06,95.8,662.2,26.12,2.01,-47.09,72.25,54.66,312.15,317.17,71.23,54.41,312.44,317.14,1.0
2018-08-21 10:46:00,89.59133,21.51869,930.099,273.05,95.8,662.8,29.56,2.17,-47.18,71.14,54.59,311.74,317.07,71.05,54.39,312.47,317.13,1.0
2018-08-21 10:46:00,89.59133,21.51868,930.127,273.05,95.8,662.6,30.32,2.41,-47.22,72.51,54.59,313.31,316.42,71.07,54.39,312.48,317.1,1.0
2018-08-21 10:46:00,89.59133,21.51867,930.172,273.05,95.8,662.2,30.26,2.51,-47.75,73.5,54.66,313.46,316.72,71.27,54.41,312.49,317.06,1.0
2018-08-21 10:46:00,89.59133,21.51866,930.157,273.06,95.8,662.3,29.11,2.76,-47.86,72.51,54.45,313.04,317.09,71.63,54.46,312.5,317.02,1.0
2018-08-21 10:46:00,89.59133,21.51865,930.134,273.06,95.8,662.5,29.83,2.89,-48.07,71.2,54.59,312.35,317.38,72.08,54.52,312.55,316.99,1.0
2018-08-21 10:46:00,89.59133,21.51864,930.142,273.06,95.8,662.5,32.15,2.84,-48.28,72.25,54.59,312.44,317.37,72.58,54.59,312.62,316.98,1.0
2018-08-21 10:46:00,89.59133,21.51862,930.161,273.06,95.8,662.3,33.27,2.69,-47.96,72.19,54.66,312.45,317.17,73.04,54.66,312.67,317.01,1.0
2018-08-21 10:46:00,89.59133,21.51861,930.214,273.05,95.8,661.9,30.65,2.39,-47.55,72.71,54.73,312.18,317.07,73.42,54.73,312.55,317.07,1.0
2018-08-21 10:46:00,89.59133,21.5186,930.198,273.05,95.8,662.0,29.33,2.61,-47.39,72.12,54.45,312.27,317.36,73.66,54.78,312.41,317.11,1.0
2018-08-21 10:46:00,89.59133,21.51859,930.165,273.05,95.8,662.3,29.72,2.67,-47.36,73.1,54.73,312.9,317.18,73.73,54.82,312.37,317.14,1.0
2018-08-21 10:46:00,89.59133,21.51857,930.151,273.06,95.8,662.4,30.35,2.7,-47.38,72.91,54.59,313.06,317.28,73.62,54.84,312.38,317.17,1.0
2018-08-21 10:46:00,89.59133,21.51856,930.171,273.05,95.8,662.2,29.59,2.81,-47.44,72.12,54.59,312.27,317.08,73.33,54.86,312.4,317.2,1.0
2018-08-21 10:46:00,89.59133,21.51854,930.201,273.06,95.8,662.0,26.94,2.4,-47.62,73.04,54.66,312.37,317.38,72.9,54.86,312.43,317.22,1.0
2018-08-21 10:46:00,89.59133,21.51852,930.222,273.05,95.8,661.8,26.41,2.3,-47.79,72.38,54.66,312.28,317.28,72.38,54.86,312.46,317.23,1.0
2018-08-21 10:46:00,89.59133,21.51851,930.21,273.05,95.8,661.9,27.96,2.25,-48.03,72.51,54.66,312.56,316.99,71.8,54.85,312.51,317.32,1.0
2018-08-21 10:46:00,89.59133,21.51849,930.167,273.05,95.8,662.3,28.95,2.26,-48.14,72.71,54.66,312.46,317.27,71.24,54.84,312.49,317.38,1.0
2018-08-21 10:46:00,89.59133,21.51847,930.116,273.05,95.8,662.7,28.51,2.21,-48.15,71.86,54.66,312.46,317.37,70.75,54.81,312.44,317.37,1.0
2018-08-21 10:46:00,89.59133,21.51846,930.126,273.06,95.8,662.6,27.73,1.86,-48.29,73.23,54.73,312.27,317.28,70.37,54.78,312.43,317.35,1.0
2018-08-21 10:46:00,89.59133,21.51844,930.141,273.06,95.8,662.5,25.04,2.12,-48.22,72.19,54.59,312.55,317.46,70.13,54.74,312.42,317.34,1.0
2018-08-21 10:46:00,89.59133,21.51842,930.121,273.06,95.8,662.7,24.07,1.97,-48.27,72.64,54.73,312.82,318.31,70.06,54.68,312.41,317.33,1.0
2018-08-21 10:46:00,89.59133,21.51841,930.134,273.06,95.8,662.5,23.76,1.74,-48.17,72.51,54.52,312.64,317.78,70.14,54.62,312.39,317.32,1.0
2018-08-21 10:46:00,89.59133,21.51839,930.177,273.06,95.8,662.2,23.87,1.43,-47.88,70.81,54.66,312.27,316.98,70.37,54.55,312.42,317.28,1.0
2018-08-21 10:46:00,89.59133,21.51838,930.162,273.05,95.8,662.3,24.58,1.05,-47.52,72.45,54.73,312.37,317.27,70.71,54.49,312.48,317.2,1.0
2018-08-21 10:46:00,89.59133,21.51836,930.17,273.05,95.8,662.2,26.62,1.03,-47.33,72.84,54.73,312.47,317.07,71.13,54.44,312.55,317.19,1.0
2018-08-21 10:46:00,89.59133,21.51835,930.143,273.06,95.8,662.5,28.33,0.77,-47.33,71.73,54.8,312.47,317.17,71.59,54.42,312.57,317.18,1.0
2018-08-21 10:46:00,89.59133,21.51833,930.177,273.06,95.8,662.2,26.55,0.64,-46.99,72.12,54.66,312.49,317.17,72.04,54.41,312.55,317.09,1.0
2018-08-21 10:46:00,89.59133,21.51832,930.222,273.05,95.8,661.8,24.0,0.68,-46.88,71.2,54.59,312.78,316.76,72.45,54.43,312.53,317.01,1.0
2018-08-21 10:46:00,89.59133,21.5183,930.208,273.05,95.8,661.9,22.46,0.85,-47.23,71.66,54.45,313.01,316.27,72.78,54.48,312.53,317.01,1.0
2018-08-21 10:46:00,89.59133,21.51829,930.204,273.06,95.8,662.0,19.7,1.05,-47.38,72.19,54.52,312.95,317.07,73.03,54.55,312.52,316.99,1.0
2018-08-21 10:46:00,89.59133,21.51827,930.208,273.06,95.8,661.9,18.9,1.31,-47.8,72.71,54.59,312.28,317.27,73.18,54.63,312.5,316.94,1.0
2018-08-21 10:46:00,89.59133,21.51826,930.139,273.06,95.8,662.5,16.85,1.14,-47.85,73.17,54.66,312.27,317.17,73.24,54.72,312.5,316.96,1.0
2018-08-21 10:46:00,89.59133,21.51824,930.117,273.06,95.8,662.7,14.98,1.05,-47.85,72.64,54.59,312.37,317.37,73.23,54.8,312.48,316.95,1.0
2018-08-21 10:46:00,89.59133,21.51823,930.179,273.06,95.8,662.2,14.13,1.09,-47.93,71.73,54.8,312.46,317.28,73.17,54.87,312.43,316.97,1.0
2018-08-21 10:46:00,89.59133,21.51821,930.204,273.06,95.8,661.9,14.81,1.04,-48.14,72.25,54.73,312.47,316.91,73.08,54.91,312.35,317.08,1.0
2018-08-21 10:46:00,89.59133,21.5182,930.217,273.06,95.8,661.8,17.73,1.33,-48.3,72.38,54.66,312.28,316.68,73.01,54.93,312.28,317.11,1.0
2018-08-21 10:46:00,89.59133,21.51818,930.132,273.06,95.8,662.6,18.84,1.07,-48.12,71.86,54.52,312.22,317.15,72.96,54.93,312.28,317.15,1.0
2018-08-21 10:46:00,89.59133,21.51817,930.104,273.06,95.8,662.8,18.03,0.79,-47.91,71.99,54.59,312.42,316.95,72.95,54.9,312.3,317.18,1.0
2018-08-21 10:46:00,89.59133,21.51816,930.151,273.06,95.8,662.4,17.14,0.58,-47.81,72.06,54.59,312.28,316.61,72.99,54.86,312.32,317.2,1.0
2018-08-21 10:46:00,89.59133,21.51814,930.188,273.05,95.8,662.1,18.28,0.46,-47.84,72.71,54.86,312.44,317.36,73.07,54.8,312.34,317.22,1.0
2018-08-21 10:46:00,89.59133,21.51813,930.157,273.06,95.8,662.3,20.78,0.5,-47.56,72.51,54.8,312.7,317.28,73.17,54.74,312.34,317.24,1.0
2018-08-21 10:46:00,89.59133,21.51811,930.152,273.06,95.8,662.4,20.49,0.49,-47.25,72.51,54.73,312.43,317.26,73.28,54.67,312.27,317.37,1.0
2018-08-21 10:46:00,89.59133,21.5181,930.162,273.05,95.8,662.3,19.9,0.73,-46.99,72.32,54.52,312.35,317.16,73.35,54.61,312.21,317.47,1.0
2018-08-21 10:46:00,89.59133,21.51809,930.167,273.05,95.8,662.3,19.42,0.85,-46.85,72.84,54.73,312.26,317.26,73.38,54.55,312.18,317.53,1.0
2018-08-21 10:46:00,89.59133,21.51807,930.15,273.05,95.8,662.4,18.89,0.71,-46.69,72.97,54.73,312.26,317.46,73.32,54.49,312.15,317.55,1.0
2018-08-21 10:46:00,89.59133,21.51806,930.121,273.05,95.8,662.6,17.65,0.5,-46.2,72.84,54.59,312.39,317.04,73.17,54.44,312.13,317.53,1.0
2018-08-21 10:46:00,89.59133,21.51804,930.189,273.06,95.8,662.1,14.84,0.47,-46.27,71.6,54.59,311.53,317.95,72.93,54.39,312.12,317.51,1.0
2018-08-21 10:46:00,89.59133,21.51802,930.185,273.06,95.8,662.1,14.06,0.72,-46.4,71.66,54.66,311.89,318.38,72.6,54.36,312.12,317.49,1.0
2018-08-21 10:46:00,89.59133,21.518,930.187,273.06,95.8,662.1,15.79,0.82,-46.35,72.71,54.73,312.17,318.02,72.21,54.36,312.14,317.51,1.0
2018-08-21 10:46:00,89.59133,21.51799,930.2,273.05,95.8,662.0,17.98,0.81,-46.27,73.1,54.45,312.54,317.15,71.8,54.37,312.21,317.57,1.0
2018-08-21 10:46:00,89.59133,21.51797,930.162,273.05,95.8,662.3,18.27,0.86,-46.36,72.38,54.66,312.45,317.06,71.4,54.41,312.33,317.63,1.0
2018-08-21 10:46:00,89.59133,21.51795,930.169,273.06,95.8,662.2,17.1,0.62,-46.4,72.32,54.8,312.27,317.52,71.07,54.48,312.39,317.62,1.0
2018-08-21 10:46:00,89.59133,21.51793,930.186,273.06,95.8,662.1,16.44,0.91,-46.69,73.5,54.73,312.46,317.24,70.84,54.58,312.5,317.53,1.0
2018-08-21 10:46:00,89.59133,21.51792,930.166,273.06,95.8,662.3,17.62,1.15,-46.95,71.92,54.66,312.37,317.42,70.74,54.69,312.61,317.44,1.0
2018-08-21 10:46:00,89.59133,21.5179,930.126,273.06,95.8,662.6,18.81,1.26,-47.33,72.64,54.45,312.61,317.94,70.79,54.8,312.65,317.4,1.0
2018-08-21 10:46:00,89.59133,21.51788,930.117,273.05,95.8,662.7,17.89,1.24,-48.01,72.12,54.38,313.0,318.14,70.99,54.9,312.61,317.38,1.0
2018-08-21 10:46:00,89.59133,21.51786,930.154,273.06,95.8,662.4,17.16,1.24,-48.42,71.79,54.52,312.16,317.06,71.32,54.97,312.54,317.37,1.0
2018-08-21 10:46:00,89.59133,21.51784,930.203,273.06,95.8,662.0,16.37,1.4,-48.59,71.99,54.8,312.16,317.27,71.76,54.99,312.46,317.36,1.0
2018-08-21 10:46:00,89.59133,21.51783,930.167,273.06,95.8,662.3,15.99,1.33,-48.92,71.79,54.73,313.06,317.76,72.26,54.97,312.38,317.35,1.0
2018-08-21 10:46:00,89.59133,21.51781,930.136,273.06,95.8,662.5,15.13,1.2,-48.94,72.06,54.66,312.57,317.4,72.78,54.89,312.31,317.31,1.0
2018-08-21 10:46:00,89.59133,21.5178,930.169,273.06,95.8,662.2,14.4,1.08,-48.46,71.92,54.73,312.54,317.26,73.27,54.77,312.23,317.23,1.0
2018-08-21 10:46:00,89.59133,21.51778,930.2,273.05,95.8,662.0,15.43,1.01,-47.74,73.1,54.8,312.35,317.18,73.69,54.61,312.15,317.16,1.0
2018-08-21 10:46:00,89.59133,21.51777,930.185,273.06,95.8,662.1,16.23,0.96,-47.26,72.06,54.66,312.27,317.18,74.01,54.44,312.19,317.17,1.0
2018-08-21 10:46:00,89.59133,21.51776,930.183,273.06,95.8,662.1,16.78,0.92,-47.23,73.04,54.8,312.46,317.18,74.2,54.29,312.26,317.18,1.0
2018-08-21 10:46:00,89.59133,21.51774,930.191,273.06,95.8,662.1,17.64,0.87,-47.25,71.47,54.59,312.46,317.07,74.26,54.17,312.36,317.21,1.0
2018-08-21 10:46:00,89.59133,21.51773,930.186,273.06,95.8,662.1,18.06,0.79,-47.17,72.25,54.59,312.45,317.26,74.18,54.1,312.54,317.29,1.0
2018-08-21 10:46:00,89.59133,21.51771,930.154,273.06,95.8,662.4,17.25,0.66,-46.99,73.3,54.8,312.44,317.16,74.0,54.1,312.75,317.36,1.0
2018-08-21 10:46:00,89.59133,21.5177,930.187,273.06,95.8,662.1,15.11,0.4,-46.81,73.5,54.38,312.44,317.35,73.72,54.16,312.9,317.35,1.0
2018-08-21 10:46:00,89.59133,21.51768,930.178,273.06,95.8,662.2,14.37,0.45,-46.57,72.45,54.66,312.36,317.17,73.38,54.29,312.94,317.35,1.0
2018-08-21 10:46:00,89.59133,21.51767,930.145,273.06,95.8,662.4,14.04,0.55,-46.81,72.58,54.38,313.15,317.99,73.02,54.45,312.93,317.35,1.0
2018-08-21 10:46:00,89.59133,21.51766,930.151,273.06,95.8,662.4,14.91,0.55,-47.17,71.73,54.52,313.52,318.12,72.65,54.63,312.89,317.35,1.0
2018-08-21 10:46:00,89.59133,21.51764,930.206,273.06,95.8,661.9,16.39,0.47,-47.43,72.71,54.52,313.32,317.63,72.32,54.81,312.82,317.36,1.0
2018-08-21 10:46:00,89.59133,21.51763,930.148,273.05,95.8,662.4,16.22,0.51,-47.55,73.1,54.59,312.83,316.72,72.04,54.96,312.74,317.37,1.0
2018-08-21 10:46:00,89.59133,21.51761,930.181,273.05,95.8,662.1,17.58,0.42,-47.79,71.99,54.52,312.26,317.16,71.83,55.07,312.67,317.38,1.0
2018-08-21 10:46:00,89.59133,21.51759,930.169,273.05,95.8,662.2,17.37,0.3,-47.6,72.25,54.73,312.44,317.09,71.71,55.12,312.61,317.5,1.0
2018-08-21 10:46:00,89.59133,21.51757,930.122,273.05,95.8,662.6,16.25,0.12,-47.53,71.99,54.86,312.36,317.27,71.67,55.13,312.58,317.57,1.0
2018-08-21 10:46:00,89.59133,21.51755,930.094,273.06,95.8,662.9,15.7,0.01,-47.48,73.82,54.66,312.36,317.37,71.72,55.09,312.57,317.59,1.0
2018-08-21 10:46:00,89.59133,21.51753,930.16,273.06,95.8,662.3,16.94,0.12,-47.17,72.71,54.8,312.35,317.28,71.85,55.02,312.55,317.63,1.0
2018-08-21 10:46:00,89.59133,21.51751,930.123,273.05,95.8,662.6,17.88,0.01,-47.37,73.23,54.59,312.46,317.45,72.03,54.94,312.55,317.68,1.0
2018-08-21 10:46:00,89.59133,21.51749,930.115,273.06,95.8,662.7,19.32,0.17,-47.22,71.73,54.8,312.55,318.13,72.26,54.86,312.63,317.7,1.0
2018-08-21 10:46:00,89.59133,21.51747,930.159,273.07,95.8,662.3,19.69,0.03,-46.98,71.27,54.59,312.97,318.36,72.5,54.8,312.71,317.71,1.0
2018-08-21 10:46:00,89.59133,21.51745,930.194,273.06,95.8,662.0,19.49,-0.11,-46.71,72.84,54.45,313.31,318.06,72.73,54.76,312.78,317.71,1.0
2018-08-21 10:46:00,89.59133,21.51743,930.158,273.05,95.8,662.3,18.9,-0.02,-46.45,72.19,54.66,312.63,317.85,72.94,54.75,312.83,317.71,1.0
2018-08-21 10:46:00,89.59133,21.51742,930.194,273.06,95.8,662.0,16.79,-0.01,-46.34,72.12,54.73,312.18,316.88,73.1,54.75,312.86,317.7,1.0
2018-08-21 10:46:00,89.59133,21.5174,930.22,273.06,95.8,661.8,14.03,-0.06,-46.24,72.58,54.8,312.26,317.46,73.2,54.77,312.86,317.69,1.0
2018-08-21 10:46:00,89.59133,21.51739,930.204,273.06,95.8,661.9,12.77,0.14,-46.07,73.63,54.66,312.55,317.26,73.23,54.79,312.85,317.57,1.0
2018-08-21 10:46:00,89.59133,21.51738,930.177,273.06,95.8,662.2,12.34,0.42,-45.95,71.92,54.66,312.55,317.26,73.21,54.81,312.77,317.46,1.0
2018-08-21 10:46:00,89.59133,21.51736,930.154,273.06,95.8,662.4,13.17,0.58,-45.96,72.45,54.66,312.45,317.55,73.13,54.81,312.66,317.35,1.0
2018-08-21 10:46:00,89.59133,21.51735,930.1,273.06,95.8,662.8,15.93,0.45,-46.1,73.3,54.73,312.26,317.16,73.01,54.79,312.58,317.26,1.0
2018-08-21 10:46:00,89.59133,21.51733,930.12,273.06,95.8,662.7,15.07,0.19,-45.81,71.92,54.8,312.46,317.18,72.87,54.77,312.57,317.24,1.0
2018-08-21 10:46:00,89.59133,21.51732,930.133,273.06,95.8,662.5,14.43,0.01,-45.84,73.36,54.8,312.46,317.17,72.72,54.73,312.56,317.22,1.0
2018-08-21 10:46:00,89.59133,21.5173,930.156,273.06,95.8,662.3,13.46,-0.04,-46.02,71.92,54.66,312.46,317.26,72.56,54.69,312.56,317.2,1.0
2018-08-21 10:46:00,89.59133,21.51729,930.166,273.05,95.8,662.3,13.66,-0.02,-46.27,73.17,54.59,312.27,317.16,72.41,54.65,312.55,317.19,1.0
2018-08-21 10:46:00,89.59133,21.51728,930.141,273.05,95.8,662.5,15.65,-0.0,-46.52,72.45,54.8,312.27,317.26,72.25,54.62,312.53,317.17,1.0
2018-08-21 10:46:00,89.59133,21.51726,930.229,273.06,95.8,661.7,15.83,-0.1,-46.51,72.64,54.66,312.46,317.26,72.1,54.59,312.49,317.15,1.0
2018-08-21 10:46:00,89.59133,21.51725,930.189,273.06,95.8,662.1,14.78,-0.13,-46.54,72.12,54.59,312.46,317.08,71.94,54.57,312.44,317.14,1.0
2018-08-21 10:46:00,89.59133,21.51724,930.149,273.05,95.8,662.4,13.1,-0.12,-46.69,72.12,54.52,312.45,317.26,71.78,54.55,312.38,317.13,1.0
2018-08-21 10:46:00,89.59133,21.51723,930.14,273.05,95.8,662.5,11.5,-0.03,-46.88,72.25,54.86,312.45,317.27,71.61,54.53,312.32,317.13,1.0
2018-08-21 10:46:00,89.59133,21.51722,930.159,273.06,95.8,662.3,10.83,0.06,-47.02,72.51,54.8,312.45,317.28,71.45,54.5,312.31,317.13,1.0
2018-08-21 10:46:00,89.59133,21.51721,930.175,273.06,95.8,662.2,11.72,-0.09,-47.01,73.5,54.66,312.28,317.26,71.31,54.48,312.38,317.1,1.0
2018-08-21 10:46:00,89.59133,21.5172,930.15,273.06,95.8,662.4,10.77,-0.08,-46.96,72.58,54.66,312.45,317.26,71.21,54.45,312.45,317.08,1.0
2018-08-21 10:46:00,89.59133,21.51719,930.109,273.06,95.8,662.7,10.05,-0.06,-46.73,72.25,54.59,312.54,317.08,71.18,54.43,312.49,317.11,1.0
2018-08-21 10:46:00,89.59133,21.51718,930.103,273.06,95.8,662.8,10.62,0.1,-46.72,72.51,54.73,312.35,316.98,71.23,54.42,312.58,317.2,1.0
2018-08-21 10:46:00,89.59133,21.51717,930.156,273.06,95.8,662.3,12.13,0.2,-46.94,72.45,54.59,312.93,317.1,71.39,54.43,312.7,317.29,1.0
2018-08-21 10:46:00,89.59133,21.51716,930.247,273.06,95.8,661.6,13.46,0.02,-47.2,72.12,54.66,313.42,316.8,71.65,54.47,312.75,317.29,1.0
2018-08-21 10:46:00,89.59133,21.51715,930.197,273.05,95.8,662.0,13.57,0.14,-47.31,71.79,54.66,313.49,317.24,72.01,54.53,312.8,317.29,1.0
2018-08-21 10:46:00,89.59133,21.51714,930.172,273.06,95.8,662.2,11.95,0.06,-47.37,71.4,54.8,312.78,317.26,72.43,54.62,312.83,317.29,1.0
2018-08-21 10:46:00,89.59133,21.51713,930.164,273.06,95.8,662.3,10.94,0.15,-47.56,72.45,54.52,312.82,317.67,72.88,54.74,312.84,317.3,1.0
2018-08-21 10:46:00,89.59133,21.51712,930.172,273.05,95.8,662.2,10.67,0.32,-47.79,72.84,54.38,312.94,317.9,73.31,54.85,312.83,317.37,1.0
2018-08-21 10:46:00,89.59133,21.51711,930.185,273.06,95.8,662.1,10.6,0.26,-47.84,72.25,54.73,312.27,317.17,73.68,54.97,312.76,317.52,1.0
2018-08-21 10:46:00,89.59133,21.5171,930.209,273.06,95.8,661.9,11.82,0.12,-47.92,72.12,54.59,312.35,317.47,73.94,55.07,312.61,317.7,1.0
2018-08-21 10:46:00,89.59133,21.51709,930.161,273.06,95.8,662.3,10.84,-0.14,-48.16,72.58,54.66,312.26,316.97,74.08,55.14,312.46,317.78,1.0
2018-08-21 10:46:00,89.59133,21.51708,930.162,273.06,95.8,662.3,10.44,0.04,-48.36,72.58,54.73,312.25,317.55,74.07,55.17,312.38,317.84,1.0
2018-08-21 10:46:00,89.59133,21.51707,930.166,273.06,95.8,662.3,9.75,0.22,-48.41,73.17,54.8,312.34,317.68,73.91,55.17,312.27,317.83,1.0
2018-08-21 10:46:00,89.59133,21.51706,930.144,273.06,95.8,662.4,8.57,0.24,-48.3,72.64,54.8,312.44,318.52,73.64,55.13,312.17,317.78,1.0
2018-08-21 10:47:00,89.59132,21.51705,930.171,273.06,95.8,662.2,7.7,0.25,-48.16,72.51,54.8,312.45,318.38,73.29,55.07,312.15,317.79,1.0
2018-08-21 10:47:00,89.59132,21.51704,930.184,273.06,95.8,662.1,10.29,-0.04,-48.03,72.78,54.73,312.36,317.26,72.9,55.0,312.16,317.79,1.0
2018-08-21 10:47:00,89.59132,21.51702,930.172,273.06,95.8,662.2,12.51,0.08,-47.8,72.32,54.73,312.45,317.57,72.52,54.92,312.18,317.77,1.0
2018-08-21 10:47:00,89.59132,21.51702,930.169,273.06,95.8,662.2,15.0,0.04,-47.24,72.32,54.66,312.44,317.43,72.19,54.84,312.21,317.73,1.0
2018-08-21 10:47:00,89.59132,21.51701,930.171,273.06,95.8,662.2,15.9,-0.07,-46.63,72.58,54.66,312.45,317.26,71.95,54.78,312.24,317.63,1.0
2018-08-21 10:47:00,89.59132,21.517,930.147,273.06,95.8,662.4,13.77,-0.06,-46.41,73.04,54.93,312.26,317.08,71.81,54.74,312.28,317.48,1.0
2018-08-21 10:47:00,89.59132,21.517,930.16,273.06,95.8,662.3,12.27,-0.27,-46.52,71.79,54.59,312.35,317.37,71.77,54.7,312.3,317.36,1.0
2018-08-21 10:47:00,89.59132,21.51699,930.165,273.06,95.8,662.3,11.39,0.07,-46.65,73.17,54.8,312.44,317.36,71.82,54.67,312.31,317.37,1.0
2018-08-21 10:47:00,89.59132,21.51699,930.17,273.06,95.8,662.2,10.55,0.05,-46.7,72.84,54.8,312.46,317.26,71.93,54.64,312.31,317.34,1.0
2018-08-21 10:47:00,89.59132,21.51699,930.157,273.06,95.8,662.3,10.6,0.05,-46.76,72.06,54.59,312.46,317.26,72.07,54.61,312.3,317.34,1.0
2018-08-21 10:47:00,89.59132,21.51698,930.129,273.06,95.8,662.6,11.84,0.26,-46.91,71.66,54.8,312.37,317.65,72.21,54.57,312.27,317.37,1.0
2018-08-21 10:47:00,89.59132,21.51698,930.169,273.06,95.8,662.2,13.64,0.34,-47.07,73.04,54.66,312.28,317.3,72.32,54.53,312.24,317.39,1.0
2018-08-21 10:47:00,89.59132,21.51698,930.148,273.05,95.8,662.4,14.65,0.45,-47.46,72.32,54.73,312.25,317.44,72.38,54.48,312.21,317.4,1.0
2018-08-21 10:47:00,89.59132,21.51697,930.152,273.05,95.8,662.4,13.27,0.43,-47.99,72.51,54.73,312.36,317.39,72.39,54.45,312.27,317.48,1.0
2018-08-21 10:47:00,89.59132,21.51697,930.144,273.05,95.8,662.4,11.48,0.51,-48.39,72.51,54.8,312.18,317.36,72.34,54.43,312.34,317.52,1.0
2018-08-21 10:47:00,89.59132,21.51696,930.122,273.06,95.8,662.6,9.7,0.6,-48.52,73.23,54.73,312.27,317.17,72.24,54.43,312.37,317.51,1.0
2018-08-21 10:47:00,89.59132,21.51696,930.112,273.06,95.8,662.7,7.77,0.58,-48.47,72.06,54.86,312.27,317.27,72.12,54.46,312.35,317.44,1.0
2018-08-21 10:47:00,89.59132,21.51696,930.114,273.06,95.8,662.7,6.74,0.45,-48.7,72.12,54.73,312.44,317.27,72.01,54.52,312.34,317.38,1.0
2018-08-21 10:47:00,89.59132,21.51695,930.137,273.06,95.8,662.5,7.3,0.38,-48.49,72.12,54.38,313.23,318.14,71.93,54.6,312.35,317.29,1.0
2018-08-21 10:47:00,89.59132,21.51694,930.148,273.06,95.8,662.4,7.64,0.23,-48.19,73.1,54.45,313.55,317.81,71.9,54.69,312.44,317.24,1.0
2018-08-21 10:47:00,89.59132,21.51693,930.139,273.06,95.8,662.5,7.78,0.27,-47.79,72.12,54.66,312.79,317.65,71.93,54.79,312.55,317.25,1.0
2018-08-21 10:47:00,89.59132,21.51692,930.122,273.06,95.8,662.6,8.17,0.46,-47.2,72.12,54.59,312.36,317.38,72.05,54.88,312.66,317.29,1.0
2018-08-21 10:47:00,89.59132,21.5169,930.128,273.06,95.8,662.6,9.34,0.44,-46.45,72.38,54.86,312.28,317.3,72.23,54.96,312.78,317.36,1.0
2018-08-21 10:47:00,89.59132,21.51689,930.118,273.06,95.8,662.7,9.43,0.62,-46.59,72.64,54.86,312.37,317.39,72.47,55.01,312.94,317.43,1.0
2018-08-21 10:47:00,89.59132,21.51688,930.133,273.06,95.8,662.5,9.85,0.58,-46.57,72.25,54.73,313.0,317.1,72.74,55.03,312.94,317.45,1.0
2018-08-21 10:47:00,89.59132,21.51686,930.191,273.06,95.8,662.1,10.2,0.78,-46.64,72.71,54.8,312.95,317.37,72.99,55.03,312.89,317.47,1.0
2018-08-21 10:47:00,89.59132,21.51685,930.217,273.06,95.8,661.8,10.29,0.89,-46.74,72.84,54.59,312.9,317.37,73.21,55.01,312.86,317.55,1.0
2018-08-21 10:47:00,89.59132,21.51684,930.085,273.06,95.8,662.9,10.26,0.6,-46.77,71.6,54.8,312.6,317.13,73.34,54.98,312.86,317.67,1.0
2018-08-21 10:47:00,89.59132,21.51682,930.103,273.06,95.8,662.8,11.61,0.94,-47.02,72.19,54.66,313.0,317.04,73.37,54.95,312.83,317.75,1.0
2018-08-21 10:47:00,89.59132,21.51681,930.137,273.06,95.8,662.5,9.81,0.76,-47.69,72.45,54.86,312.46,316.71,73.26,54.91,312.78,317.76,1.0
2018-08-21 10:47:00,89.59132,21.51679,930.163,273.06,95.8,662.3,8.89,0.87,-48.36,72.32,54.73,312.44,317.08,73.03,54.88,312.64,317.68,1.0
2018-08-21 10:47:00,89.59132,21.51678,930.162,273.06,95.8,662.3,8.97,0.91,-49.04,72.91,54.59,312.35,317.84,72.68,54.86,312.5,317.56,1.0
2018-08-21 10:47:00,89.59132,21.51676,930.127,273.06,95.8,662.6,9.05,0.8,-49.74,73.04,54.86,312.17,318.5,72.26,54.83,312.39,317.45,1.0
2018-08-21 10:47:00,89.59132,21.51675,930.067,273.06,95.8,663.1,7.52,1.29,-50.25,73.04,54.8,312.27,318.35,71.8,54.8,312.3,317.37,1.0
2018-08-21 10:47:00,89.59132,21.51674,930.144,273.06,95.8,662.4,6.97,0.95,-50.74,72.84,54.73,312.45,317.88,71.37,54.76,312.2,317.35,1.0
2018-08-21 10:47:00,89.59132,21.51672,930.148,273.06,95.8,662.4,5.31,0.8,-50.82,71.6,54.59,312.45,317.64,71.02,54.7,312.2,317.36,1.0
2018-08-21 10:47:00,89.59132,21.51671,930.13,273.06,95.8,662.6,4.19,0.66,-50.64,72.38,54.8,312.36,317.63,70.81,54.63,312.25,317.4,1.0
2018-08-21 10:47:00,89.59132,21.51669,930.142,273.06,95.8,662.5,4.31,0.63,-50.31,72.78,54.8,312.44,317.55,70.78,54.54,312.28,317.39,1.0
2018-08-21 10:47:00,89.59132,21.51668,930.165,273.06,95.8,662.3,5.23,0.95,-49.93,72.51,54.86,312.44,317.27,70.95,54.44,312.28,317.28,1.0
2018-08-21 10:47:00,89.59132,21.51666,930.12,273.06,95.8,662.6,5.14,0.6,-49.59,71.4,54.8,312.35,317.37,71.31,54.35,312.34,317.29,1.0
2018-08-21 10:47:00,89.59132,21.51665,930.121,273.06,95.8,662.6,5.51,0.51,-49.09,71.99,54.73,312.54,317.27,71.82,54.27,312.42,317.24,1.0
2018-08-21 10:47:00,89.59132,21.51664,930.135,273.06,95.8,662.5,5.31,0.41,-48.74,71.99,54.86,312.18,317.47,72.44,54.23,312.46,317.22,1.0
2018-08-21 10:47:00,89.59132,21.51662,930.158,273.06,95.8,662.3,4.04,0.4,-48.51,73.23,54.52,312.1,316.93,73.09,54.22,312.46,317.21,1.0
2018-08-21 10:47:00,89.59132,21.51661,930.191,273.06,95.8,662.0,1.81,0.5,-48.32,71.4,54.66,311.22,315.77,73.7,54.25,312.43,317.16,1.0
2018-08-21 10:47:00,89.59132,21.51659,930.123,273.06,95.8,662.6,-0.25,0.2,-48.44,72.45,54.59,311.81,317.34,74.19,54.32,312.37,317.07,1.0
2018-08-21 10:47:00,89.59132,21.51658,930.092,273.06,95.8,662.9,-4.14,0.24,-48.75,72.32,54.52,312.01,316.07,74.52,54.42,312.29,316.95,1.0
2018-08-21 10:47:00,89.59132,21.51656,930.082,273.06,95.8,663.0,-8.22,0.24,-49.25,72.25,54.52,312.24,316.59,74.63,54.54,312.21,316.83,1.0
2018-08-21 10:47:00,89.59132,21.51655,930.073,273.06,95.8,663.0,-10.12,0.15,-49.51,73.1,54.8,312.56,317.56,74.54,54.67,312.14,316.73,1.0
2018-08-21 10:47:00,89.59132,21.51653,930.076,273.07,95.8,663.0,-9.22,0.03,-49.53,72.91,54.66,312.39,317.55,74.25,54.78,312.13,316.71,1.0
2018-08-21 10:47:00,89.59132,21.51652,930.172,273.06,95.8,662.2,-6.38,-0.14,-49.83,72.71,54.66,312.38,317.26,73.81,54.88,312.21,316.8,1.0
2018-08-21 10:47:00,89.59132,21.5165,930.109,273.06,95.8,662.7,-4.8,-0.02,-49.78,72.91,54.86,312.47,317.16,73.29,54.93,312.23,316.82,1.0
2018-08-21 10:47:00,89.59132,21.51648,930.122,273.05,95.8,662.6,-4.18,0.01,-49.87,72.64,54.73,312.47,317.26,72.75,54.95,312.26,316.92,1.0
2018-08-21 10:47:00,89.59132,21.51647,930.144,273.05,95.8,662.5,-4.09,0.04,-49.91,72.45,54.59,312.47,317.06,72.28,54.94,312.32,317.04,1.0
2018-08-21 10:47:00,89.59132,21.51646,930.119,273.06,95.8,662.7,-4.57,0.09,-49.74,72.12,54.59,312.28,317.36,71.92,54.9,312.38,317.13,1.0
2018-08-21 10:47:00,89.59132,21.51644,930.1,273.06,95.8,662.8,-5.77,0.08,-49.41,73.69,54.66,312.37,317.07,71.72,54.83,312.44,317.22,1.0
2018-08-21 10:47:00,89.59132,21.51643,930.138,273.06,95.8,662.5,-5.06,-0.11,-49.66,71.86,54.86,312.47,317.27,71.69,54.77,312.49,317.29,1.0
2018-08-21 10:47:00,89.59132,21.51641,930.144,273.06,95.8,662.4,-2.13,-0.2,-49.8,72.51,54.66,312.28,317.07,71.84,54.71,312.51,317.32,1.0
2018-08-21 10:47:00,89.59132,21.5164,930.146,273.06,95.8,662.4,-1.93,-0.25,-49.59,72.91,54.86,312.28,317.27,72.12,54.67,312.51,317.32,1.0
2018-08-21 10:47:00,89.59132,21.51639,930.152,273.06,95.8,662.4,-3.55,-0.27,-49.17,71.6,54.45,312.56,317.37,72.5,54.65,312.49,317.28,1.0
2018-08-21 10:47:00,89.59132,21.51637,930.156,273.06,95.8,662.3,-5.55,-0.27,-48.75,72.84,54.86,312.47,317.17,72.92,54.65,312.44,317.23,1.0
2018-08-21 10:47:00,89.59132,21.51636,930.14,273.06,95.8,662.5,-7.17,-0.34,-48.53,72.32,54.66,312.28,317.18,73.32,54.67,312.37,317.2,1.0
2018-08-21 10:47:00,89.59132,21.51635,930.16,273.06,95.8,662.3,-6.27,-0.66,-48.86,72.71,54.66,312.47,317.16,73.65,54.7,312.3,317.19,1.0
2018-08-21 10:47:00,89.59132,21.51633,930.166,273.06,95.8,662.3,-4.74,-0.94,-48.9,72.71,54.66,312.37,317.26,73.85,54.73,312.22,317.18,1.0
2018-08-21 10:47:00,89.59132,21.51632,930.163,273.06,95.8,662.3,-4.77,-1.1,-48.67,72.51,54.66,312.19,317.26,73.9,54.75,312.15,317.18,1.0
2018-08-21 10:47:00,89.59132,21.5163,930.151,273.06,95.8,662.4,-5.66,-1.05,-48.41,73.04,54.8,312.46,317.55,73.78,54.74,312.09,317.18,1.0
2018-08-21 10:47:00,89.59132,21.5163,930.127,273.05,95.8,662.6,-4.92,-0.74,-48.47,72.38,54.52,312.45,317.85,73.49,54.72,312.05,317.2,1.0
2018-08-21 10:47:00,89.59132,21.51629,930.157,273.06,95.8,662.3,-3.38,-0.78,-48.71,72.64,54.86,312.27,318.07,73.04,54.66,312.11,317.3,1.0
2018-08-21 10:47:00,89.59132,21.51629,930.136,273.06,95.8,662.5,-1.34,-0.91,-49.28,73.63,54.8,312.27,318.12,72.47,54.57,312.18,317.41,1.0
2018-08-21 10:47:00,89.59132,21.51628,930.137,273.06,95.8,662.5,-0.03,-1.01,-49.63,72.38,54.66,312.28,318.12,71.81,54.47,312.21,317.47,1.0
2018-08-21 10:47:00,89.59132,21.51628,930.156,273.06,95.8,662.3,0.8,-1.02,-49.69,72.71,54.66,312.37,317.83,71.11,54.35,312.16,317.51,1.0
2018-08-21 10:47:00,89.59132,21.51627,930.13,273.06,95.8,662.6,1.64,-1.0,-49.56,72.71,54.8,312.34,317.88,70.42,54.23,312.07,317.54,1.0
2018-08-21 10:47:00,89.59132,21.51626,930.106,273.06,95.8,662.8,2.14,-1.28,-49.59,72.38,54.59,313.41,318.58,69.81,54.13,312.03,317.53,1.0
2018-08-21 10:47:00,89.59132,21.51626,930.131,273.06,95.8,662.6,2.53,-1.2,-49.31,72.71,54.59,313.34,318.06,69.32,54.05,312.07,317.59,1.0
2018-08-21 10:47:00,89.59132,21.51625,930.166,273.06,95.8,662.3,2.18,-1.18,-49.13,72.78,54.66,312.47,317.35,69.0,54.01,312.21,317.64,1.0
2018-08-21 10:47:00,89.59132,21.51625,930.135,273.06,95.8,662.5,1.32,-1.03,-48.84,72.12,54.66,311.6,316.98,68.89,54.0,312.32,317.73,1.0
2018-08-21 10:47:00,89.59132,21.51624,930.07,273.07,95.8,663.1,0.45,-0.77,-48.35,72.06,54.66,310.89,317.08,69.02,54.05,312.36,317.84,1.0
2018-08-21 10:47:00,89.59132,21.51624,930.153,273.06,95.8,662.4,-0.39,-0.77,-48.05,71.6,54.45,311.5,317.34,69.38,54.14,312.41,317.85,1.0
2018-08-21 10:47:00,89.59132,21.51623,930.15,273.06,95.8,662.4,1.54,-0.54,-47.89,72.51,54.66,312.01,318.06,69.95,54.27,312.38,317.77,1.0
2018-08-21 10:47:00,89.59132,21.51622,930.128,273.06,95.8,662.6,5.28,-0.76,-47.46,71.2,54.45,312.73,317.85,70.72,54.44,312.33,317.71,1.0
2018-08-21 10:47:00,89.59132,21.51622,930.136,273.06,95.8,662.5,7.05,-0.78,-47.18,72.25,54.52,312.43,317.96,71.61,54.63,312.31,317.69,1.0
2018-08-21 10:47:00,89.59132,21.51621,930.168,273.06,95.8,662.2,6.3,-0.67,-47.02,71.73,54.59,311.86,318.2,72.55,54.82,312.36,317.71,1.0
2018-08-21 10:47:00,89.59132,21.51621,930.163,273.06,95.8,662.3,4.02,-0.77,-46.77,71.86,54.31,312.0,317.4,73.47,55.01,312.46,317.71,1.0
2018-08-21 10:47:00,89.59132,21.5162,930.094,273.06,95.8,662.9,1.79,-0.81,-47.1,71.66,54.8,312.19,317.08,74.29,55.18,312.51,317.71,1.0
2018-08-21 10:47:00,89.59132,21.51619,930.1,273.06,95.8,662.8,1.74,-0.8,-47.27,72.19,54.59,312.38,316.97,74.92,55.32,312.5,317.64,1.0
2018-08-21 10:47:00,89.59132,21.51618,930.122,273.06,95.8,662.6,2.36,-0.62,-47.42,72.71,54.73,312.38,317.06,75.32,55.4,312.33,317.48,1.0
2018-08-21 10:47:00,89.59132,21.51617,930.158,273.07,95.8,662.3,3.2,-0.52,-47.59,72.45,54.59,312.47,317.36,75.44,55.44,312.22,317.3,1.0
2018-08-21 10:47:00,89.59132,21.51616,930.201,273.06,95.8,662.0,3.99,-0.56,-47.74,72.25,54.73,312.47,317.45,75.28,55.42,312.26,317.23,1.0
2018-08-21 10:47:00,89.59132,21.51616,930.148,273.06,95.8,662.4,4.58,-0.5,-47.79,72.64,54.66,312.28,317.16,74.86,55.36,312.28,317.24,1.0
2018-08-21 10:47:00,89.59132,21.51615,930.181,273.06,95.8,662.1,4.26,-0.84,-47.9,72.71,54.8,312.56,317.26,74.22,55.26,312.32,317.3,1.0
2018-08-21 10:47:00,89.59132,21.51614,930.189,273.06,95.8,662.1,1.66,-0.78,-48.03,72.71,54.86,311.82,316.27,73.45,55.13,312.38,317.35,1.0
2018-08-21 10:47:00,89.59132,21.51613,930.168,273.06,95.8,662.2,0.24,-0.72,-48.25,72.45,54.66,311.78,316.24,72.62,54.99,312.44,317.41,1.0
2018-08-21 10:47:00,89.59132,21.51612,930.132,273.06,95.8,662.5,1.19,-0.77,-48.42,73.04,54.8,312.47,317.45,71.83,54.86,312.5,317.45,1.0
2018-08-21 10:47:00,89.59132,21.51612,930.12,273.06,95.8,662.6,1.91,-0.72,-48.21,73.36,54.66,312.28,317.06,71.16,54.74,312.53,317.51,1.0
2018-08-21 10:47:00,89.59132,21.51611,930.137,273.06,95.8,662.5,1.93,-0.86,-47.38,72.06,54.8,312.28,317.36,70.68,54.65,312.44,317.64,1.0
2018-08-21 10:47:00,89.59132,21.5161,930.15,273.06,95.8,662.4,3.36,-0.93,-46.88,72.25,54.73,312.47,317.16,70.43,54.59,312.42,317.73,1.0
2018-08-21 10:47:00,89.59132,21.51609,930.193,273.06,95.8,662.0,6.12,-1.03,-46.48,71.66,54.66,312.47,317.36,70.44,54.56,312.46,317.86,1.0
2018-08-21 10:47:00,89.59132,21.51609,930.217,273.06,95.8,661.8,7.81,-1.07,-46.29,72.58,54.8,312.47,317.36,70.67,54.55,312.48,317.95,1.0
2018-08-21 10:47:00,89.59132,21.51608,930.15,273.06,95.8,662.4,6.69,-1.01,-46.36,72.38,54.8,312.22,317.53,71.1,54.57,312.42,317.91,1.0
2018-08-21 10:47:00,89.59132,21.51607,930.1,273.06,95.8,662.8,4.57,-1.25,-46.45,72.06,54.59,310.91,318.69,71.65,54.6,312.36,317.81,1.0
2018-08-21 10:47:00,89.59132,21.51606,930.112,273.06,95.8,662.7,-0.47,-1.36,-46.82,71.79,54.59,312.02,318.21,72.25,54.63,312.3,317.72,1.0
2018-08-21 10:47:00,89.59132,21.51606,930.121,273.06,95.8,662.6,-0.95,-1.35,-47.33,71.86,54.86,312.28,318.3,72.83,54.65,312.25,317.64,1.0
2018-08-21 10:47:00,89.59132,21.51605,930.128,273.06,95.8,662.6,0.83,-1.27,-47.84,72.78,54.59,312.47,318.12,73.31,54.67,312.21,317.58,1.0
2018-08-21 10:47:00,89.59132,21.51604,930.136,273.06,95.8,662.5,3.2,-1.22,-48.15,72.32,54.73,312.28,317.71,73.64,54.67,312.18,317.54,1.0
2018-08-21 10:47:00,89.59132,21.51603,930.098,273.06,95.8,662.8,6.28,-1.34,-47.95,72.51,54.73,312.28,317.05,73.8,54.68,312.14,317.5,1.0
2018-08-21 10:47:00,89.59132,21.51602,930.145,273.06,95.8,662.4,8.9,-1.14,-47.52,72.25,54.66,312.47,317.27,73.8,54.68,312.17,317.39,1.0
2018-08-21 10:47:00,89.59132,21.516,930.157,273.06,95.8,662.3,9.76,-1.18,-47.35,72.32,54.8,312.28,317.36,73.65,54.69,312.2,317.31,1.0
2018-08-21 10:47:00,89.59132,21.51599,930.124,273.06,95.8,662.6,10.31,-1.13,-47.15,73.23,54.86,312.56,317.26,73.39,54.71,312.23,317.26,1.0
2018-08-21 10:47:00,89.59132,21.51598,930.08,273.06,95.8,663.0,10.39,-0.98,-47.21,72.06,54.59,312.34,317.52,73.1,54.74,312.23,317.22,1.0
2018-08-21 10:47:00,89.59132,21.51596,930.095,273.06,95.8,662.9,9.38,-0.85,-47.89,72.84,54.59,311.53,317.08,72.82,54.78,312.2,317.21,1.0
2018-08-21 10:47:00,89.59132,21.51595,930.089,273.06,95.8,662.9,8.27,-0.46,-48.19,72.64,54.73,311.44,317.24,72.62,54.83,312.19,317.23,1.0
2018-08-21 10:47:00,89.59132,21.51594,930.09,273.06,95.8,662.9,6.46,-0.45,-48.22,72.38,54.66,312.32,317.16,72.52,54.87,312.17,317.22,1.0
2018-08-21 10:47:00,89.59132,21.51593,930.087,273.06,95.8,662.9,4.7,-0.61,-48.28,72.12,54.86,312.48,317.07,72.53,54.9,312.13,317.2,1.0
2018-08-21 10:47:00,89.59132,21.51591,930.092,273.06,95.8,662.9,4.62,-0.9,-48.42,72.51,54.66,312.11,317.26,72.66,54.9,312.09,317.16,1.0
2018-08-21 10:47:00,89.59132,21.5159,930.114,273.06,95.8,662.7,6.48,-1.15,-48.64,72.64,54.66,312.13,317.26,72.87,54.87,312.08,317.13,1.0
2018-08-21 10:47:00,89.59132,21.51589,930.108,273.05,95.8,662.7,8.17,-0.86,-48.86,72.38,54.73,312.49,317.36,73.12,54.81,312.14,317.09,1.0
2018-08-21 10:47:00,89.59132,21.51588,930.116,273.06,95.8,662.7,10.28,-0.91,-48.76,72.12,54.66,312.47,316.78,73.36,54.72,312.25,317.07,1.0
2018-08-21 10:47:00,89.59132,21.51586,930.141,273.06,95.8,662.5,11.5,-0.82,-48.42,72.91,54.86,312.47,317.36,73.54,54.61,312.3,317.06,1.0
2018-08-21 10:47:00,89.59132,21.51585,930.17,273.06,95.8,662.2,12.28,-0.76,-48.03,72.12,54.8,312.47,317.26,73.62,54.49,312.36,317.06,1.0
2018-08-21 10:47:00,89.59132,21.51584,930.192,273.06,95.8,662.0,13.1,-0.75,-47.83,72.71,54.8,312.37,317.36,73.59,54.39,312.46,317.13,1.0
2018-08-21 10:47:00,89.59132,21.51582,930.21,273.05,95.8,661.9,14.08,-0.69,-47.99,73.63,54.73,312.37,317.26,73.43,54.32,312.62,317.28,1.0
2018-08-21 10:47:00,89.59132,21.51581,930.168,273.06,95.8,662.2,11.74,-0.8,-48.43,72.91,54.8,312.38,317.07,73.18,54.28,312.73,317.33,1.0
2018-08-21 10:47:00,89.59132,21.5158,930.12,273.06,95.8,662.6,10.32,-0.84,-48.75,71.2,54.66,312.47,317.27,72.86,54.29,312.78,317.37,1.0
2018-08-21 10:47:00,89.59132,21.51578,930.12,273.06,95.8,662.6,9.23,-0.88,-48.79,72.97,54.52,312.28,317.27,72.52,54.35,312.79,317.39,1.0
2018-08-21 10:47:00,89.59132,21.51577,930.152,273.05,95.8,662.4,7.96,-0.88,-48.75,73.43,54.59,312.59,317.8,72.21,54.45,312.76,317.4,1.0
2018-08-21 10:47:00,89.59132,21.51576,930.16,273.06,95.8,662.3,6.77,-0.8,-48.86,72.84,54.59,312.97,318.25,71.97,54.57,312.71,317.41,1.0
2018-08-21 10:47:00,89.59132,21.51574,930.129,273.06,95.8,662.6,9.28,-0.9,-49.05,72.64,54.66,312.62,317.22,71.84,54.71,312.64,317.4,1.0
2018-08-21 10:47:00,89.59132,21.51573,930.116,273.05,95.8,662.7,10.13,-0.83,-49.07,72.38,54.45,312.38,317.09,71.83,54.84,312.56,317.39,1.0
2018-08-21 10:47:00,89.59132,21.51573,930.157,273.06,95.8,662.3,10.63,-0.85,-49.06,72.64,54.73,312.28,317.17,71.94,54.94,312.49,317.39,1.0
2018-08-21 10:47:00,89.59132,21.51572,930.164,273.06,95.8,662.3,11.66,-0.89,-49.12,71.99,54.8,312.47,317.45,72.14,55.01,312.44,317.45,1.0
2018-08-21 10:47:00,89.59132,21.51572,930.13,273.06,95.8,662.6,13.75,-0.83,-49.24,72.19,54.86,312.57,317.16,72.41,55.03,312.42,317.48,1.0
2018-08-21 10:47:00,89.59132,21.51571,930.232,273.06,95.8,661.7,17.16,-0.62,-49.4,72.84,54.66,312.56,317.26,72.71,55.02,312.4,317.41,1.0
2018-08-21 10:47:00,89.59132,21.51571,930.186,273.06,95.8,662.1,19.58,-0.9,-49.69,72.12,54.86,312.47,317.28,72.99,54.97,312.42,317.5,1.0
2018-08-21 10:47:00,89.59132,21.5157,930.196,273.06,95.8,662.0,18.59,-0.94,-49.44,72.91,54.59,312.65,317.07,73.23,54.91,312.52,317.56,1.0
2018-08-21 10:47:00,89.59132,21.5157,930.215,273.06,95.8,661.8,16.82,-0.84,-49.15,72.91,54.73,312.46,317.57,73.38,54.84,312.63,317.6,1.0
2018-08-21 10:47:00,89.59132,21.5157,930.202,273.06,95.8,662.0,15.08,-0.8,-49.06,72.64,54.73,312.46,317.96,73.44,54.78,312.74,317.63,1.0
2018-08-21 10:47:00,89.59132,21.51569,930.146,273.06,95.8,662.4,13.71,-0.93,-49.24,72.91,54.66,312.74,317.34,73.4,54.74,312.82,317.63,1.0
2018-08-21 10:47:00,89.59132,21.51569,930.14,273.06,95.8,662.5,13.92,-0.9,-49.5,72.06,54.73,312.56,317.65,73.26,54.72,312.86,317.61,1.0
2018-08-21 10:47:00,89.59132,21.51568,930.196,273.06,95.8,662.0,13.92,-0.65,-50.0,72.64,54.73,312.28,317.46,73.05,54.72,312.76,317.56,1.0
2018-08-21 10:47:00,89.59132,21.51568,930.194,273.06,95.8,662.0,14.39,-0.42,-50.22,73.5,54.73,312.56,317.26,72.78,54.73,312.6,317.5,1.0
2018-08-21 10:47:00,89.59132,21.51567,930.165,273.06,95.8,662.3,15.18,-0.3,-50.02,72.45,54.66,312.47,317.36,72.5,54.76,312.41,317.39,1.0
2018-08-21 10:47:00,89.59132,21.51567,930.156,273.06,95.8,662.3,15.91,-0.31,-49.52,72.51,54.8,312.28,317.16,72.22,54.77,312.24,317.28,1.0
2018-08-21 10:47:00,89.59132,21.51566,930.122,273.05,95.8,662.6,15.94,-0.45,-49.14,72.64,54.66,312.3,317.07,71.99,54.78,312.11,317.24,1.0
2018-08-21 10:47:00,89.59132,21.51565,930.111,273.06,95.8,662.7,13.51,-0.77,-48.96,72.71,54.8,311.38,317.25,71.83,54.77,311.99,317.19,1.0
2018-08-21 10:47:00,89.59132,21.51563,930.196,273.06,95.8,662.0,10.34,-0.69,-49.0,72.91,54.66,311.36,317.26,71.75,54.75,311.91,317.2,1.0
2018-08-21 10:47:00,89.59132,21.51562,930.235,273.06,95.8,661.7,8.77,-0.57,-49.11,72.19,54.73,311.5,317.55,71.77,54.71,311.88,317.25,1.0
2018-08-21 10:47:00,89.59132,21.5156,930.192,273.05,95.8,662.0,9.42,-0.5,-49.23,72.71,54.73,311.92,317.26,71.88,54.67,311.87,317.27,1.0
2018-08-21 10:47:00,89.59132,21.51558,930.135,273.06,95.8,662.5,11.56,-0.47,-49.25,72.38,54.86,312.67,317.26,72.08,54.64,311.87,317.23,1.0
2018-08-21 10:47:00,89.59132,21.51557,930.19,273.06,95.8,662.1,11.35,-0.42,-48.77,71.53,54.73,312.39,317.36,72.33,54.62,311.95,317.27,1.0
2018-08-21 10:47:00,89.59132,21.51555,930.176,273.05,95.8,662.2,11.21,-0.36,-48.74,73.36,54.73,312.57,317.26,72.61,54.63,312.12,317.27,1.0
2018-08-21 10:47:00,89.59132,21.51553,930.172,273.05,95.8,662.2,11.4,-0.47,-48.92,72.84,54.73,312.48,317.26,72.88,54.66,312.29,317.23,1.0
2018-08-21 10:47:00,89.59132,21.51552,930.176,273.06,95.8,662.2,12.67,-0.47,-49.3,73.04,54.59,312.39,316.75,73.11,54.71,312.42,317.15,1.0
2018-08-21 10:47:00,89.59132,21.5155,930.172,273.06,95.8,662.2,14.63,-0.22,-49.81,72.45,54.59,311.86,316.3,73.28,54.78,312.48,317.04,1.0
2018-08-21 10:47:00,89.59132,21.5155,930.244,273.05,95.8,661.6,14.2,0.03,-50.22,71.86,54.66,312.28,316.97,73.36,54.86,312.46,316.92,1.0
2018-08-21 10:47:00,89.59132,21.51549,930.183,273.06,95.8,662.1,12.89,-0.2,-50.34,71.99,54.8,312.47,316.98,73.34,54.93,312.4,316.8,1.0
2018-08-21 10:47:00,89.59132,21.51548,930.164,273.06,95.8,662.3,12.43,-0.43,-50.35,73.17,54.86,312.28,317.26,73.24,54.98,312.34,316.72,1.0
2018-08-21 10:47:00,89.59132,21.51548,930.168,273.06,95.8,662.2,10.77,-0.45,-50.52,72.71,54.73,312.56,317.08,73.08,55.01,312.27,316.67,1.0
2018-08-21 10:47:00,89.59132,21.51547,930.154,273.06,95.8,662.4,8.72,-0.31,-50.81,72.45,54.59,312.28,317.56,72.89,55.02,312.25,316.73,1.0
2018-08-21 10:47:00,89.59132,21.51546,930.093,273.06,95.8,662.9,8.33,-0.22,-50.99,73.76,54.8,312.56,317.36,72.7,54.99,312.27,316.87,1.0
2018-08-21 10:47:00,89.59132,21.51545,930.202,273.06,95.8,661.9,8.35,-0.28,-50.74,72.38,54.86,312.37,317.36,72.54,54.95,312.28,316.96,1.0
2018-08-21 10:47:00,89.59132,21.51544,930.253,273.06,95.8,661.5,9.87,-0.22,-50.54,72.71,54.73,312.56,317.07,72.44,54.89,312.32,317.07,1.0
2018-08-21 10:47:00,89.59132,21.51544,930.209,273.06,95.8,661.9,12.67,-0.24,-50.25,72.25,54.8,312.56,317.37,72.4,54.82,312.29,317.17,1.0
2018-08-21 10:47:00,89.59132,21.51543,930.13,273.07,95.8,662.6,15.39,-0.38,-49.95,72.84,54.86,312.56,317.18,72.42,54.74,312.3,317.31,1.0
2018-08-21 10:47:00,89.59132,21.51542,930.105,273.06,95.8,662.8,17.09,-0.53,-49.72,72.45,54.66,312.56,317.07,72.48,54.68,312.38,317.44,1.0
2018-08-21 10:47:00,89.59132,21.51541,930.172,273.06,95.8,662.2,18.4,-0.31,-49.44,73.23,54.8,312.28,317.47,72.55,54.61,312.39,317.42,1.0
2018-08-21 10:47:00,89.59132,21.5154,930.142,273.06,95.8,662.5,17.73,-0.29,-49.07,72.12,54.86,312.46,317.19,72.58,54.55,312.39,317.36,1.0
2018-08-21 10:47:00,89.59132,21.5154,930.13,273.06,95.8,662.6,17.42,-0.57,-48.8,72.38,54.66,311.53,317.2,72.55,54.5,312.35,317.27,1.0
2018-08-21 10:47:00,89.59132,21.51538,930.144,273.06,95.8,662.4,17.33,-0.79,-48.45,72.25,54.59,311.68,317.56,72.44,54.44,312.29,317.17,1.0
2018-08-21 10:47:00,89.59132,21.51538,930.16,273.06,95.8,662.3,16.74,-0.87,-48.13,72.58,54.8,312.52,317.78,72.23,54.39,312.21,317.07,1.0
2018-08-21 10:47:00,89.59132,21.51537,930.144,273.06,95.8,662.4,14.8,-1.0,-48.15,72.58,54.59,312.14,316.8,71.95,54.33,312.14,317.01,1.0
2018-08-21 10:47:00,89.59132,21.51536,930.159,273.06,95.8,662.3,14.24,-1.07,-48.14,73.1,54.86,312.26,317.25,71.62,54.29,312.08,316.98,1.0
2018-08-21 10:47:00,89.59132,21.51535,930.133,273.06,95.8,662.5,15.16,-1.16,-48.29,73.1,54.8,312.74,317.37,71.28,54.25,312.04,317.01,1.0
2018-08-21 10:47:00,89.59132,21.51534,930.142,273.06,95.8,662.5,15.25,-1.13,-48.47,73.3,54.59,312.47,317.28,70.99,54.24,312.12,317.03,1.0
2018-08-21 10:47:00,89.59132,21.51533,930.183,273.06,95.8,662.1,15.23,-1.11,-48.71,71.79,54.73,312.56,317.47,70.78,54.25,312.18,316.98,1.0
2018-08-21 10:47:00,89.59132,21.51532,930.182,273.06,95.8,662.1,16.32,-1.22,-49.05,72.64,54.66,312.47,317.18,70.68,54.29,312.18,316.92,1.0
2018-08-21 10:47:00,89.59132,21.51531,930.094,273.06,95.8,662.9,17.1,-0.94,-49.29,71.73,54.73,312.47,317.36,70.7,54.36,312.19,317.06,1.0
2018-08-21 10:47:00,89.59132,21.5153,930.118,273.06,95.8,662.7,17.46,-0.75,-49.79,72.45,54.8,312.47,317.28,70.85,54.46,312.26,317.16,1.0
2018-08-21 10:47:00,89.59132,21.51529,930.14,273.06,95.8,662.5,17.76,-0.46,-50.07,72.45,54.52,312.33,316.52,71.1,54.57,312.31,317.22,1.0
2018-08-21 10:47:00,89.59132,21.51528,930.138,273.06,95.8,662.5,17.33,-0.41,-50.1,71.53,54.38,312.0,315.93,71.4,54.69,312.34,317.24,1.0
2018-08-21 10:47:00,89.59132,21.51526,930.12,273.05,95.8,662.6,15.98,-0.63,-49.95,72.51,54.38,312.01,315.72,71.74,54.8,312.36,317.22,1.0
2018-08-21 10:47:00,89.59132,21.51525,930.114,273.05,95.8,662.7,15.33,-0.16,-49.94,71.4,54.73,311.38,316.99,72.07,54.9,312.35,317.17,1.0
2018-08-21 10:47:00,89.59132,21.51524,930.078,273.06,95.8,663.0,18.72,-0.19,-49.86,72.32,54.73,312.37,317.18,72.36,54.97,312.32,317.06,1.0
2018-08-21 10:47:00,89.59132,21.51523,930.1,273.06,95.8,662.8,20.89,-0.04,-49.66,73.04,54.8,312.09,317.47,72.61,55.0,312.33,316.88,1.0
2018-08-21 10:47:00,89.59132,21.51522,930.136,273.06,95.8,662.5,21.36,-0.11,-49.39,72.32,54.86,312.13,317.28,72.82,55.01,312.36,316.8,1.0
2018-08-21 10:47:00,89.59132,21.51521,930.15,273.06,95.8,662.4,21.38,-0.27,-48.96,72.12,54.66,312.47,317.18,73.01,54.99,312.35,316.84,1.0
2018-08-21 10:47:00,89.59132,21.5152,930.144,273.06,95.8,662.4,22.42,-0.16,-48.34,73.43,54.8,312.38,317.29,73.19,54.96,312.3,316.92,1.0
2018-08-21 10:47:00,89.59132,21.51518,930.164,273.06,95.8,662.3,20.62,-0.39,-48.45,71.99,54.66,312.56,316.65,73.39,54.93,312.41,316.87,1.0
2018-08-21 10:47:00,89.59132,21.51517,930.157,273.05,95.8,662.3,20.29,-0.3,-47.92,72.45,54.66,312.81,315.76,73.61,54.9,312.46,316.84,1.0
2018-08-21 10:47:00,89.59132,21.51516,930.173,273.05,95.8,662.2,20.05,-0.18,-47.54,71.2,54.8,313.26,316.13,73.85,54.87,312.48,316.84,1.0
2018-08-21 10:47:00,89.59132,21.51515,930.184,273.06,95.8,662.1,20.07,-0.02,-47.08,72.91,54.59,312.56,316.86,74.08,54.86,312.47,316.84,1.0
2018-08-21 10:47:00,89.59132,21.51513,930.144,273.06,95.8,662.4,20.64,0.06,-46.35,72.32,54.66,311.93,317.24,74.29,54.85,312.44,316.81,1.0
2018-08-21 10:47:00,89.59132,21.51512,930.161,273.06,95.8,662.3,21.4,-0.48,-45.92,71.66,54.73,313.09,316.31,74.42,54.83,312.39,316.76,1.0
2018-08-21 10:47:00,89.59132,21.5151,930.216,273.06,95.8,661.8,23.3,-0.66,-45.53,73.23,54.66,312.85,316.65,74.46,54.8,312.34,316.74,1.0
2018-08-21 10:47:00,89.59132,21.51508,930.234,273.06,95.8,661.7,23.62,-0.5,-45.81,73.3,54.8,312.58,316.97,74.38,54.74,312.24,316.77,1.0
2018-08-21 10:47:00,89.59132,21.51507,930.211,273.06,95.8,661.9,24.11,-0.16,-46.37,71.86,54.73,312.28,317.38,74.18,54.65,312.14,316.78,1.0
2018-08-21 10:47:00,89.59132,21.51505,930.176,273.06,95.8,662.2,24.68,0.06,-46.9,73.3,54.8,312.28,317.29,73.85,54.53,312.1,316.75,1.0
2018-08-21 10:47:00,89.59132,21.51503,930.208,273.06,95.8,661.9,23.18,-0.18,-47.24,73.04,54.8,312.76,317.29,73.45,54.39,312.15,316.72,1.0
2018-08-21 10:47:00,89.59132,21.51502,930.235,273.06,95.8,661.7,21.0,0.16,-47.5,72.91,54.73,312.75,317.28,73.01,54.24,312.04,316.79,1.0
2018-08-21 10:47:00,89.59132,21.515,930.226,273.05,95.8,661.7,19.31,0.14,-47.86,73.69,54.8,312.38,317.38,72.59,54.09,311.98,316.8,1.0
2018-08-21 10:47:00,89.59132,21.51499,930.198,273.05,95.8,662.0,17.4,0.32,-48.07,72.64,54.66,312.38,317.09,72.22,53.98,312.05,316.75,1.0
2018-08-21 10:47:00,89.59132,21.51497,930.172,273.06,95.8,662.2,16.91,0.52,-48.1,71.6,54.66,312.18,317.09,71.95,53.91,312.16,316.7,1.0
2018-08-21 10:47:00,89.59132,21.51495,930.165,273.06,95.8,662.3,19.98,0.39,-48.01,73.1,54.52,312.13,317.38,71.79,53.9,312.21,316.7,1.0
2018-08-21 10:47:00,89.59132,21.51494,930.15,273.06,95.8,662.4,25.03,0.35,-48.12,72.25,54.73,311.52,317.18,71.75,53.97,312.27,316.76,1.0
2018-08-21 10:47:00,89.59132,21.51492,930.125,273.06,95.8,662.6,27.93,-0.4,-47.49,72.12,54.59,311.47,316.62,71.79,54.1,312.31,316.79,1.0
2018-08-21 10:47:00,89.59132,21.5149,930.156,273.06,95.8,662.3,30.22,-0.44,-46.83,73.1,54.38,312.25,315.7,71.89,54.3,312.31,316.8,1.0
2018-08-21 10:47:00,89.59132,21.51488,930.199,273.06,95.8,662.0,32.07,-0.43,-46.28,71.92,54.38,312.32,315.25,72.02,54.53,312.22,316.77,1.0
2018-08-21 10:47:00,89.59132,21.51486,930.181,273.06,95.8,662.1,33.46,-0.77,-45.85,73.04,54.45,311.52,315.74,72.14,54.78,312.06,316.73,1.0
2018-08-21 10:47:00,89.59132,21.51484,930.199,273.06,95.8,662.0,33.94,-0.57,-45.59,73.1,54.73,312.09,316.89,72.24,55.02,311.93,316.69,1.0
2018-08-21 10:47:00,89.59132,21.51482,930.144,273.06,95.8,662.4,30.69,-1.03,-45.65,72.78,54.59,312.28,317.28,72.29,55.23,311.9,316.65,1.0
2018-08-21 10:47:00,89.59132,21.5148,930.164,273.06,95.8,662.3,28.57,-0.99,-45.21,72.64,54.86,312.37,317.28,72.32,55.39,311.89,316.7,1.0
2018-08-21 10:47:00,89.59132,21.51477,930.171,273.06,95.8,662.2,28.4,-0.95,-45.05,72.45,54.66,311.81,317.47,72.34,55.49,311.88,316.84,1.0
2018-08-21 10:47:00,89.59132,21.51475,930.14,273.06,95.8,662.5,29.28,-0.91,-45.37,72.38,54.59,311.25,317.19,72.36,55.52,311.93,317.0,1.0
2018-08-21 10:47:00,89.59132,21.51473,930.193,273.06,95.8,662.0,29.65,-0.53,-45.91,71.79,54.73,311.53,317.27,72.41,55.49,312.06,317.14,1.0
2018-08-21 10:47:00,89.59132,21.51471,930.151,273.06,95.8,662.4,29.34,-0.4,-46.42,72.91,54.8,311.57,316.99,72.49,55.41,312.19,317.22,1.0
2018-08-21 10:47:00,89.59132,21.51469,930.107,273.06,95.8,662.7,29.35,-0.01,-46.88,72.71,54.66,311.77,317.09,72.6,55.3,312.33,317.31,1.0
2018-08-21 10:47:00,89.59132,21.51468,930.118,273.06,95.8,662.7,30.26,0.12,-47.35,73.1,54.59,312.17,316.99,72.72,55.17,312.45,317.32,1.0
2018-08-21 10:47:00,89.59132,21.51467,930.147,273.06,95.8,662.4,31.65,0.19,-47.85,71.66,55.0,312.47,317.27,72.83,55.04,312.6,317.32,1.0
2018-08-21 10:47:00,89.59132,21.51466,930.123,273.06,95.8,662.6,32.52,0.44,-48.26,72.78,54.86,312.38,317.36,72.9,54.92,312.77,317.35,1.0
2018-08-21 10:47:00,89.59132,21.51464,930.132,273.06,95.8,662.5,31.42,0.48,-48.22,72.51,54.8,312.49,317.09,72.91,54.83,312.85,317.35,1.0
2018-08-21 10:47:00,89.59132,21.51463,930.141,273.06,95.8,662.5,33.04,0.66,-48.03,72.97,54.66,312.49,317.47,72.84,54.77,312.9,317.28,1.0
2018-08-21 10:47:00,89.59132,21.51462,930.151,273.06,95.8,662.4,32.69,0.5,-47.83,72.06,54.73,312.66,316.49,72.69,54.73,312.88,317.2,1.0
2018-08-21 10:47:00,89.59132,21.5146,930.157,273.06,95.8,662.3,31.62,0.49,-47.7,72.51,54.8,312.37,316.59,72.5,54.72,312.8,317.13,1.0
2018-08-21 10:47:00,89.59132,21.51459,930.156,273.06,95.8,662.3,30.06,0.65,-47.56,73.3,54.59,312.56,317.1,72.28,54.73,312.68,317.05,1.0
2018-08-21 10:47:00,89.59132,21.51458,930.142,273.06,95.8,662.4,26.54,0.44,-47.18,72.45,54.86,312.3,317.17,72.1,54.75,312.57,316.99,1.0
2018-08-21 10:47:00,89.59132,21.51457,930.142,273.06,95.8,662.5,24.37,0.33,-46.81,73.56,54.66,312.63,317.05,71.98,54.78,312.49,316.94,1.0
2018-08-21 10:47:00,89.59132,21.51455,930.122,273.06,95.8,662.6,24.16,0.04,-46.54,71.66,54.93,312.68,317.03,71.97,54.81,312.33,316.84,1.0
2018-08-21 10:47:00,89.59132,21.51454,930.139,273.06,95.8,662.5,23.77,-0.06,-46.43,72.19,54.66,312.51,317.26,72.08,54.83,312.2,316.82,1.0
2018-08-21 10:47:00,89.59132,21.51452,930.18,273.06,95.8,662.1,22.73,-0.04,-46.47,72.91,54.86,312.47,316.99,72.29,54.85,312.15,316.84,1.0
2018-08-21 10:47:00,89.59132,21.5145,930.113,273.06,95.8,662.7,21.72,-0.22,-46.48,72.45,54.66,312.56,317.28,72.59,54.86,312.19,316.89,1.0
2018-08-21 10:47:00,89.59132,21.51449,930.138,273.06,95.8,662.5,18.74,-0.1,-46.25,71.79,54.8,312.56,317.17,72.94,54.86,312.24,316.94,1.0
2018-08-21 10:47:00,89.59132,21.51447,930.144,273.06,95.8,662.4,17.78,-0.1,-46.06,73.1,54.86,311.34,316.46,73.27,54.87,312.27,317.02,1.0
2018-08-21 10:47:00,89.59132,21.51445,930.145,273.06,95.8,662.4,19.39,-0.01,-46.38,72.25,54.52,311.21,315.81,73.55,54.86,312.3,317.08,1.0
2018-08-21 10:47:00,89.59132,21.51444,930.154,273.06,95.8,662.3,21.54,0.03,-46.94,72.25,54.86,311.51,316.27,73.73,54.86,312.31,317.11,1.0
2018-08-21 10:47:00,89.59132,21.51442,930.175,273.06,95.8,662.2,22.16,-0.07,-47.31,72.25,54.8,312.56,317.28,73.79,54.86,312.3,317.12,1.0
2018-08-21 10:47:00,89.59132,21.5144,930.135,273.06,95.8,662.5,20.56,-0.08,-47.15,73.23,54.8,312.28,317.08,73.72,54.86,312.29,317.11,1.0
2018-08-21 10:47:00,89.59132,21.51439,930.126,273.06,95.8,662.6,16.5,-0.3,-46.67,72.64,54.86,312.29,317.38,73.54,54.86,312.23,317.09,1.0
2018-08-21 10:47:00,89.59132,21.51437,930.122,273.06,95.8,662.6,16.19,-0.13,-47.0,73.3,54.86,312.65,317.07,73.29,54.86,312.26,317.14,1.0
2018-08-21 10:47:00,89.59132,21.51435,930.132,273.06,95.8,662.5,16.8,0.04,-47.54,73.69,54.73,312.47,316.98,73.0,54.87,312.31,317.22,1.0
2018-08-21 10:47:00,89.59132,21.51434,930.157,273.06,95.8,662.3,16.77,0.11,-47.86,72.58,54.66,312.55,317.09,72.72,54.88,312.32,317.26,1.0
2018-08-21 10:47:00,89.59132,21.51432,930.175,273.06,95.8,662.2,15.93,0.2,-47.8,72.12,54.73,312.73,317.37,72.47,54.89,312.25,317.25,1.0
2018-08-21 10:47:00,89.59132,21.51431,930.126,273.06,95.8,662.6,15.31,0.05,-47.36,72.84,54.8,312.49,317.18,72.28,54.9,312.13,317.24,1.0
2018-08-21 10:47:00,89.59132,21.5143,930.109,273.06,95.8,662.7,16.53,-0.16,-46.9,72.25,54.86,312.38,317.28,72.13,54.92,312.1,317.25,1.0
2018-08-21 10:47:00,89.59132,21.51428,930.124,273.06,95.8,662.6,18.33,-0.22,-46.58,71.79,54.8,312.39,317.17,72.03,54.93,312.08,317.27,1.0
2018-08-21 10:47:00,89.59132,21.51427,930.154,273.06,95.8,662.4,19.09,-0.23,-46.49,72.78,54.86,312.76,317.27,71.96,54.95,312.08,317.29,1.0
2018-08-21 10:47:00,89.59132,21.51425,930.173,273.06,95.8,662.2,17.7,-0.31,-46.53,72.71,54.8,312.39,317.56,71.88,54.96,312.1,317.28,1.0
2018-08-21 10:47:00,89.59132,21.51424,930.179,273.06,95.8,662.1,14.38,-0.58,-46.33,73.17,54.86,311.6,317.36,71.78,54.96,312.12,317.19,1.0
2018-08-21 10:47:00,89.59132,21.51423,930.194,273.06,95.8,662.0,14.27,-0.58,-46.35,73.04,54.66,312.3,317.37,71.66,54.96,312.16,317.18,1.0
2018-08-21 10:47:00,89.59132,21.51421,930.159,273.06,95.8,662.3,14.62,-0.42,-46.42,72.64,54.8,312.19,317.09,71.52,54.94,312.21,317.17,1.0
2018-08-21 10:47:00,89.59132,21.5142,930.126,273.06,95.8,662.6,14.55,-0.39,-46.57,72.64,54.93,312.04,317.28,71.37,54.91,312.24,317.09,1.0
2018-08-21 10:47:00,89.59132,21.51419,930.142,273.06,95.8,662.5,14.35,-0.54,-46.8,72.19,54.8,312.4,316.96,71.23,54.87,312.27,316.94,1.0
2018-08-21 10:47:00,89.59132,21.51417,930.141,273.06,95.8,662.5,15.54,-0.58,-47.03,72.38,54.8,312.58,316.18,71.15,54.81,312.31,316.8,1.0
2018-08-21 10:47:00,89.59132,21.51416,930.171,273.06,95.8,662.2,14.39,-0.41,-47.25,72.45,54.86,312.19,316.93,71.15,54.74,312.41,316.68,1.0
2018-08-21 10:47:00,89.59132,21.51415,930.144,273.06,95.8,662.4,14.85,-0.32,-47.6,72.12,54.86,312.47,317.29,71.25,54.67,312.34,316.55,1.0
2018-08-21 10:47:00,89.59132,21.51414,930.114,273.06,95.8,662.7,14.68,-0.24,-48.01,72.71,54.8,312.29,316.53,71.46,54.6,312.3,316.47,1.0
2018-08-21 10:47:00,89.59132,21.51412,930.134,273.06,95.8,662.5,13.52,-0.07,-48.51,72.32,54.8,312.29,315.98,71.78,54.54,312.3,316.41,1.0
2018-08-21 10:47:00,89.59132,21.51411,930.23,273.06,95.8,661.7,12.05,0.2,-49.09,71.99,54.8,312.47,316.31,72.2,54.49,312.26,316.4,1.0
2018-08-21 10:47:00,89.59132,21.5141,930.171,273.06,95.8,662.2,10.9,0.01,-49.68,71.99,54.93,312.37,316.48,72.69,54.47,312.23,316.48,1.0
2018-08-21 10:47:00,89.59132,21.51408,930.163,273.05,95.8,662.3,10.9,-0.02,-49.59,72.32,54.66,311.48,316.73,73.23,54.48,312.2,316.48,1.0
2018-08-21 10:47:00,89.59132,21.51407,930.186,273.05,95.8,662.1,10.63,-0.03,-49.15,72.19,54.66,311.77,316.53,73.76,54.52,312.13,316.48,1.0
2018-08-21 10:47:00,89.59132,21.51406,930.216,273.06,95.8,661.8,9.81,-0.02,-48.58,72.64,54.8,312.28,317.28,74.28,54.59,312.1,316.55,1.0
2018-08-21 10:47:00,89.59132,21.51404,930.256,273.06,95.8,661.5,9.6,-0.0,-48.07,72.12,54.73,312.56,317.09,74.73,54.69,312.14,316.66,1.0
2018-08-21 10:47:00,89.59132,21.51403,930.203,273.06,95.8,661.9,12.77,-0.06,-47.68,73.69,54.8,312.28,317.28,75.09,54.81,312.19,316.7,1.0
2018-08-21 10:47:00,89.59132,21.51402,930.205,273.05,95.8,661.9,14.52,-0.4,-47.29,72.78,54.73,312.56,317.28,75.35,54.94,312.26,316.79,1.0
2018-08-21 10:47:00,89.59132,21.514,930.186,273.06,95.8,662.1,16.68,-0.54,-47.04,72.64,54.86,312.0,317.18,75.47,55.07,312.43,316.88,1.0
2018-08-21 10:47:00,89.59132,21.51399,930.152,273.06,95.8,662.4,17.3,-0.41,-47.2,71.66,54.86,312.03,317.08,75.45,55.18,312.57,316.94,1.0
2018-08-21 10:47:00,89.59132,21.51398,930.124,273.06,95.8,662.6,16.0,-0.13,-47.6,73.3,54.59,312.91,316.64,75.28,55.27,312.67,316.97,1.0
2018-08-21 10:47:00,89.59132,21.51396,930.118,273.06,95.8,662.7,13.56,0.12,-47.83,72.64,54.66,312.48,316.44,74.97,55.32,312.75,317.0,1.0
2018-08-21 10:47:00,89.59132,21.51393,930.159,273.06,95.8,662.3,11.62,-0.05,-48.08,73.63,54.8,312.47,317.0,74.51,55.33,312.81,317.02,1.0
2018-08-21 10:47:00,89.59132,21.5139,930.166,273.06,95.8,662.2,11.39,-0.25,-48.46,72.84,55.0,312.28,317.18,73.94,55.3,312.84,317.04,1.0
2018-08-21 10:47:00,89.59132,21.51388,930.171,273.06,95.8,662.2,10.7,-0.4,-48.79,72.45,54.86,312.47,316.99,73.29,55.23,312.85,317.0,1.0
2018-08-21 10:47:00,89.59132,21.51385,930.169,273.06,95.8,662.2,9.66,-0.42,-49.01,73.36,55.0,312.47,317.18,72.6,55.12,312.8,316.95,1.0
2018-08-21 10:47:00,89.59132,21.51382,930.142,273.06,95.8,662.5,8.96,-0.3,-49.02,73.95,54.8,312.56,317.27,71.94,55.0,312.71,316.98,1.0
2018-08-21 10:47:00,89.59132,21.51379,930.165,273.06,95.8,662.3,8.7,-0.36,-48.69,73.43,55.0,312.28,317.18,71.37,54.86,312.61,317.07,1.0
2018-08-21 10:47:00,89.59132,21.51376,930.197,273.06,95.8,662.0,10.0,-0.46,-48.31,72.12,54.93,312.38,317.18,70.93,54.72,312.43,317.08,1.0
2018-08-21 10:47:00,89.59132,21.51373,930.198,273.06,95.8,662.0,11.73,-0.51,-47.97,73.43,54.86,312.09,316.51,70.67,54.6,312.27,317.09,1.0
2018-08-21 10:47:00,89.59132,21.51371,930.172,273.06,95.8,662.2,12.6,-0.58,-47.59,71.86,54.59,312.11,316.44,70.62,54.49,312.13,317.1,1.0
2018-08-21 10:47:00,89.59132,21.5137,930.154,273.06,95.8,662.4,12.45,-0.71,-47.13,72.45,54.86,312.39,317.08,70.76,54.41,312.05,317.11,1.0
2018-08-21 10:47:00,89.59132,21.51368,930.187,273.06,95.8,662.1,12.9,-0.94,-46.6,72.84,54.86,312.5,317.16,71.08,54.35,312.03,317.1,1.0
2018-08-21 10:47:00,89.59132,21.51367,930.154,273.06,95.8,662.3,15.15,-1.21,-46.41,72.91,54.73,311.85,316.98,71.52,54.31,311.95,317.01,1.0
2018-08-21 10:47:00,89.59132,21.51365,930.142,273.06,95.8,662.4,17.08,-1.28,-46.39,72.71,54.86,311.94,317.28,72.02,54.29,311.95,316.98,1.0
