Date/Time,Latitude,Longitude,PPPP [hPa],TTT grad [K],RH [%],Height [m],Pitch [deg],Roll [deg],Yaw [deg],SWD [W/m**2] (raw),SWU [W/m**2] (raw),LWD [W/m**2] (raw),LWU [W/m**2] (raw),SWD [W/m**2] (corrected),SWU [W/m**2] (corrected),LWD [W/m**2] (corrected),LWU [W/m**2] (corrected),Flag
2018-08-21 10:28:00,89.59655,22.46013,1010.952,273.42,94.2,3.7,3.41,3.75,-46.28,18.78,27.74,321.24,325.51,40.03,25.99,313.8,316.1,0.0
2018-08-21 10:28:00,89.59655,22.46012,1010.979,273.42,94.2,3.5,3.12,3.85,-46.27,18.98,27.6,321.79,325.56,52.94,25.48,313.93,316.28,0.0
2018-08-21 10:28:00,89.59655,22.46011,1010.964,273.42,94.2,3.6,2.9,3.8,-46.29,18.26,27.74,320.89,325.46,66.03,25.05,314.06,316.6,0.0
2018-08-21 10:28:00,89.59655,22.46009,1010.92,273.42,94.2,4.0,2.78,3.55,-46.46,18.65,27.26,319.1,325.92,78.19,24.76,314.1,316.93,0.0
2018-08-21 10:28:00,89.59655,22.46008,1010.928,273.42,94.2,3.9,3.99,3.6,-46.58,17.6,27.6,321.16,325.99,88.36,24.64,313.9,317.19,0.0
2018-08-21 10:28:00,89.59655,22.46006,1010.938,273.42,94.2,3.8,5.11,3.17,-46.49,17.54,27.6,316.83,326.06,95.7,24.7,313.51,317.13,0.0
2018-08-21 10:28:00,89.59655,22.46005,1010.969,273.42,94.2,3.6,4.92,2.86,-46.43,36.78,26.71,317.01,320.79,99.69,24.95,312.98,316.83,0.0
2018-08-21 10:28:00,89.59655,22.46003,1010.987,273.42,94.2,3.4,4.6,2.59,-46.6,35.99,26.64,316.89,320.63,100.15,25.36,312.32,316.23,0.0
2018-08-21 10:28:00,89.59655,22.46002,1010.96,273.42,94.2,3.7,4.82,2.31,-47.08,36.78,26.85,316.63,320.59,97.27,25.89,311.64,315.42,0.0
2018-08-21 10:28:00,89.59655,22.46,1010.969,273.43,94.2,3.6,4.38,2.26,-47.7,36.78,26.78,316.05,321.32,91.55,26.51,311.18,314.5,0.0
2018-08-21 10:28:00,89.59655,22.45999,1010.966,273.42,94.2,3.6,3.37,2.57,-48.38,36.58,27.26,316.31,320.55,83.76,27.16,310.62,313.6,0.0
2018-08-21 10:28:00,89.59655,22.45998,1010.956,273.43,94.2,3.7,3.02,3.01,-49.08,37.89,27.19,317.21,320.75,74.78,27.81,310.32,312.88,0.0
2018-08-21 10:28:00,89.59655,22.45996,1010.961,273.43,94.2,3.6,2.85,3.55,-49.94,36.32,27.12,317.16,320.49,65.52,28.41,310.29,312.46,0.0
2018-08-21 10:28:00,89.59655,22.45995,1010.973,273.43,94.2,3.6,2.6,4.21,-50.92,37.89,27.19,317.37,320.65,56.8,28.94,310.52,312.37,0.0
2018-08-21 10:28:00,89.59655,22.45993,1010.939,273.43,94.2,3.8,2.31,5.02,-51.76,36.32,27.19,317.55,320.6,49.27,29.39,311.03,312.62,0.0
2018-08-21 10:28:00,89.59655,22.45992,1010.924,273.42,94.2,3.9,1.67,5.93,-52.45,36.85,27.4,317.54,320.6,43.34,29.73,311.85,313.2,0.0
2018-08-21 10:28:00,89.59655,22.4599,1010.909,273.42,94.2,4.1,1.5,6.51,-53.38,36.45,27.54,317.69,320.52,39.17,29.98,312.79,314.07,0.0
2018-08-21 10:28:00,89.59655,22.45988,1010.887,273.42,94.2,4.2,1.15,7.04,-54.34,36.91,27.33,317.65,320.63,36.69,30.15,313.79,315.2,0.0
2018-08-21 10:28:00,89.59655,22.45985,1010.868,273.42,94.2,4.4,0.68,7.54,-55.26,37.17,27.47,317.68,320.55,35.63,30.26,314.77,316.42,0.0
2018-08-21 10:28:00,89.59655,22.45983,1010.877,273.42,94.2,4.3,0.48,7.86,-56.07,37.37,27.47,317.66,320.33,35.63,30.31,315.64,317.6,0.0
2018-08-21 10:28:00,89.59655,22.4598,1010.877,273.42,94.2,4.3,-0.04,7.96,-56.69,37.17,27.6,317.69,320.45,36.24,30.34,316.35,318.74,0.0
2018-08-21 10:28:00,89.59655,22.45978,1010.89,273.42,94.2,4.2,-0.57,8.37,-57.07,38.28,27.74,317.39,319.94,37.1,30.35,316.93,319.62,0.0
2018-08-21 10:28:00,89.59655,22.45975,1010.875,273.42,94.2,4.3,-0.89,8.58,-57.27,37.56,27.88,317.85,320.1,37.87,30.35,317.33,320.32,0.0
2018-08-21 10:28:00,89.59655,22.45973,1010.875,273.42,94.2,4.3,-0.98,8.88,-57.27,37.24,27.88,317.54,319.99,38.37,30.37,317.49,320.7,0.0
2018-08-21 10:28:00,89.59655,22.4597,1010.912,273.43,94.2,4.0,-0.96,9.31,-57.1,36.72,27.88,317.58,319.79,38.52,30.39,317.48,320.79,0.0
2018-08-21 10:28:00,89.59655,22.45968,1010.887,273.42,94.2,4.2,-1.11,9.5,-56.81,36.98,28.09,317.4,320.73,38.36,30.44,317.46,320.76,0.0
2018-08-21 10:28:00,89.59655,22.45965,1010.886,273.42,94.2,4.2,-1.27,9.86,-56.28,37.24,28.09,317.76,320.08,37.99,30.51,317.33,320.55,0.0
2018-08-21 10:28:00,89.59655,22.45963,1010.881,273.42,94.2,4.3,-2.36,10.46,-55.54,37.44,28.3,317.72,320.69,37.57,30.6,317.2,320.36,0.0
2018-08-21 10:28:00,89.59655,22.4596,1010.876,273.42,94.2,4.3,-2.51,10.78,-54.66,37.89,28.16,317.33,320.16,37.24,30.71,317.06,320.11,0.0
2018-08-21 10:28:00,89.59655,22.45955,1010.863,273.42,94.2,4.4,-1.44,11.03,-53.65,36.91,27.95,316.82,319.31,37.11,30.85,316.95,319.89,0.0
2018-08-21 10:28:00,89.59655,22.45951,1010.808,273.42,94.2,4.9,0.19,11.7,-52.6,36.98,28.09,317.62,319.86,37.24,30.99,316.92,319.77,0.0
2018-08-21 10:28:00,89.59655,22.45946,1010.754,273.42,94.2,5.3,1.6,11.63,-51.8,36.06,28.3,317.5,319.84,37.61,31.14,316.89,319.6,0.0
2018-08-21 10:28:00,89.59655,22.45942,1010.784,273.42,94.2,5.0,2.84,11.95,-51.48,37.3,28.5,317.76,320.65,38.15,31.29,316.84,319.61,0.0
2018-08-21 10:28:00,89.59655,22.45937,1010.81,273.42,94.2,4.8,2.98,11.84,-50.98,37.89,28.57,317.85,320.46,38.76,31.42,316.75,319.61,0.0
2018-08-21 10:28:00,89.59655,22.45932,1010.809,273.42,94.2,4.8,2.76,11.47,-50.53,37.3,28.64,317.9,320.13,39.3,31.53,316.74,319.7,0.0
2018-08-21 10:28:00,89.59655,22.45928,1010.786,273.43,94.2,5.0,2.77,11.12,-50.33,38.74,28.71,318.15,320.46,39.67,31.61,316.8,319.86,0.0
2018-08-21 10:28:00,89.59655,22.45923,1010.756,273.42,94.2,5.3,2.33,10.77,-49.98,37.04,28.92,317.59,319.86,39.78,31.66,316.75,319.91,0.0
2018-08-21 10:28:00,89.59655,22.45919,1010.759,273.43,94.2,5.2,1.41,10.19,-49.83,37.83,28.78,317.54,321.0,39.62,31.67,316.72,320.0,0.0
2018-08-21 10:28:00,89.59655,22.45914,1010.754,273.43,94.2,5.3,1.79,9.8,-49.44,36.91,28.78,316.91,320.85,39.18,31.64,316.57,319.94,0.0
2018-08-21 10:28:00,89.59655,22.4591,1010.732,273.43,94.2,5.4,1.98,9.35,-48.93,37.89,28.92,316.88,320.79,38.54,31.58,316.45,319.91,0.0
2018-08-21 10:28:00,89.59655,22.45905,1010.706,273.43,94.2,5.7,1.59,9.03,-48.29,38.02,29.06,317.37,320.96,37.78,31.5,316.36,319.89,0.0
2018-08-21 10:28:00,89.59655,22.459,1010.706,273.43,94.2,5.7,1.36,9.34,-47.48,37.24,29.06,317.05,320.63,37.02,31.4,316.25,319.82,0.0
2018-08-21 10:28:00,89.59655,22.45896,1010.678,273.42,94.2,5.9,3.14,9.42,-47.11,37.3,29.19,317.24,320.96,36.35,31.31,316.22,319.8,0.0
2018-08-21 10:28:00,89.59655,22.45892,1010.661,273.42,94.2,6.0,3.32,9.42,-46.65,37.7,29.19,316.26,319.82,35.84,31.23,316.2,319.65,0.0
2018-08-21 10:28:00,89.59655,22.45888,1010.651,273.42,94.2,6.1,3.71,9.69,-46.67,38.35,29.19,316.34,320.03,35.55,31.18,316.21,319.56,0.0
2018-08-21 10:28:00,89.59655,22.45884,1010.642,273.43,94.2,6.2,4.41,9.84,-47.12,37.17,29.4,316.95,320.35,35.5,31.16,316.22,319.47,0.0
2018-08-21 10:28:00,89.59655,22.4588,1010.629,273.43,94.2,6.3,4.6,9.53,-47.65,37.56,29.4,316.73,320.18,35.65,31.18,316.21,319.35,0.0
2018-08-21 10:28:00,89.59654,22.45876,1010.598,273.43,94.2,6.5,3.31,10.1,-48.26,36.52,29.33,317.01,319.89,35.96,31.23,316.23,319.32,0.0
2018-08-21 10:28:00,89.59654,22.45872,1010.588,273.42,94.2,6.6,3.26,10.12,-48.87,38.02,29.33,316.51,319.28,36.37,31.32,316.07,319.12,0.0
2018-08-21 10:28:00,89.59654,22.45868,1010.576,273.42,94.2,6.7,3.67,10.49,-49.59,37.24,29.33,316.33,319.64,36.8,31.44,316.02,319.03,0.0
2018-08-21 10:28:00,89.59654,22.45864,1010.571,273.42,94.2,6.7,3.66,10.68,-50.28,37.11,29.4,316.41,319.49,37.2,31.57,316.01,318.89,0.0
2018-08-21 10:28:00,89.59654,22.4586,1010.575,273.43,94.2,6.7,3.15,10.59,-50.91,37.5,29.61,316.89,319.87,37.5,31.71,316.0,318.69,0.0
2018-08-21 10:28:00,89.59654,22.45856,1010.537,273.42,94.2,7.0,3.19,10.97,-51.66,37.17,29.81,317.09,320.47,37.7,31.85,316.01,318.59,0.0
2018-08-21 10:28:00,89.59654,22.45852,1010.536,273.42,94.2,7.0,2.48,10.79,-52.58,36.52,29.54,315.6,318.77,37.78,31.96,315.98,318.48,0.0
2018-08-21 10:28:00,89.59654,22.45847,1010.501,273.42,94.2,7.3,1.11,10.76,-53.36,36.98,29.81,315.59,319.25,37.76,32.05,315.94,318.42,0.0
2018-08-21 10:28:00,89.59654,22.45843,1010.48,273.42,94.2,7.4,0.4,10.67,-54.05,37.76,29.74,316.36,318.97,37.68,32.11,315.95,318.35,0.0
2018-08-21 10:28:00,89.59654,22.45839,1010.496,273.43,94.2,7.3,0.65,10.46,-54.72,36.98,29.81,316.62,318.02,37.58,32.13,316.02,318.38,0.0
2018-08-21 10:28:00,89.59654,22.45834,1010.489,273.42,94.2,7.4,1.29,10.27,-55.3,37.56,30.02,316.86,318.88,37.52,32.12,316.11,318.51,0.0
2018-08-21 10:28:00,89.59654,22.4583,1010.483,273.43,94.2,7.4,1.42,10.15,-55.68,38.94,29.95,316.89,318.41,37.54,32.07,316.21,318.55,0.0
2018-08-21 10:28:00,89.59654,22.45826,1010.48,273.43,94.2,7.4,1.95,9.94,-55.69,37.56,30.09,316.05,318.36,37.67,32.0,316.48,318.74,0.0
2018-08-21 10:28:00,89.59654,22.45821,1010.482,273.43,94.2,7.4,1.57,10.16,-55.91,37.17,30.02,316.45,318.2,37.92,31.91,316.62,318.82,0.0
2018-08-21 10:28:00,89.59654,22.45817,1010.482,273.43,94.2,7.4,0.89,10.26,-56.09,37.3,30.16,316.92,319.06,38.28,31.81,316.68,318.84,0.0
2018-08-21 10:28:00,89.59654,22.45812,1010.466,273.43,94.2,7.5,0.79,9.8,-55.91,37.76,30.09,317.62,320.21,38.72,31.71,316.73,318.86,0.0
2018-08-21 10:28:00,89.59654,22.45808,1010.421,273.42,94.2,7.9,0.6,10.01,-55.89,36.39,30.37,317.78,319.44,39.19,31.63,316.79,318.88,0.0
2018-08-21 10:28:00,89.59654,22.45804,1010.418,273.43,94.2,7.9,1.8,9.66,-55.31,36.98,30.23,317.44,320.2,39.63,31.55,316.86,318.94,0.0
2018-08-21 10:28:00,89.59654,22.458,1010.393,273.43,94.2,8.1,2.26,9.77,-55.15,36.45,30.16,316.81,319.2,39.98,31.5,316.96,318.99,0.0
2018-08-21 10:28:00,89.59654,22.458,1010.368,273.43,94.2,8.3,2.33,9.6,-54.85,37.56,30.3,316.07,318.59,40.17,31.47,316.95,318.99,0.0
2018-08-21 10:28:00,89.59654,22.45799,1010.357,273.43,94.2,8.4,2.48,9.37,-54.33,38.35,30.23,316.9,318.44,40.17,31.45,316.85,318.92,0.0
2018-08-21 10:28:00,89.59654,22.45798,1010.326,273.42,94.2,8.7,3.07,10.34,-54.15,38.09,30.37,317.09,319.36,39.96,31.45,316.74,318.87,0.0
2018-08-21 10:28:00,89.59654,22.45797,1010.331,273.43,94.2,8.6,4.45,9.61,-54.04,38.87,30.37,317.36,319.5,39.55,31.46,316.61,318.95,0.0
2018-08-21 10:28:00,89.59654,22.45796,1010.316,273.43,94.2,8.7,4.06,9.99,-54.27,39.33,30.5,317.02,319.47,38.98,31.47,316.5,318.96,0.0
2018-08-21 10:28:00,89.59654,22.45796,1010.299,273.43,94.2,8.9,3.82,9.91,-54.61,36.58,30.23,316.49,318.99,38.31,31.47,316.47,319.07,0.0
2018-08-21 10:28:00,89.59654,22.45795,1010.289,273.42,94.2,9.0,4.34,9.66,-55.18,37.44,30.57,316.24,318.68,37.61,31.46,316.41,319.23,0.0
2018-08-21 10:28:00,89.59654,22.45794,1010.277,273.43,94.2,9.0,5.35,10.03,-56.14,39.27,30.5,316.81,319.66,36.96,31.44,316.25,319.31,0.0
2018-08-21 10:28:00,89.59654,22.45793,1010.295,273.43,94.2,8.9,5.47,9.6,-57.09,38.35,30.44,316.55,320.31,36.43,31.4,316.08,319.25,0.0
2018-08-21 10:28:00,89.59654,22.45793,1010.276,273.43,94.2,9.1,5.5,9.82,-57.99,37.11,30.44,316.96,319.81,36.07,31.35,315.95,319.21,0.0
2018-08-21 10:28:00,89.59654,22.45792,1010.238,273.43,94.2,9.4,5.62,9.71,-59.04,36.72,30.57,316.92,320.2,35.89,31.3,315.88,319.19,0.0
2018-08-21 10:28:00,89.59654,22.45791,1010.208,273.43,94.2,9.6,5.46,9.55,-60.08,37.17,30.57,316.34,320.05,35.91,31.25,315.9,319.2,0.0
2018-08-21 10:28:00,89.59654,22.45792,1010.211,273.43,94.2,9.6,4.88,9.54,-61.02,37.11,30.64,315.71,319.1,36.09,31.21,315.93,319.21,0.0
2018-08-21 10:28:00,89.59654,22.45794,1010.212,273.43,94.2,9.6,4.11,9.35,-62.08,37.56,30.64,315.95,318.54,36.39,31.19,315.9,319.18,0.0
2018-08-21 10:28:00,89.59654,22.45795,1010.18,273.43,94.2,9.8,3.46,9.63,-62.93,38.48,30.64,316.14,319.16,36.76,31.2,315.9,319.08,0.0
2018-08-21 10:28:00,89.59654,22.45796,1010.136,273.42,94.2,10.2,3.26,9.6,-63.59,37.17,30.64,316.37,319.19,37.15,31.22,315.94,319.05,0.0
2018-08-21 10:28:00,89.59654,22.45798,1010.105,273.42,94.2,10.4,3.08,9.39,-64.22,38.42,30.44,316.47,319.05,37.52,31.26,315.99,318.95,0.0
2018-08-21 10:28:00,89.59654,22.45799,1010.102,273.42,94.2,10.4,2.84,9.23,-64.87,37.89,30.5,316.21,318.81,37.84,31.32,316.1,318.86,0.0
2018-08-21 10:28:00,89.59654,22.458,1010.111,273.43,94.2,10.4,2.97,9.48,-65.4,36.85,30.64,315.83,319.79,38.1,31.37,316.24,318.86,0.0
2018-08-21 10:28:00,89.59654,22.45801,1010.098,273.43,94.2,10.5,3.66,9.24,-65.72,38.15,30.64,316.38,319.23,38.3,31.42,316.2,318.87,0.0
2018-08-21 10:28:00,89.59654,22.45803,1010.127,273.43,94.2,10.2,4.01,9.33,-65.93,37.5,30.78,316.92,319.39,38.45,31.45,316.26,318.84,0.0
2018-08-21 10:28:00,89.59654,22.45804,1010.114,273.43,94.2,10.3,3.95,9.32,-66.16,37.7,30.85,316.79,319.03,38.55,31.46,316.29,318.77,0.0
2018-08-21 10:28:00,89.59654,22.45805,1010.068,273.43,94.2,10.7,3.6,9.23,-66.41,35.47,30.85,317.08,319.13,38.63,31.45,316.3,318.71,0.0
2018-08-21 10:28:00,89.59654,22.45806,1010.053,273.43,94.2,10.8,3.28,9.15,-66.58,39.2,30.78,316.77,319.0,38.68,31.42,316.31,318.66,0.0
2018-08-21 10:28:00,89.59654,22.45805,1010.085,273.43,94.2,10.6,3.84,9.06,-66.48,38.15,30.5,314.54,318.69,38.7,31.38,316.34,318.56,0.0
2018-08-21 10:28:00,89.59653,22.45803,1010.082,273.43,94.2,10.6,4.27,9.26,-66.55,37.44,30.85,316.4,318.78,38.67,31.33,316.37,318.52,0.0
2018-08-21 10:28:00,89.59653,22.458,1010.076,273.43,94.2,10.6,4.87,8.89,-66.14,37.11,30.85,316.65,318.61,38.59,31.27,316.34,318.44,0.0
2018-08-21 10:28:00,89.59653,22.45797,1010.068,273.43,94.2,10.7,5.5,8.55,-65.42,38.02,30.78,316.27,318.3,38.45,31.22,316.3,318.46,0.0
2018-08-21 10:28:00,89.59653,22.45795,1010.054,273.42,94.2,10.8,6.05,8.39,-64.56,37.3,30.85,316.53,318.32,38.26,31.19,316.3,318.55,0.0
2018-08-21 10:28:00,89.59653,22.45792,1010.05,273.43,94.2,10.8,6.51,7.76,-63.54,38.81,30.78,316.77,318.39,38.04,31.16,316.33,318.57,0.0
2018-08-21 10:28:00,89.59653,22.45789,1010.059,273.43,94.2,10.8,5.48,7.9,-63.0,38.81,30.99,316.8,318.94,37.81,31.14,316.46,318.57,0.0
2018-08-21 10:28:00,89.59653,22.45787,1010.026,273.43,94.2,11.0,5.29,7.84,-62.53,37.7,30.85,317.12,318.62,37.62,31.12,316.48,318.6,0.0
2018-08-21 10:28:00,89.59653,22.45784,1009.974,273.43,94.2,11.4,4.92,7.89,-62.11,38.09,30.71,317.0,318.84,37.5,31.1,316.51,318.67,0.0
2018-08-21 10:28:00,89.59653,22.45781,1009.937,273.43,94.2,11.7,4.3,8.01,-61.69,37.56,30.85,317.42,319.61,37.46,31.08,316.55,318.73,0.0
2018-08-21 10:28:00,89.59653,22.45779,1009.942,273.43,94.2,11.7,4.05,8.04,-61.28,36.52,30.78,317.27,319.23,37.52,31.04,316.57,318.75,0.0
2018-08-21 10:28:00,89.59653,22.45776,1009.947,273.43,94.2,11.6,4.84,8.24,-61.0,37.5,30.78,316.58,318.06,37.66,31.0,316.62,318.82,0.0
2018-08-21 10:28:00,89.59653,22.45773,1009.946,273.43,94.2,11.7,4.83,8.73,-60.89,37.56,30.99,316.57,319.29,37.85,30.95,316.61,318.83,0.0
2018-08-21 10:28:00,89.59653,22.45771,1009.938,273.43,94.2,11.7,5.57,8.83,-60.91,38.02,30.99,317.02,319.05,38.04,30.9,316.62,318.85,0.0
2018-08-21 10:28:00,89.59653,22.45768,1009.925,273.43,94.2,11.8,6.68,9.06,-60.96,37.56,30.85,316.72,319.36,38.17,30.86,316.61,318.82,0.0
2018-08-21 10:28:00,89.59653,22.45766,1009.912,273.43,94.2,11.9,7.77,9.45,-60.94,37.44,30.85,316.67,319.01,38.2,30.84,316.52,318.81,0.0
2018-08-21 10:28:00,89.59653,22.45775,1009.895,273.43,94.2,12.1,9.35,8.47,-60.79,39.4,30.99,316.75,319.48,38.09,30.84,316.41,318.89,0.0
2018-08-21 10:28:00,89.59653,22.45783,1009.894,273.43,94.2,12.1,10.27,9.14,-60.76,37.76,30.85,316.48,319.5,37.84,30.87,316.38,319.01,0.0
2018-08-21 10:28:00,89.59653,22.45791,1009.868,273.43,94.2,12.3,10.87,8.55,-60.14,38.28,30.71,316.39,319.64,37.48,30.93,316.32,319.11,0.0
2018-08-21 10:28:00,89.59653,22.458,1009.842,273.43,94.2,12.5,11.08,8.33,-59.49,37.11,30.64,316.35,319.0,37.05,31.0,316.18,319.13,0.0
2018-08-21 10:28:00,89.59653,22.45808,1009.846,273.43,94.2,12.4,11.42,8.46,-58.9,37.7,30.99,316.23,319.3,36.62,31.08,316.01,319.13,0.0
2018-08-21 10:28:00,89.59652,22.45816,1009.869,273.43,94.2,12.3,12.82,7.34,-58.02,38.28,30.92,316.18,319.78,36.26,31.16,315.91,319.17,0.0
2018-08-21 10:28:00,89.59652,22.45825,1009.814,273.43,94.2,12.7,13.4,7.58,-57.37,37.11,30.85,316.46,318.78,36.05,31.21,315.84,319.12,0.0
2018-08-21 10:28:00,89.59652,22.45833,1009.81,273.43,94.2,12.7,13.9,6.39,-57.03,37.63,30.85,316.38,319.35,36.01,31.24,315.85,319.05,0.0
2018-08-21 10:28:00,89.59652,22.45841,1009.808,273.43,94.2,12.8,13.89,6.44,-56.88,38.28,30.85,315.76,318.91,36.16,31.23,315.85,318.95,0.0
2018-08-21 10:28:00,89.59652,22.45844,1009.79,273.42,94.2,12.9,13.49,6.77,-56.96,37.17,30.99,315.31,318.45,36.47,31.18,315.81,318.82,0.0
2018-08-21 10:28:00,89.59652,22.45847,1009.774,273.43,94.2,13.0,12.91,6.13,-57.28,36.58,30.99,315.69,319.28,36.89,31.1,315.77,318.64,0.0
2018-08-21 10:28:00,89.59652,22.4585,1009.771,273.42,94.2,13.0,11.96,6.92,-57.48,37.3,30.99,315.78,319.23,37.34,30.98,315.8,318.38,0.0
2018-08-21 10:28:00,89.59652,22.45853,1009.706,273.43,94.2,13.6,10.98,6.42,-58.21,37.63,30.99,316.47,319.3,37.73,30.85,315.82,318.27,0.0
2018-08-21 10:28:00,89.59652,22.45856,1009.668,273.42,94.2,13.9,9.5,6.83,-59.02,37.37,30.99,316.47,318.75,37.97,30.71,315.85,318.12,0.0
2018-08-21 10:28:00,89.59652,22.4586,1009.671,273.42,94.2,13.8,8.51,7.16,-59.92,38.55,30.78,315.88,318.71,38.03,30.57,315.87,318.02,0.0
2018-08-21 10:28:00,89.59652,22.45863,1009.686,273.42,94.2,13.7,8.07,7.08,-60.89,37.96,30.92,315.68,318.66,37.87,30.45,315.88,317.97,0.0
2018-08-21 10:28:00,89.59652,22.45866,1009.617,273.42,94.2,14.3,6.8,7.62,-61.75,37.11,30.85,316.27,318.12,37.51,30.35,315.88,317.93,0.0
2018-08-21 10:28:00,89.59652,22.45869,1009.622,273.42,94.2,14.2,6.34,7.48,-62.68,38.28,30.78,316.55,318.68,37.0,30.27,315.79,318.06,0.0
2018-08-21 10:28:00,89.59652,22.45872,1009.615,273.43,94.2,14.3,5.81,7.55,-63.86,36.65,30.99,316.54,318.57,36.41,30.22,315.7,318.21,0.0
2018-08-21 10:28:00,89.59652,22.45875,1009.613,273.43,94.2,14.3,5.11,7.4,-65.36,38.28,30.78,316.05,317.95,35.82,30.2,315.65,318.39,0.0
2018-08-21 10:28:00,89.59652,22.45878,1009.605,273.42,94.2,14.3,4.54,7.06,-67.13,37.63,30.92,315.9,317.68,35.32,30.19,315.66,318.57,0.0
2018-08-21 10:28:00,89.59652,22.4588,1009.535,273.42,94.2,14.9,4.48,6.77,-68.92,36.78,30.57,315.99,317.92,34.97,30.22,315.72,318.75,0.0
2018-08-21 10:28:00,89.59652,22.45882,1009.579,273.42,94.2,14.6,4.5,6.87,-70.9,37.37,30.85,315.33,319.12,34.81,30.26,315.71,318.89,0.0
2018-08-21 10:28:00,89.59652,22.45884,1009.568,273.42,94.2,14.6,4.55,7.04,-72.83,37.5,30.78,316.09,318.94,34.87,30.33,315.77,318.85,0.0
2018-08-21 10:28:00,89.59652,22.45885,1009.551,273.42,94.2,14.8,4.57,6.73,-74.82,37.11,30.78,315.78,318.9,35.12,30.43,315.8,318.75,0.0
2018-08-21 10:28:00,89.59652,22.45887,1009.547,273.43,94.2,14.8,4.57,6.4,-76.77,36.72,30.71,315.93,319.1,35.54,30.54,315.86,318.64,0.0
2018-08-21 10:28:00,89.59651,22.45888,1009.553,273.43,94.2,14.8,4.64,6.4,-78.66,36.91,30.78,316.1,319.59,36.08,30.67,315.94,318.55,0.0
2018-08-21 10:28:00,89.59651,22.4589,1009.554,273.42,94.2,14.7,5.11,6.2,-80.45,37.76,30.92,315.64,318.9,36.69,30.81,315.96,318.43,0.0
2018-08-21 10:28:00,89.59651,22.45891,1009.519,273.42,94.2,15.0,4.79,6.41,-81.51,36.91,30.64,317.0,318.62,37.33,30.94,316.12,318.15,0.0
2018-08-21 10:28:00,89.59651,22.45893,1009.484,273.42,94.2,15.3,4.5,6.46,-82.45,36.85,30.57,316.57,317.94,37.97,31.05,316.15,317.98,0.0
2018-08-21 10:28:00,89.59651,22.45894,1009.474,273.42,94.2,15.4,3.98,6.1,-83.26,36.58,30.64,316.64,317.74,38.59,31.12,316.16,317.92,0.0
2018-08-21 10:28:00,89.59651,22.45896,1009.485,273.42,94.2,15.3,3.24,5.65,-83.95,37.56,30.85,316.48,318.02,39.16,31.15,316.19,317.87,0.0
2018-08-21 10:28:00,89.59651,22.45897,1009.47,273.43,94.2,15.4,2.73,5.85,-84.54,36.52,30.85,316.34,318.16,39.66,31.12,316.2,317.82,0.0
2018-08-21 10:28:00,89.59651,22.45898,1009.443,273.42,94.2,15.6,2.84,5.15,-85.13,38.55,30.78,317.34,317.22,40.09,31.03,316.27,317.91,0.0
2018-08-21 10:28:00,89.59651,22.45899,1009.425,273.42,94.2,15.8,2.19,5.16,-85.66,37.11,31.06,316.22,318.03,40.42,30.88,316.21,318.08,0.0
2018-08-21 10:28:00,89.59651,22.459,1009.403,273.42,94.2,15.9,2.45,5.3,-85.97,37.3,30.85,316.33,318.23,40.64,30.7,316.19,318.3,0.0
2018-08-21 10:28:00,89.59651,22.45901,1009.381,273.42,94.2,16.1,3.27,5.32,-86.14,37.96,30.92,316.35,318.16,40.7,30.48,316.19,318.46,0.0
2018-08-21 10:28:00,89.59651,22.45902,1009.375,273.42,94.2,16.2,3.66,5.22,-86.3,37.11,30.64,316.33,317.74,40.61,30.27,316.16,318.53,0.0
2018-08-21 10:28:00,89.59651,22.45903,1009.35,273.42,94.2,16.4,3.43,5.41,-86.34,37.5,30.85,316.63,318.45,40.34,30.08,316.21,318.58,0.0
2018-08-21 10:28:00,89.59651,22.45904,1009.341,273.42,94.2,16.4,2.81,5.44,-86.4,38.81,30.64,315.93,318.4,39.92,29.92,316.11,318.59,0.0
2018-08-21 10:28:00,89.59651,22.45905,1009.329,273.42,94.2,16.5,1.9,5.64,-86.08,37.56,30.85,315.91,318.09,39.36,29.83,316.12,318.46,0.0
2018-08-21 10:28:00,89.59651,22.45906,1009.316,273.42,94.2,16.6,1.16,6.0,-85.25,37.37,30.71,315.82,318.0,38.73,29.79,316.13,318.24,0.0
2018-08-21 10:28:00,89.59651,22.45907,1009.308,273.43,94.2,16.7,0.74,6.34,-83.88,38.87,30.64,315.31,317.88,38.07,29.81,316.08,318.0,0.0
2018-08-21 10:28:00,89.59651,22.45908,1009.296,273.42,94.2,16.8,0.3,6.36,-82.07,38.09,30.64,315.7,318.23,37.46,29.88,316.07,317.78,0.0
2018-08-21 10:28:00,89.59651,22.45909,1009.3,273.43,94.2,16.8,0.49,6.6,-80.02,37.76,30.57,315.64,317.87,36.97,29.99,315.99,317.6,0.0
2018-08-21 10:28:00,89.59651,22.4591,1009.283,273.42,94.2,16.9,1.76,6.52,-78.03,38.22,30.64,316.19,318.02,36.63,30.11,316.0,317.43,0.0
2018-08-21 10:28:00,89.59651,22.45908,1009.264,273.42,94.2,17.0,2.28,6.25,-75.81,37.7,30.37,316.23,317.59,36.48,30.22,315.98,317.29,0.0
2018-08-21 10:28:00,89.59651,22.45903,1009.251,273.42,94.2,17.1,2.19,6.18,-73.45,37.24,30.57,316.31,317.8,36.5,30.31,315.98,317.24,0.0
2018-08-21 10:28:00,89.59651,22.45898,1009.23,273.42,94.2,17.3,2.76,6.63,-71.33,36.98,30.57,316.77,317.82,36.67,30.36,316.06,317.29,0.0
2018-08-21 10:28:00,89.59651,22.45893,1009.219,273.42,94.2,17.4,3.85,6.33,-68.7,37.17,30.64,316.01,318.57,36.93,30.39,316.04,317.31,0.0
2018-08-21 10:28:00,89.59651,22.45888,1009.22,273.42,94.2,17.4,2.69,6.79,-66.38,38.74,30.78,316.42,318.06,37.21,30.37,316.1,317.43,0.0
2018-08-21 10:28:00,89.59651,22.45883,1009.2,273.42,94.2,17.6,2.38,6.94,-64.07,37.24,30.71,316.54,317.55,37.47,30.33,316.06,317.55,0.0
2018-08-21 10:28:00,89.59651,22.45878,1009.172,273.42,94.2,17.8,2.93,6.99,-61.8,37.56,30.64,316.23,317.57,37.63,30.28,316.06,317.65,0.0
2018-08-21 10:28:00,89.59651,22.45873,1009.171,273.42,94.2,17.8,3.4,7.12,-59.54,38.61,30.57,316.88,317.58,37.69,30.22,316.15,317.74,0.0
2018-08-21 10:28:00,89.59651,22.45868,1009.164,273.42,94.2,17.8,2.3,6.4,-57.16,37.44,30.64,315.88,317.17,37.65,30.16,316.15,317.79,0.0
2018-08-21 10:28:00,89.59651,22.45863,1009.129,273.42,94.2,18.1,2.84,6.74,-55.28,37.17,30.37,316.25,317.65,37.52,30.12,316.22,317.8,0.0
2018-08-21 10:28:00,89.59651,22.45858,1009.137,273.42,94.2,18.0,3.82,6.07,-53.9,37.5,30.37,315.38,317.28,37.37,30.1,316.24,317.72,0.0
2018-08-21 10:28:00,89.59651,22.45853,1009.125,273.42,94.2,18.1,4.16,5.62,-52.79,37.7,30.37,316.01,317.43,37.24,30.09,316.28,317.63,0.0
2018-08-21 10:28:00,89.59651,22.45848,1009.056,273.42,94.2,18.7,4.11,5.79,-51.94,38.35,30.64,316.82,318.12,37.19,30.1,316.32,317.56,0.0
2018-08-21 10:28:00,89.59651,22.45843,1009.112,273.43,94.2,18.2,5.53,5.51,-51.71,38.09,30.5,316.53,318.04,37.26,30.12,316.28,317.5,0.0
2018-08-21 10:28:00,89.59651,22.45838,1009.077,273.42,94.2,18.5,6.82,6.08,-51.98,36.58,30.57,316.89,318.41,37.48,30.14,316.41,317.54,0.0
2018-08-21 10:28:00,89.59651,22.45828,1009.083,273.42,94.2,18.5,6.44,6.13,-52.26,37.17,30.64,316.73,317.51,37.82,30.17,316.4,317.56,0.0
2018-08-21 10:28:00,89.59651,22.45818,1009.106,273.42,94.2,18.3,6.48,6.63,-52.54,38.28,30.44,316.89,317.15,38.26,30.2,316.47,317.63,0.0
2018-08-21 10:28:00,89.59651,22.45808,1009.117,273.42,94.2,18.2,7.55,7.21,-53.01,37.89,30.57,316.92,318.04,38.74,30.23,316.52,317.75,0.0
2018-08-21 10:28:00,89.59651,22.45798,1009.12,273.42,94.2,18.2,9.13,7.05,-53.82,37.17,30.37,316.14,318.05,39.2,30.26,316.49,317.91,0.0
2018-08-21 10:28:00,89.59651,22.45788,1009.102,273.42,94.2,18.3,8.7,7.94,-53.95,37.7,30.44,317.0,318.01,39.58,30.29,316.54,318.15,0.0
2018-08-21 10:28:00,89.5965,22.45778,1009.079,273.42,94.2,18.5,9.14,8.28,-54.33,37.56,30.44,315.92,317.85,39.84,30.33,316.48,318.25,0.0
2018-08-21 10:28:00,89.5965,22.45768,1009.048,273.42,94.2,18.7,9.59,8.89,-55.02,37.11,30.37,316.02,317.97,39.94,30.36,316.42,318.34,0.0
2018-08-21 10:28:00,89.5965,22.45758,1009.023,273.42,94.2,18.9,9.34,9.63,-55.76,38.61,30.37,316.08,318.21,39.88,30.39,316.34,318.38,0.0
2018-08-21 10:28:00,89.5965,22.45748,1009.011,273.42,94.2,19.0,8.24,10.2,-56.33,37.76,30.57,316.24,318.59,39.68,30.41,316.23,318.37,0.0
2018-08-21 10:28:00,89.5965,22.4574,1008.966,273.42,94.2,19.4,6.86,10.35,-56.61,38.22,30.5,316.68,319.39,39.37,30.42,316.16,318.37,0.0
2018-08-21 10:28:00,89.5965,22.45739,1008.965,273.42,94.2,19.4,6.98,11.21,-57.15,38.87,30.44,315.59,318.0,38.98,30.4,316.01,318.45,0.0
2018-08-21 10:28:00,89.5965,22.45739,1008.972,273.42,94.2,19.3,7.0,11.08,-57.65,38.48,30.44,315.8,317.6,38.56,30.37,316.0,318.45,0.0
2018-08-21 10:28:00,89.5965,22.45738,1008.967,273.42,94.2,19.4,6.79,11.21,-58.13,38.09,30.5,316.14,317.08,38.13,30.31,315.97,318.35,0.0
2018-08-21 10:28:00,89.5965,22.45738,1008.943,273.41,94.2,19.6,7.14,11.52,-58.61,37.76,30.5,315.74,317.57,37.7,30.23,315.94,318.23,0.0
2018-08-21 10:28:00,89.5965,22.45737,1008.906,273.41,94.2,19.9,8.79,11.29,-59.08,38.09,30.44,315.51,318.16,37.3,30.16,316.0,318.13,0.0
2018-08-21 10:28:00,89.5965,22.45736,1008.931,273.42,94.2,19.7,8.61,11.85,-59.45,37.5,30.37,315.59,319.62,36.91,30.08,316.05,317.92,0.0
2018-08-21 10:28:00,89.5965,22.45736,1008.93,273.42,94.2,19.7,9.28,11.32,-59.98,37.11,30.5,316.2,318.9,36.52,30.03,316.17,317.83,0.0
2018-08-21 10:28:00,89.5965,22.45735,1008.899,273.42,94.2,19.9,9.71,11.51,-60.16,37.89,30.44,315.93,317.55,36.14,30.0,316.23,317.83,0.0
2018-08-21 10:28:00,89.5965,22.45735,1008.858,273.42,94.2,20.3,9.61,11.59,-60.16,37.96,30.44,315.95,317.76,35.76,30.01,316.21,317.92,0.0
2018-08-21 10:28:00,89.5965,22.45734,1008.83,273.42,94.2,20.5,9.02,10.92,-60.35,38.74,30.37,316.77,317.65,35.4,30.06,316.15,317.99,0.0
2018-08-21 10:28:00,89.5965,22.45734,1008.799,273.42,94.2,20.7,8.11,10.83,-61.28,38.42,30.37,316.96,317.52,35.1,30.13,316.18,317.88,0.0
2018-08-21 10:28:00,89.5965,22.45733,1008.796,273.42,94.2,20.7,7.73,10.05,-62.27,37.89,30.16,316.5,317.13,34.89,30.23,316.07,317.62,0.0
2018-08-21 10:28:00,89.5965,22.4573,1008.8,273.41,94.2,20.7,7.44,9.17,-63.2,36.52,30.37,316.22,317.35,34.81,30.33,315.96,317.48,0.0
2018-08-21 10:28:00,89.5965,22.45726,1008.793,273.41,94.2,20.8,6.97,8.16,-64.38,37.37,30.3,315.36,317.83,34.91,30.43,315.93,317.44,0.0
2018-08-21 10:28:00,89.5965,22.45722,1008.774,273.42,94.2,20.9,6.52,7.1,-65.59,38.55,30.57,314.99,318.17,35.2,30.51,315.9,317.42,0.0
2018-08-21 10:28:00,89.5965,22.45718,1008.772,273.42,94.2,20.9,6.54,6.1,-66.41,36.72,30.44,315.97,316.8,35.69,30.56,315.8,317.37,0.0
2018-08-21 10:28:00,89.5965,22.45713,1008.731,273.42,94.2,21.3,6.25,4.69,-68.95,36.98,30.23,314.83,316.8,36.35,30.57,315.73,317.43,0.0
2018-08-21 10:28:00,89.5965,22.45709,1008.734,273.42,94.2,21.2,4.96,2.88,-71.49,37.17,30.44,315.62,317.46,37.14,30.55,315.67,317.47,0.0
2018-08-21 10:28:00,89.5965,22.45705,1008.737,273.42,94.2,21.2,3.98,1.55,-74.36,36.98,30.44,316.22,317.75,37.98,30.49,315.62,317.49,0.0
2018-08-21 10:28:00,89.59649,22.45701,1008.732,273.42,94.2,21.3,3.59,0.4,-77.4,36.58,30.44,316.72,317.74,38.82,30.4,315.67,317.48,0.0
2018-08-21 10:28:00,89.59649,22.45697,1008.735,273.41,94.2,21.2,3.52,-0.87,-80.17,37.44,30.5,316.3,317.66,39.55,30.31,315.84,317.52,0.0
2018-08-21 10:28:00,89.59649,22.45692,1008.722,273.41,94.2,21.3,2.67,-0.77,-82.81,38.28,30.57,316.8,317.83,40.13,30.21,315.96,317.65,0.0
2018-08-21 10:28:00,89.59649,22.45688,1008.738,273.41,94.2,21.2,1.14,-1.39,-85.46,37.96,30.23,316.57,317.71,40.51,30.12,316.12,317.73,0.0
2018-08-21 10:28:00,89.59649,22.45684,1008.738,273.41,94.2,21.2,0.27,-1.21,-88.43,37.3,30.44,315.71,317.78,40.66,30.05,316.23,317.78,0.0
2018-08-21 10:28:00,89.59649,22.45675,1008.723,273.42,94.2,21.3,-0.94,-0.96,-91.15,38.74,30.16,315.68,317.56,40.59,30.0,316.25,317.8,0.0
2018-08-21 10:28:00,89.59649,22.45658,1008.703,273.41,94.2,21.5,-2.33,-0.76,-93.32,37.11,30.37,316.5,317.74,40.34,29.96,316.21,317.8,0.0
2018-08-21 10:28:00,89.59649,22.45642,1008.664,273.41,94.2,21.8,-2.01,0.52,-95.4,38.15,30.37,316.59,317.71,39.94,29.94,316.21,317.81,0.0
2018-08-21 10:28:00,89.59649,22.45626,1008.664,273.4,94.2,21.8,-3.52,1.46,-96.71,37.76,30.37,316.1,317.23,39.45,29.93,316.1,317.69,0.0
2018-08-21 10:28:00,89.59649,22.45609,1008.673,273.41,94.2,21.7,-3.9,2.88,-97.78,37.56,30.37,316.53,317.85,38.94,29.91,316.04,317.66,0.0
2018-08-21 10:28:00,89.59649,22.45593,1008.691,273.41,94.2,21.6,-4.39,4.3,-98.43,38.48,30.3,316.22,318.16,38.45,29.89,316.02,317.69,0.0
2018-08-21 10:28:00,89.59649,22.45576,1008.703,273.4,94.2,21.5,-4.63,6.13,-98.98,38.94,30.37,316.07,318.26,38.01,29.87,316.02,317.73,0.0
2018-08-21 10:28:00,89.59649,22.4556,1008.662,273.41,94.2,21.8,-3.77,8.85,-99.73,37.56,30.23,316.5,318.5,37.64,29.84,315.99,317.79,0.0
2018-08-21 10:28:00,89.59649,22.45548,1008.674,273.41,94.2,21.7,-6.06,8.47,-98.79,37.37,30.37,315.85,317.61,37.34,29.81,315.87,317.94,0.0
2018-08-21 10:28:00,89.59649,22.45541,1008.662,273.41,94.2,21.8,-3.82,10.54,-98.47,38.87,30.23,315.97,318.39,37.11,29.78,315.88,318.18,0.0
2018-08-21 10:28:00,89.59649,22.45534,1008.657,273.41,94.2,21.8,-3.93,10.61,-96.88,37.17,30.3,315.73,317.96,36.92,29.76,315.85,318.29,0.0
2018-08-21 10:28:00,89.59649,22.45526,1008.645,273.41,94.2,21.9,-4.35,10.11,-94.69,37.83,30.37,315.67,317.82,36.76,29.76,315.84,318.34,0.0
2018-08-21 10:28:00,89.59649,22.45519,1008.61,273.41,94.2,22.2,-3.1,10.09,-92.57,37.3,30.23,315.9,318.14,36.61,29.79,315.85,318.39,0.0
2018-08-21 10:28:00,89.59648,22.45512,1008.613,273.41,94.2,22.2,-2.7,8.02,-89.71,37.37,30.02,315.04,318.79,36.46,29.83,315.76,318.41,0.0
2018-08-21 10:28:00,89.59648,22.45505,1008.597,273.41,94.2,22.3,-2.33,8.6,-86.78,38.55,30.02,315.62,318.85,36.32,29.89,315.76,318.47,0.0
2018-08-21 10:28:00,89.59648,22.45498,1008.593,273.41,94.2,22.3,-3.23,7.28,-82.89,37.89,30.3,315.61,317.64,36.19,29.95,315.72,318.36,0.0
2018-08-21 10:28:00,89.59648,22.4549,1008.567,273.41,94.2,22.5,-3.83,6.63,-78.96,38.28,30.16,315.92,317.23,36.09,30.02,315.74,318.2,0.0
2018-08-21 10:28:00,89.59648,22.45483,1008.511,273.41,94.2,23.0,-3.51,6.97,-75.17,38.28,30.37,316.2,318.1,36.02,30.08,315.8,318.07,0.0
2018-08-21 10:28:00,89.59648,22.45476,1008.522,273.41,94.2,22.9,-3.3,5.15,-70.93,37.24,30.16,315.26,318.08,36.01,30.13,315.84,317.94,0.0
2018-08-21 10:28:00,89.59648,22.45469,1008.553,273.41,94.2,22.7,-2.38,5.66,-66.45,37.44,30.16,315.82,318.28,36.06,30.15,315.98,317.76,0.0
2018-08-21 10:28:00,89.59648,22.45462,1008.526,273.4,94.2,22.9,-2.06,5.16,-62.2,37.17,30.37,315.73,317.57,36.18,30.16,316.03,317.61,0.0
2018-08-21 10:28:00,89.59648,22.45454,1008.517,273.4,94.2,22.9,-1.69,5.64,-58.05,36.91,30.23,316.18,317.22,36.36,30.15,316.04,317.63,0.0
2018-08-21 10:28:00,89.59648,22.45447,1008.527,273.41,94.2,22.9,-1.74,6.58,-53.9,36.58,30.16,316.5,317.79,36.59,30.13,316.05,317.77,0.0
2018-08-21 10:28:00,89.59648,22.45441,1008.482,273.4,94.2,23.2,-2.47,7.05,-49.68,36.78,30.02,316.49,317.77,36.86,30.11,316.15,317.91,0.0
2018-08-21 10:28:00,89.59648,22.45435,1008.476,273.41,94.2,23.3,-1.57,8.56,-46.18,38.55,30.16,316.5,317.5,37.17,30.1,316.34,317.96,0.0
2018-08-21 10:28:00,89.59648,22.4543,1008.406,273.41,94.2,23.8,-0.83,9.66,-43.26,38.55,30.09,315.95,317.58,37.48,30.11,316.33,317.97,0.0
2018-08-21 10:28:00,89.59648,22.45424,1008.389,273.41,94.2,24.0,0.16,10.61,-40.6,36.85,30.37,315.06,318.2,37.79,30.14,316.37,318.08,0.0
2018-08-21 10:28:00,89.59648,22.45418,1008.373,273.41,94.2,24.1,1.69,11.54,-38.58,38.48,30.23,315.26,318.73,38.09,30.18,316.36,318.15,0.0
2018-08-21 10:28:00,89.59648,22.45413,1008.309,273.41,94.2,24.6,3.29,12.41,-37.07,36.65,30.23,316.52,318.64,38.36,30.25,316.25,318.13,0.0
2018-08-21 10:28:00,89.59648,22.45407,1008.32,273.41,94.2,24.5,3.43,12.88,-35.43,38.28,30.16,316.71,317.97,38.59,30.32,316.19,318.1,0.0
2018-08-21 10:28:00,89.59648,22.45401,1008.316,273.41,94.2,24.5,3.93,14.36,-34.9,36.98,30.09,315.27,317.17,38.78,30.4,316.07,318.16,0.0
2018-08-21 10:28:00,89.59648,22.45396,1008.273,273.41,94.2,24.9,4.65,14.91,-35.15,36.72,30.23,316.31,317.93,38.91,30.46,316.06,318.12,0.0
2018-08-21 10:28:00,89.59648,22.4539,1008.262,273.41,94.2,25.0,5.14,15.57,-35.9,37.76,30.16,316.31,317.67,38.98,30.51,316.11,318.02,0.0
2018-08-21 10:28:00,89.59648,22.45388,1008.291,273.41,94.2,24.7,5.1,15.92,-37.12,36.78,30.3,316.2,317.13,39.0,30.54,316.14,317.92,0.0
2018-08-21 10:28:00,89.59648,22.45388,1008.238,273.41,94.2,25.2,4.53,14.98,-38.9,38.55,30.09,316.68,317.9,38.96,30.55,316.08,317.86,0.0
2018-08-21 10:28:00,89.59648,22.45387,1008.258,273.4,94.2,25.0,4.29,15.64,-41.69,37.7,30.23,316.2,318.92,38.86,30.54,316.04,317.81,0.0
2018-08-21 10:28:00,89.59648,22.45386,1008.261,273.4,94.2,25.0,4.69,14.09,-44.89,38.09,30.23,316.69,318.17,38.74,30.52,316.17,317.87,0.0
2018-08-21 10:28:00,89.59648,22.45386,1008.254,273.4,94.2,25.0,4.4,13.92,-47.95,37.5,30.37,316.32,318.13,38.59,30.49,316.18,317.91,0.0
2018-08-21 10:28:00,89.59647,22.45385,1008.248,273.4,94.2,25.1,2.64,13.67,-50.64,39.01,30.37,315.67,318.74,38.43,30.47,316.17,317.98,0.0
2018-08-21 10:28:00,89.59647,22.45384,1008.254,273.4,94.2,25.0,-0.01,12.46,-53.26,37.7,30.37,315.99,318.86,38.27,30.45,316.13,318.08,0.0
2018-08-21 10:28:00,89.59647,22.45383,1008.2,273.4,94.2,25.5,-0.37,12.56,-56.93,37.76,30.16,316.02,317.75,38.13,30.44,315.87,318.09,0.0
2018-08-21 10:28:00,89.59647,22.45383,1008.193,273.4,94.2,25.5,-1.2,10.85,-59.89,37.89,30.16,316.2,317.99,38.0,30.43,315.78,318.15,0.0
2018-08-21 10:28:00,89.59647,22.45382,1008.183,273.4,94.2,25.6,-1.96,10.48,-62.75,36.45,30.3,316.25,318.37,37.87,30.42,315.62,318.16,0.0
2018-08-21 10:28:00,89.59647,22.45381,1008.172,273.4,94.2,25.7,-1.75,10.04,-65.57,39.4,30.16,316.24,318.39,37.75,30.41,315.53,318.12,0.0
2018-08-21 10:28:00,89.59647,22.4538,1008.168,273.4,94.2,25.7,-0.55,9.35,-68.36,36.72,30.37,315.76,318.29,37.61,30.38,315.49,318.11,1.0
2018-08-21 10:28:00,89.59647,22.45376,1008.16,273.4,94.2,25.8,0.61,9.66,-70.83,36.32,30.23,314.63,317.64,37.45,30.34,315.42,318.18,1.0
2018-08-21 10:28:00,89.59647,22.4537,1008.148,273.4,94.2,25.9,-0.07,8.65,-72.37,38.48,30.37,315.78,319.19,37.26,30.27,315.36,318.32,1.0
2018-08-21 10:28:00,89.59647,22.45364,1008.14,273.4,94.2,25.9,-0.85,8.59,-73.49,38.68,30.3,315.63,318.46,37.06,30.18,315.32,318.41,1.0
2018-08-21 10:28:00,89.59647,22.45358,1008.131,273.4,94.2,26.0,-0.81,8.42,-74.5,38.48,30.23,315.9,317.81,36.86,30.08,315.36,318.53,1.0
2018-08-21 10:28:00,89.59647,22.45352,1008.128,273.4,94.2,26.0,-0.35,8.27,-75.34,37.17,30.37,315.97,318.49,36.69,29.97,315.4,318.63,1.0
2018-08-21 10:28:00,89.59646,22.45346,1008.138,273.4,94.2,25.9,-0.08,8.43,-75.86,38.68,30.37,314.81,319.59,36.58,29.87,315.42,318.67,1.0
2018-08-21 10:28:00,89.59646,22.4534,1008.108,273.4,94.2,26.2,-0.09,8.58,-76.16,37.5,30.23,314.94,319.02,36.56,29.79,315.53,318.7,1.0
2018-08-21 10:28:00,89.59646,22.45334,1008.085,273.4,94.2,26.4,0.33,8.59,-76.47,37.44,30.02,315.41,318.88,36.66,29.74,315.45,318.53,1.0
2018-08-21 10:28:00,89.59646,22.45328,1008.071,273.4,94.2,26.5,0.96,8.41,-76.84,36.91,30.37,315.53,319.09,36.9,29.72,315.4,318.44,1.0
2018-08-21 10:28:00,89.59646,22.45322,1008.08,273.4,94.2,26.4,1.31,8.21,-77.01,37.17,30.16,315.62,318.89,37.26,29.73,315.34,318.39,1.0
2018-08-21 10:28:00,89.59646,22.45316,1008.12,273.4,94.2,26.1,1.29,8.18,-76.88,37.7,30.37,315.11,318.2,37.72,29.77,315.27,318.3,1.0
2018-08-21 10:28:00,89.59646,22.4531,1008.143,273.4,94.2,25.9,1.62,8.44,-76.85,36.98,30.09,315.33,318.18,38.25,29.83,315.26,318.13,1.0
2018-08-21 10:28:00,89.59646,22.45305,1008.089,273.4,94.2,26.3,2.37,8.26,-76.25,37.7,29.95,315.11,317.34,38.78,29.91,315.32,318.05,1.0
2018-08-21 10:28:00,89.59646,22.453,1008.049,273.4,94.2,26.6,3.03,8.7,-75.55,37.96,30.23,315.56,317.84,39.26,29.99,315.35,318.0,1.0
2018-08-21 10:28:00,89.59646,22.45296,1008.074,273.4,94.2,26.4,3.04,9.05,-74.58,38.87,30.16,316.03,317.45,39.62,30.07,315.33,317.94,1.0
2018-08-21 10:28:00,89.59646,22.45291,1008.119,273.4,94.2,26.1,2.9,9.31,-73.36,37.24,30.09,316.07,318.04,39.82,30.15,315.34,317.93,1.0
2018-08-21 10:28:00,89.59646,22.45287,1008.068,273.4,94.2,26.5,3.33,9.7,-72.07,37.37,30.16,316.0,317.86,39.84,30.23,315.45,318.02,1.0
2018-08-21 10:28:00,89.59646,22.45282,1008.042,273.4,94.2,26.7,4.03,9.9,-70.58,36.98,30.23,316.56,318.34,39.67,30.3,315.63,318.17,1.0
2018-08-21 10:28:00,89.59646,22.45278,1008.023,273.4,94.2,26.9,5.4,10.46,-69.05,38.35,30.16,316.11,318.26,39.33,30.38,315.79,318.35,1.0
2018-08-21 10:28:00,89.59645,22.45273,1007.982,273.4,94.2,27.2,6.09,10.51,-67.71,39.4,30.44,315.18,318.17,38.87,30.46,315.87,318.44,1.0
2018-08-21 10:28:00,89.59645,22.45268,1007.941,273.4,94.2,27.5,5.56,10.68,-66.55,38.94,30.16,314.77,318.38,38.35,30.54,315.89,318.49,1.0
2018-08-21 10:28:00,89.59645,22.45264,1007.932,273.4,94.2,27.6,4.08,11.26,-65.63,36.98,30.23,315.15,318.35,37.82,30.63,315.89,318.53,1.0
2018-08-21 10:28:00,89.59645,22.45259,1007.946,273.4,94.2,27.5,3.67,11.1,-64.95,37.37,29.95,315.15,318.56,37.36,30.71,315.89,318.57,1.0
2018-08-21 10:28:00,89.59645,22.45255,1007.944,273.4,94.2,27.5,3.4,11.34,-64.59,38.09,30.23,314.47,317.97,37.0,30.78,315.72,318.68,1.0
2018-08-21 10:28:00,89.59645,22.45251,1007.946,273.4,94.2,27.5,3.49,11.13,-64.29,38.09,30.16,314.83,317.63,36.78,30.83,315.61,318.72,1.0
2018-08-21 10:28:00,89.59645,22.45249,1007.929,273.4,94.2,27.6,3.85,10.85,-64.32,37.63,30.3,314.95,317.62,36.72,30.85,315.54,318.8,1.0
2018-08-21 10:28:00,89.59645,22.45246,1007.89,273.39,94.2,27.9,4.37,10.66,-64.68,38.74,30.3,315.51,318.17,36.79,30.84,315.51,318.95,1.0
2018-08-21 10:28:00,89.59645,22.45244,1007.868,273.4,94.2,28.1,4.93,10.39,-65.15,36.65,30.37,316.26,318.71,36.97,30.8,315.5,319.1,1.0
2018-08-21 10:28:00,89.59645,22.45242,1007.911,273.4,94.2,27.7,5.0,10.42,-65.75,36.98,30.37,315.56,319.73,37.23,30.74,315.44,319.14,1.0
2018-08-21 10:28:00,89.59645,22.4524,1007.84,273.4,94.2,28.3,4.46,9.98,-66.47,38.48,30.37,316.02,319.21,37.51,30.67,315.49,319.23,1.0
2018-08-21 10:28:00,89.59645,22.45238,1007.799,273.4,94.2,28.6,4.09,10.1,-67.36,38.09,30.23,315.91,319.39,37.79,30.58,315.56,319.39,1.0
2018-08-21 10:28:00,89.59645,22.45235,1007.8,273.4,94.2,28.6,3.9,10.29,-68.16,38.68,30.44,315.8,320.01,38.02,30.51,315.62,319.51,1.0
2018-08-21 10:28:00,89.59644,22.45233,1007.776,273.4,94.2,28.8,3.61,10.04,-68.55,36.72,30.3,315.83,319.89,38.18,30.45,315.68,319.5,1.0
2018-08-21 10:28:00,89.59644,22.45231,1007.819,273.39,94.2,28.5,2.51,10.31,-68.47,38.09,30.37,315.02,318.6,38.25,30.41,315.64,319.39,1.0
2018-08-21 10:28:00,89.59644,22.45229,1007.822,273.4,94.2,28.4,3.34,10.07,-68.17,37.56,30.3,315.66,318.87,38.24,30.38,315.69,319.11,1.0
2018-08-21 10:28:00,89.59644,22.45226,1007.791,273.4,94.2,28.7,4.85,9.97,-68.02,38.09,30.44,314.78,318.66,38.16,30.37,315.63,318.89,1.0
2018-08-21 10:28:00,89.59644,22.45224,1007.749,273.39,94.2,29.0,6.13,9.78,-67.82,37.63,30.16,315.09,318.18,38.03,30.35,315.55,318.63,1.0
2018-08-21 10:28:00,89.59644,22.45222,1007.731,273.4,94.2,29.2,6.61,9.51,-67.37,38.61,30.44,315.34,317.88,37.89,30.32,315.46,318.39,1.0
2018-08-21 10:28:00,89.59644,22.4522,1007.774,273.39,94.2,28.8,6.46,9.6,-66.7,36.78,30.23,315.33,317.85,37.75,30.27,315.3,318.28,1.0
2018-08-21 10:28:00,89.59644,22.45219,1007.756,273.39,94.2,29.0,6.66,9.24,-66.08,38.61,30.3,315.94,317.77,37.65,30.19,315.29,318.32,1.0
2018-08-21 10:28:00,89.59644,22.45219,1007.742,273.39,94.2,29.1,6.94,8.95,-65.23,37.5,30.3,315.78,318.16,37.62,30.07,315.23,318.27,1.0
2018-08-21 10:28:00,89.59644,22.45219,1007.736,273.39,94.2,29.1,7.6,8.92,-64.31,36.65,30.3,316.09,318.22,37.68,29.94,315.23,318.28,1.0
2018-08-21 10:28:00,89.59644,22.45219,1007.73,273.4,94.2,29.2,8.55,8.97,-63.27,38.94,30.37,315.74,318.96,37.82,29.81,315.26,318.37,1.0
2018-08-21 10:28:00,89.59644,22.4522,1007.708,273.39,94.2,29.3,9.52,8.9,-62.07,38.35,30.3,315.44,320.29,38.05,29.69,315.27,318.47,1.0
2018-08-21 10:28:00,89.59644,22.4522,1007.694,273.39,94.2,29.5,10.87,8.95,-60.87,38.35,30.44,315.8,320.15,38.34,29.62,315.32,318.44,1.0
2018-08-21 10:28:00,89.59644,22.4522,1007.657,273.39,94.2,29.7,11.65,8.61,-59.53,37.44,30.44,315.57,318.64,38.66,29.6,315.34,318.53,1.0
2018-08-21 10:28:00,89.59643,22.4522,1007.645,273.39,94.2,29.8,13.31,8.51,-58.09,36.85,30.44,315.54,318.36,38.96,29.66,315.42,318.61,1.0
2018-08-21 10:28:00,89.59643,22.45221,1007.65,273.39,94.2,29.8,15.04,8.2,-56.31,38.28,30.09,315.21,318.47,39.2,29.79,315.49,318.63,1.0
2018-08-21 10:28:00,89.59643,22.45221,1007.644,273.39,94.2,29.9,15.93,7.47,-54.24,37.56,29.95,314.88,317.34,39.34,29.99,315.52,318.54,1.0
2018-08-21 10:28:00,89.59643,22.45222,1007.64,273.39,94.1,29.9,16.36,7.33,-52.49,37.7,29.95,314.43,315.77,39.33,30.24,315.61,318.33,1.0
2018-08-21 10:28:00,89.59643,22.45224,1007.607,273.39,94.2,30.1,16.96,6.36,-50.96,37.96,30.02,314.86,317.13,39.16,30.52,315.58,318.22,1.0
2018-08-21 10:28:00,89.59643,22.45225,1007.586,273.39,94.2,30.3,16.72,5.86,-49.96,38.61,30.23,315.69,318.19,38.84,30.8,315.6,318.27,1.0
2018-08-21 10:28:00,89.59643,22.45227,1007.565,273.39,94.2,30.5,16.37,5.36,-49.33,37.96,30.02,315.7,318.01,38.4,31.06,315.61,318.24,1.0
2018-08-21 10:28:00,89.59642,22.45228,1007.532,273.39,94.2,30.7,16.03,4.61,-49.1,38.74,30.44,315.81,318.34,37.89,31.26,315.64,318.17,1.0
2018-08-21 10:28:00,89.59642,22.4523,1007.494,273.39,94.2,31.0,15.21,3.73,-49.57,38.09,30.44,316.57,318.71,37.38,31.41,315.72,318.23,1.0
2018-08-21 10:28:00,89.59642,22.45231,1007.492,273.38,94.2,31.0,14.99,2.99,-50.15,38.42,30.5,315.9,320.22,36.95,31.48,315.79,318.52,1.0
2018-08-21 10:28:00,89.59642,22.45233,1007.507,273.38,94.2,30.9,14.65,2.44,-50.74,38.09,30.5,316.0,320.67,36.67,31.49,315.84,318.72,1.0
2018-08-21 10:28:00,89.59642,22.45235,1007.492,273.38,94.2,31.0,14.47,1.86,-51.58,37.96,30.44,315.83,319.27,36.61,31.45,315.88,318.91,1.0
2018-08-21 10:28:00,89.59642,22.45236,1007.479,273.38,94.2,31.2,15.06,1.4,-52.76,38.09,30.44,315.5,318.61,36.78,31.37,315.96,319.09,1.0
2018-08-21 10:28:00,89.59642,22.45238,1007.539,273.38,94.2,30.7,16.53,1.27,-54.17,36.98,30.5,315.55,318.6,37.19,31.27,316.03,319.28,1.0
2018-08-21 10:28:00,89.59642,22.45239,1007.44,273.38,94.2,31.5,16.48,1.26,-55.61,37.3,30.44,314.82,318.6,37.8,31.16,315.97,319.4,1.0
2018-08-21 10:28:00,89.59641,22.45239,1007.431,273.38,94.2,31.5,15.05,1.13,-57.09,37.5,30.23,314.57,318.33,38.54,31.06,315.93,319.33,1.0
2018-08-21 10:28:00,89.59641,22.45238,1007.454,273.38,94.2,31.4,14.58,1.15,-58.54,37.7,30.5,314.98,318.21,39.3,30.96,315.81,319.19,1.0
2018-08-21 10:28:00,89.59641,22.45237,1007.466,273.38,94.2,31.3,15.35,1.55,-59.95,38.55,30.3,315.82,318.45,39.99,30.89,315.68,319.07,1.0
2018-08-21 10:28:00,89.59641,22.45236,1007.45,273.38,94.2,31.4,16.29,2.1,-61.39,37.24,30.71,316.04,318.72,40.5,30.82,315.57,318.98,1.0
2018-08-21 10:28:00,89.59641,22.45234,1007.437,273.38,94.2,31.5,15.4,2.11,-62.95,38.48,30.57,315.28,318.64,40.75,30.76,315.43,318.88,1.0
2018-08-21 10:28:00,89.59641,22.45233,1007.376,273.37,94.2,32.0,13.62,2.8,-64.81,39.07,30.44,315.36,318.74,40.69,30.7,315.41,318.85,1.0
2018-08-21 10:28:00,89.59641,22.45232,1007.389,273.37,94.2,31.9,13.36,3.16,-66.95,38.61,30.64,315.13,318.82,40.31,30.65,315.4,318.78,1.0
2018-08-21 10:28:00,89.59641,22.45231,1007.404,273.37,94.2,31.7,12.8,3.69,-68.82,37.56,30.57,315.36,318.62,39.65,30.61,315.42,318.75,1.0
2018-08-21 10:28:00,89.59641,22.45229,1007.39,273.38,94.2,31.9,11.78,4.31,-70.32,38.61,30.57,314.99,318.34,38.76,30.56,315.44,318.73,1.0
2018-08-21 10:28:00,89.59641,22.45228,1007.391,273.37,94.2,31.8,11.21,4.6,-71.54,38.68,30.64,315.11,318.42,37.75,30.53,315.45,318.67,1.0
2018-08-21 10:28:00,89.5964,22.45227,1007.363,273.37,94.2,32.1,11.1,5.35,-72.77,39.14,30.57,315.19,319.55,36.71,30.52,315.59,318.64,1.0
2018-08-21 10:28:00,89.5964,22.45226,1007.325,273.37,94.2,32.4,9.72,5.33,-73.57,37.7,30.44,314.95,319.1,35.77,30.52,315.65,318.62,1.0
2018-08-21 10:28:00,89.5964,22.45224,1007.283,273.37,94.2,32.7,8.97,5.54,-74.4,38.28,30.44,315.0,318.88,35.0,30.54,315.73,318.63,1.0
2018-08-21 10:28:00,89.5964,22.45223,1007.268,273.37,94.2,32.8,9.84,5.42,-75.09,36.91,30.23,315.18,318.47,34.5,30.56,315.74,318.64,1.0
2018-08-21 10:28:00,89.5964,22.45222,1007.312,273.37,94.2,32.5,12.15,4.56,-75.32,37.7,30.44,314.88,317.8,34.3,30.6,315.67,318.65,1.0
2018-08-21 10:28:00,89.5964,22.45221,1007.332,273.38,94.2,32.3,13.53,4.31,-74.64,38.81,30.57,315.58,318.03,34.4,30.62,315.67,318.64,1.0
2018-08-21 10:28:00,89.5964,22.4522,1007.381,273.38,94.2,31.9,15.56,3.53,-73.35,38.02,30.64,315.36,317.9,34.8,30.64,315.62,318.69,1.0
2018-08-21 10:28:00,89.5964,22.45218,1007.384,273.37,94.2,31.9,17.16,3.49,-71.91,38.48,30.57,315.43,318.26,35.43,30.64,315.61,318.8,1.0
2018-08-21 10:28:00,89.5964,22.45217,1007.374,273.37,94.2,32.0,17.92,3.19,-70.41,36.19,30.64,315.19,318.17,36.23,30.62,315.57,318.84,1.0
2018-08-21 10:28:00,89.5964,22.45216,1007.375,273.37,94.2,32.0,17.59,2.56,-68.9,36.19,30.78,314.91,317.86,37.12,30.59,315.5,318.77,1.0
2018-08-21 10:28:00,89.5964,22.45214,1007.354,273.37,94.2,32.1,15.75,2.85,-67.64,38.68,30.37,315.71,318.21,38.01,30.55,315.48,318.68,1.0
2018-08-21 10:28:00,89.5964,22.45213,1007.408,273.37,94.2,31.7,14.69,2.48,-66.44,37.3,30.64,315.61,320.0,38.82,30.52,315.5,318.66,1.0
2018-08-21 10:28:00,89.5964,22.45212,1007.389,273.37,94.2,31.9,13.95,3.13,-64.59,37.5,30.44,315.78,319.88,39.48,30.51,315.52,318.67,1.0
2018-08-21 10:28:00,89.59639,22.45211,1007.346,273.37,94.2,32.2,14.99,3.27,-62.47,37.5,30.44,315.29,319.41,39.95,30.53,315.56,318.67,1.0
2018-08-21 10:28:00,89.59639,22.4521,1007.323,273.37,94.2,32.4,17.05,3.29,-60.08,38.28,30.57,315.31,317.88,40.19,30.59,315.68,318.69,1.0
2018-08-21 10:28:00,89.59639,22.45207,1007.346,273.37,94.2,32.2,18.36,4.09,-57.48,38.35,30.37,315.05,317.05,40.19,30.67,315.8,318.78,1.0
2018-08-21 10:28:00,89.59639,22.45204,1007.324,273.37,94.2,32.4,18.2,4.26,-55.41,38.48,30.64,315.8,318.06,39.98,30.79,315.71,318.98,1.0
2018-08-21 10:28:00,89.59639,22.45201,1007.287,273.37,94.2,32.7,19.13,5.07,-53.96,37.44,30.44,314.96,318.4,39.6,30.91,315.72,319.04,1.0
2018-08-21 10:28:00,89.59639,22.45198,1007.198,273.38,94.2,33.4,18.77,5.67,-53.12,37.76,30.64,315.39,318.56,39.1,31.03,315.66,318.99,1.0
2018-08-21 10:28:00,89.59639,22.45196,1007.156,273.38,94.2,33.7,18.12,6.23,-52.57,37.96,30.44,315.74,318.75,38.55,31.14,315.62,318.99,1.0
2018-08-21 10:28:00,89.59639,22.45193,1007.216,273.37,94.2,33.2,17.88,6.93,-52.24,38.61,30.64,315.71,319.13,38.02,31.2,315.62,319.14,1.0
2018-08-21 10:28:00,89.59639,22.4519,1007.15,273.37,94.2,33.8,17.75,7.6,-52.68,38.48,30.64,314.5,320.54,37.6,31.23,315.54,319.36,1.0
2018-08-21 10:28:00,89.59639,22.45187,1007.087,273.37,94.2,34.3,17.42,8.51,-53.57,37.24,30.78,315.96,320.63,37.32,31.21,315.45,319.49,1.0
2018-08-21 10:28:00,89.59639,22.45184,1007.084,273.38,94.2,34.3,16.91,9.52,-54.55,39.14,30.64,315.55,319.49,37.24,31.14,315.41,319.56,1.0
2018-08-21 10:28:00,89.59639,22.45182,1007.106,273.37,94.2,34.1,16.22,10.32,-55.84,37.89,30.57,315.73,319.03,37.34,31.05,315.35,319.59,1.0
2018-08-21 10:28:00,89.59639,22.45179,1007.119,273.36,94.2,34.0,15.41,11.08,-57.37,37.5,30.78,315.86,318.81,37.61,30.95,315.26,319.6,1.0
2018-08-21 10:28:00,89.59639,22.45176,1007.116,273.36,94.2,34.0,14.48,12.1,-58.77,37.56,30.71,314.98,319.11,38.02,30.85,315.17,319.58,1.0
2018-08-21 10:28:00,89.59639,22.45173,1007.074,273.36,94.2,34.4,11.75,12.07,-59.97,37.3,30.64,315.42,318.92,38.48,30.76,315.28,319.37,1.0
2018-08-21 10:28:00,89.59639,22.4517,1007.056,273.36,94.2,34.5,9.65,12.34,-61.71,37.56,30.57,314.95,318.58,38.94,30.71,315.22,319.12,1.0
2018-08-21 10:28:00,89.59638,22.45167,1007.059,273.36,94.2,34.5,7.66,12.07,-63.24,37.89,30.78,314.99,318.15,39.31,30.69,315.19,318.95,1.0
2018-08-21 10:28:00,89.59638,22.45161,1007.05,273.36,94.2,34.5,6.05,11.71,-64.58,38.61,30.5,314.63,318.35,39.54,30.71,315.15,318.81,1.0
2018-08-21 10:28:00,89.59638,22.45155,1006.983,273.36,94.2,35.1,5.18,11.69,-65.97,38.87,30.57,314.51,318.92,39.61,30.75,315.11,318.69,1.0
2018-08-21 10:28:00,89.59638,22.4515,1007.017,273.35,94.2,34.8,5.37,10.55,-67.37,38.68,30.71,315.37,318.81,39.49,30.8,315.26,318.69,1.0
2018-08-21 10:28:00,89.59638,22.45144,1007.028,273.36,94.2,34.7,4.3,10.76,-68.49,37.37,30.71,314.92,318.3,39.2,30.87,315.3,318.77,1.0
2018-08-21 10:28:00,89.59638,22.45138,1006.979,273.36,94.2,35.1,4.71,10.25,-69.68,37.96,30.78,315.18,318.8,38.8,30.92,315.3,318.77,1.0
2018-08-21 10:28:00,89.59638,22.45132,1006.937,273.36,94.2,35.4,5.88,10.29,-70.58,38.94,30.64,315.11,318.52,38.34,30.97,315.33,318.77,1.0
2018-08-21 10:28:00,89.59638,22.45126,1006.946,273.35,94.2,35.4,7.12,10.78,-71.08,37.96,30.78,315.53,319.03,37.88,30.99,315.44,318.79,1.0
2018-08-21 10:28:00,89.59638,22.4512,1006.938,273.36,94.1,35.4,8.09,9.99,-71.28,37.76,30.57,316.5,319.77,37.47,31.01,315.61,318.79,1.0
2018-08-21 10:28:00,89.59638,22.45114,1006.965,273.35,94.2,35.2,8.26,10.43,-70.61,38.48,30.78,315.57,320.08,37.16,31.01,315.64,318.8,1.0
2018-08-21 10:28:00,89.59638,22.4511,1006.948,273.35,94.2,35.4,7.9,9.85,-70.23,39.2,30.78,314.43,318.27,36.96,31.0,315.64,318.84,1.0
2018-08-21 10:28:00,89.59638,22.45109,1006.93,273.35,94.2,35.5,8.5,9.18,-70.17,37.17,30.64,314.73,317.56,36.88,31.0,315.66,318.95,1.0
2018-08-21 10:28:00,89.59638,22.45107,1006.921,273.36,94.1,35.6,9.52,8.75,-70.19,38.09,30.64,315.47,317.92,36.9,31.0,315.71,319.11,1.0
2018-08-21 10:28:00,89.59638,22.45106,1006.89,273.35,94.1,35.8,9.74,8.48,-69.99,37.17,30.71,315.99,317.84,36.97,31.0,315.72,319.18,1.0
2018-08-21 10:28:00,89.59638,22.45105,1006.865,273.35,94.2,36.0,8.85,8.25,-69.63,38.74,30.85,315.19,318.28,37.06,31.0,315.56,319.0,1.0
2018-08-21 10:28:00,89.59638,22.45104,1006.855,273.35,94.1,36.1,8.87,7.99,-69.8,37.37,30.78,314.67,318.34,37.13,30.99,315.48,318.78,1.0
2018-08-21 10:28:00,89.59638,22.45102,1006.841,273.35,94.1,36.2,9.81,7.67,-69.87,37.83,30.85,314.95,319.37,37.16,30.97,315.46,318.7,1.0
2018-08-21 10:28:00,89.59638,22.45101,1006.843,273.35,94.2,36.2,11.37,7.35,-69.49,39.07,30.64,315.94,320.23,37.13,30.92,315.39,318.58,1.0
2018-08-21 10:28:00,89.59638,22.451,1006.871,273.35,94.2,36.0,12.93,6.97,-68.46,36.85,30.85,315.81,319.99,37.07,30.85,315.26,318.39,1.0
2018-08-21 10:28:00,89.59638,22.45099,1006.816,273.34,94.2,36.4,13.42,6.38,-67.02,38.48,30.78,315.69,318.82,36.97,30.76,315.19,318.38,1.0
2018-08-21 10:28:00,89.59638,22.45098,1006.826,273.35,94.1,36.3,13.96,6.2,-65.64,37.76,30.64,315.83,318.54,36.88,30.64,315.24,318.53,1.0
2018-08-21 10:28:00,89.59638,22.45096,1006.831,273.35,94.2,36.3,15.85,5.84,-64.51,38.55,30.78,315.43,318.71,36.82,30.51,315.34,318.64,1.0
2018-08-21 10:28:00,89.59638,22.45095,1006.83,273.35,94.2,36.3,15.88,5.31,-63.27,38.48,30.78,315.16,317.33,36.83,30.39,315.41,318.74,1.0
2018-08-21 10:28:00,89.59638,22.45098,1006.825,273.35,94.2,36.3,13.79,4.75,-61.79,36.78,30.85,314.8,316.51,36.9,30.29,315.45,318.83,1.0
2018-08-21 10:28:00,89.59638,22.45102,1006.806,273.35,94.2,36.5,12.31,4.45,-60.36,36.58,30.78,315.57,318.48,37.05,30.22,315.44,318.85,1.0
2018-08-21 10:28:00,89.59638,22.45106,1006.79,273.35,94.1,36.6,12.85,4.22,-58.98,37.5,30.78,316.04,319.92,37.26,30.21,315.5,319.03,1.0
2018-08-21 10:28:00,89.59637,22.4511,1006.78,273.35,94.1,36.7,13.66,4.1,-57.09,38.55,30.64,315.32,319.5,37.53,30.25,315.57,319.25,1.0
2018-08-21 10:28:00,89.59637,22.45113,1006.759,273.35,94.2,36.8,14.07,3.96,-54.9,38.15,30.64,315.27,319.95,37.84,30.35,315.54,319.38,1.0
2018-08-21 10:28:00,89.59637,22.45117,1006.733,273.34,94.2,37.1,14.47,3.73,-52.49,37.83,30.5,315.32,320.52,38.15,30.5,315.49,319.56,1.0
2018-08-21 10:28:00,89.59637,22.45121,1006.731,273.34,94.1,37.1,15.87,3.43,-50.07,37.11,30.71,314.73,319.49,38.45,30.69,315.45,319.78,1.0
2018-08-21 10:28:00,89.59637,22.45125,1006.699,273.34,94.1,37.3,18.79,3.42,-48.73,38.42,30.57,315.31,319.49,38.74,30.9,315.3,319.72,1.0
2018-08-21 10:28:00,89.59637,22.45128,1006.663,273.35,94.1,37.6,18.83,3.09,-47.66,37.76,30.57,316.16,320.12,39.01,31.1,315.24,319.7,1.0
2018-08-21 10:28:00,89.59637,22.45132,1006.651,273.35,94.1,37.7,17.39,3.12,-46.99,36.78,30.71,315.1,319.36,39.25,31.29,315.23,319.65,1.0
2018-08-21 10:28:00,89.59636,22.45136,1006.665,273.34,94.1,37.6,16.55,3.05,-46.8,38.68,30.85,314.66,318.86,39.47,31.44,315.24,319.48,1.0
2018-08-21 10:28:00,89.59636,22.4514,1006.674,273.34,94.1,37.5,17.35,2.87,-46.94,38.15,30.85,315.04,318.96,39.65,31.54,315.29,319.26,1.0
2018-08-21 10:28:00,89.59636,22.45143,1006.585,273.34,94.1,38.2,18.79,3.52,-47.06,37.76,30.57,314.5,317.52,39.79,31.59,315.37,319.13,1.0
2018-08-21 10:28:00,89.59636,22.45145,1006.61,273.34,94.1,38.0,17.59,2.99,-46.53,38.09,30.85,315.8,319.87,39.86,31.59,315.48,318.96,1.0
2018-08-21 10:28:00,89.59636,22.45148,1006.598,273.34,94.1,38.1,16.87,3.39,-46.62,37.89,30.92,315.47,318.96,39.84,31.56,315.42,318.73,1.0
2018-08-21 10:28:00,89.59636,22.45151,1006.61,273.34,94.1,38.0,17.82,3.74,-47.22,38.15,30.92,315.73,318.48,39.71,31.51,315.42,318.59,1.0
2018-08-21 10:28:00,89.59636,22.45153,1006.639,273.34,94.1,37.8,18.36,4.07,-48.21,38.61,30.78,315.68,318.81,39.44,31.44,315.49,318.52,1.0
2018-08-21 10:28:00,89.59636,22.45156,1006.598,273.34,94.1,38.1,15.83,4.68,-49.41,37.89,30.85,315.78,318.31,39.03,31.38,315.57,318.5,1.0
2018-08-21 10:28:00,89.59636,22.45159,1006.512,273.34,94.1,38.8,12.74,4.8,-50.77,37.83,30.99,316.23,318.25,38.47,31.32,315.73,318.6,1.0
2018-08-21 10:28:00,89.59636,22.45161,1006.502,273.34,94.1,38.9,11.62,5.5,-52.64,38.61,30.78,314.6,318.05,37.8,31.29,315.69,318.48,1.0
2018-08-21 10:28:00,89.59636,22.45164,1006.525,273.34,94.1,38.7,12.2,6.07,-54.52,38.48,30.85,314.41,318.12,37.05,31.27,315.7,318.46,1.0
2018-08-21 10:28:00,89.59636,22.45166,1006.541,273.34,94.1,38.6,12.23,6.67,-56.19,38.28,30.78,314.7,318.31,36.29,31.26,315.71,318.51,1.0
2018-08-21 10:28:00,89.59635,22.45169,1006.527,273.34,94.1,38.7,10.77,7.31,-57.57,39.14,31.06,315.3,318.52,35.58,31.25,315.65,318.62,1.0
2018-08-21 10:28:00,89.59635,22.45172,1006.502,273.33,94.1,38.9,9.9,7.38,-58.95,37.11,31.06,315.8,318.7,35.01,31.23,315.57,318.82,1.0
2018-08-21 10:28:00,89.59635,22.45171,1006.492,273.33,94.1,39.0,9.6,7.72,-59.95,37.7,30.64,315.29,317.8,34.63,31.21,315.51,318.92,1.0
2018-08-21 10:28:00,89.59635,22.45169,1006.494,273.33,94.1,38.9,8.34,7.9,-60.78,38.61,30.99,315.94,318.13,34.49,31.17,315.52,319.09,1.0
2018-08-21 10:28:00,89.59635,22.45166,1006.486,273.33,94.1,39.0,7.04,8.02,-61.63,37.56,30.99,316.2,318.33,34.63,31.12,315.59,319.2,1.0
2018-08-21 10:28:00,89.59635,22.45163,1006.465,273.33,94.1,39.2,6.25,8.1,-62.64,37.11,31.06,315.41,319.0,35.04,31.06,315.64,319.27,1.0
2018-08-21 10:28:00,89.59635,22.45161,1006.463,273.33,94.1,39.2,6.12,8.0,-63.78,36.91,30.92,314.8,320.12,35.69,31.02,315.59,319.43,1.0
2018-08-21 10:28:00,89.59635,22.45158,1006.444,273.33,94.1,39.3,5.23,7.82,-64.81,37.7,30.99,315.52,318.98,36.54,31.0,315.58,319.56,1.0
2018-08-21 10:28:00,89.59635,22.45155,1006.458,273.33,94.1,39.2,4.95,7.53,-65.8,37.37,30.92,315.01,319.79,37.49,31.01,315.62,319.6,1.0
2018-08-21 10:28:00,89.59635,22.45153,1006.47,273.33,94.1,39.1,6.29,7.18,-66.12,37.7,30.92,315.07,319.27,38.48,31.06,315.56,319.58,1.0
2018-08-21 10:28:00,89.59635,22.4515,1006.462,273.33,94.1,39.2,9.09,7.09,-65.85,36.91,30.78,314.63,319.17,39.4,31.14,315.49,319.56,1.0
2018-08-21 10:28:00,89.59635,22.45147,1006.443,273.33,94.1,39.4,12.17,7.46,-65.44,37.96,31.06,314.71,320.48,40.17,31.26,315.46,319.48,1.0
2018-08-21 10:28:00,89.59635,22.45145,1006.42,273.33,94.1,39.5,13.41,7.58,-65.07,37.44,30.85,315.53,320.6,40.74,31.39,315.41,319.27,1.0
2018-08-21 10:28:00,89.59635,22.45142,1006.399,273.33,94.1,39.7,13.25,7.39,-65.17,38.55,30.99,315.76,319.39,41.05,31.53,315.37,319.34,1.0
2018-08-21 10:28:00,89.59635,22.45139,1006.365,273.32,94.1,40.0,12.23,7.31,-65.31,37.56,31.06,315.56,318.84,41.11,31.64,315.34,319.29,1.0
2018-08-21 10:28:00,89.59635,22.45137,1006.34,273.32,94.1,40.2,10.93,7.19,-65.23,38.55,30.99,315.78,318.98,40.92,31.7,315.26,319.35,1.0
2018-08-21 10:28:00,89.59635,22.45134,1006.345,273.32,94.1,40.1,9.74,6.96,-64.91,38.42,31.06,316.14,318.9,40.53,31.7,315.19,319.49,1.0
2018-08-21 10:28:00,89.59635,22.45128,1006.363,273.33,94.1,40.0,8.58,6.8,-64.57,37.96,30.85,315.39,318.45,39.99,31.64,315.21,319.48,1.0
2018-08-21 10:28:00,89.59635,22.45119,1006.36,273.32,94.1,40.0,7.91,6.38,-63.72,38.55,31.19,316.15,319.77,39.38,31.51,315.11,319.33,1.0
2018-08-21 10:28:00,89.59635,22.4511,1006.369,273.32,94.1,39.9,8.06,6.12,-62.85,37.11,31.06,315.53,319.38,38.77,31.33,315.06,319.35,1.0
2018-08-21 10:28:00,89.59635,22.45101,1006.326,273.32,94.1,40.3,8.02,5.72,-61.79,38.68,31.19,314.98,319.99,38.22,31.11,315.08,319.38,1.0
2018-08-21 10:28:00,89.59635,22.45092,1006.242,273.32,94.1,40.9,7.71,5.37,-60.69,38.87,31.06,314.66,320.73,37.78,30.89,315.01,319.34,1.0
2018-08-21 10:28:00,89.59635,22.45083,1006.196,273.33,94.1,41.3,7.35,5.25,-59.73,37.89,31.19,314.82,320.42,37.49,30.68,314.8,319.26,1.0
2018-08-21 10:28:00,89.59635,22.45074,1006.198,273.33,94.1,41.3,6.66,5.03,-59.08,38.28,31.19,314.37,318.7,37.36,30.51,314.73,319.32,1.0
2018-08-21 10:28:00,89.59635,22.45065,1006.205,273.33,94.1,41.2,5.36,4.92,-58.69,38.74,31.19,314.73,319.28,37.38,30.41,314.63,319.32,1.0
2018-08-21 10:28:00,89.59635,22.45056,1006.212,273.33,94.1,41.2,4.5,4.71,-58.35,36.52,30.99,314.81,319.05,37.52,30.37,314.52,319.38,1.0
2018-08-21 10:28:00,89.59635,22.45048,1006.208,273.33,94.1,41.2,3.7,4.6,-58.09,38.35,30.78,314.24,318.07,37.74,30.4,314.42,319.29,1.0
2018-08-21 10:28:00,89.59635,22.45042,1006.18,273.32,94.1,41.4,3.2,4.67,-57.79,38.68,30.71,312.82,317.95,38.01,30.48,314.32,319.11,1.0
2018-08-21 10:28:00,89.59635,22.45036,1006.163,273.32,94.1,41.6,5.25,4.69,-56.87,37.96,30.85,313.87,319.07,38.28,30.61,314.24,319.09,1.0
2018-08-21 10:28:00,89.59634,22.45031,1006.134,273.32,94.1,41.8,6.46,5.1,-56.25,37.56,30.85,314.58,320.14,38.52,30.76,314.18,319.24,1.0
2018-08-21 10:28:00,89.59634,22.45026,1006.126,273.32,94.1,41.9,6.94,5.29,-55.8,38.35,30.99,314.47,320.4,38.7,30.9,314.14,319.23,1.0
2018-08-21 10:28:00,89.59634,22.4502,1006.13,273.32,94.1,41.8,7.87,5.57,-55.65,37.56,31.12,314.05,319.35,38.82,31.03,314.06,319.25,1.0
2018-08-21 10:28:00,89.59634,22.45015,1006.13,273.32,94.1,41.8,9.11,5.97,-55.72,38.68,31.06,314.12,318.8,38.88,31.13,314.05,319.38,1.0
2018-08-21 10:28:00,89.59634,22.45009,1006.104,273.31,94.1,42.0,9.59,6.31,-55.85,38.48,30.92,314.62,320.14,38.87,31.2,314.18,319.52,1.0
2018-08-21 10:28:00,89.59634,22.45004,1006.133,273.32,94.1,41.8,9.57,6.7,-56.15,38.09,31.19,314.02,320.31,38.83,31.25,314.25,319.49,1.0
2018-08-21 10:28:00,89.59634,22.44998,1006.098,273.32,94.1,42.1,9.58,7.16,-56.52,37.7,30.92,314.6,318.75,38.75,31.27,314.4,319.39,1.0
2018-08-21 10:28:00,89.59634,22.44993,1006.046,273.32,94.2,42.5,9.18,7.46,-56.77,38.61,30.92,314.62,318.62,38.64,31.29,314.61,319.27,1.0
2018-08-21 10:28:00,89.59634,22.44987,1006.024,273.31,94.2,42.7,8.58,7.71,-56.97,38.55,30.99,314.05,319.28,38.52,31.31,314.78,319.23,1.0
2018-08-21 10:28:00,89.59634,22.44982,1006.067,273.32,94.1,42.3,8.18,7.99,-57.26,37.83,31.06,314.24,318.96,38.37,31.33,314.92,319.22,1.0
2018-08-21 10:28:00,89.59634,22.44977,1006.061,273.32,94.1,42.4,7.77,7.82,-57.71,38.42,30.92,314.49,318.0,38.18,31.37,315.05,319.12,1.0
2018-08-21 10:28:00,89.59634,22.44972,1006.035,273.31,94.1,42.6,7.49,7.81,-58.24,38.94,31.06,316.04,318.62,37.97,31.43,315.14,319.14,1.0
2018-08-21 10:28:00,89.59634,22.44967,1005.996,273.32,94.1,42.9,8.03,7.75,-58.83,37.63,30.99,315.81,318.51,37.71,31.48,315.2,319.17,1.0
2018-08-21 10:28:00,89.59634,22.44963,1005.97,273.32,94.1,43.1,9.4,7.72,-59.52,38.15,30.92,315.28,318.74,37.42,31.54,315.23,319.16,1.0
2018-08-21 10:28:00,89.59634,22.44958,1005.976,273.31,94.1,43.1,11.24,7.65,-60.24,37.76,31.19,314.94,318.73,37.12,31.59,315.26,319.13,1.0
2018-08-21 10:28:00,89.59634,22.44953,1006.022,273.31,94.1,42.7,12.75,7.36,-60.8,37.76,30.92,315.56,319.06,36.82,31.62,315.35,319.14,1.0
2018-08-21 10:28:00,89.59634,22.44948,1005.954,273.31,94.1,43.2,13.4,7.69,-61.54,38.42,31.26,314.54,320.51,36.57,31.62,315.42,319.22,1.0
2018-08-21 10:28:00,89.59634,22.44944,1005.965,273.31,94.1,43.1,12.66,7.36,-61.79,38.22,31.06,314.62,319.3,36.39,31.6,315.28,319.22,1.0
2018-08-21 10:28:00,89.59634,22.44939,1005.976,273.31,94.1,43.1,11.78,7.26,-61.13,38.68,31.33,314.71,318.75,36.32,31.55,315.15,319.23,1.0
