Date/Time,Latitude,Longitude,PPPP [hPa],TTT grad [K],RH [%],Height [m],Pitch [deg],Roll [deg],Yaw [deg],SWD [W/m**2] (raw),SWU [W/m**2] (raw),LWD [W/m**2] (raw),LWU [W/m**2] (raw),SWD [W/m**2] (corrected),SWU [W/m**2] (corrected),LWD [W/m**2] (corrected),LWU [W/m**2] (corrected),Flag
2018-08-23 11:46:00,89.53599,5.74873,898.746,272.6,92.7,863.6,3.02,5.09,11.44,125.39,83.99,301.76,310.96,125.43,84.23,302.7,310.68,1.0
2018-08-23 11:46:00,89.53599,5.74872,898.746,272.6,92.7,863.6,3.0,5.02,10.09,125.85,83.99,301.63,311.12,125.41,84.26,302.48,310.56,1.0
2018-08-23 11:46:00,89.53599,5.74871,898.757,272.61,92.7,863.5,3.04,5.12,9.21,125.46,83.99,301.45,310.88,125.35,84.31,302.25,310.35,1.0
2018-08-23 11:46:00,89.53599,5.7487,898.774,272.6,92.7,863.3,3.12,5.07,7.66,125.06,84.2,301.73,310.78,125.29,84.34,302.05,310.2,1.0
2018-08-23 11:46:00,89.53599,5.74869,898.778,272.6,92.7,863.3,3.11,5.03,5.9,125.78,83.99,302.59,310.72,125.25,84.36,301.89,310.02,1.0
2018-08-23 11:46:00,89.53599,5.74871,898.763,272.6,92.7,863.4,3.12,5.04,4.3,125.65,84.2,302.93,310.42,125.23,84.34,301.78,309.83,1.0
2018-08-23 11:46:00,89.53599,5.74872,898.769,272.6,92.7,863.4,3.47,5.04,2.79,125.59,84.13,301.91,310.35,125.26,84.28,301.76,309.68,1.0
2018-08-23 11:46:00,89.53599,5.74874,898.764,272.6,92.7,863.4,3.46,5.03,0.79,125.78,84.2,302.0,310.04,125.34,84.19,301.79,309.7,1.0
2018-08-23 11:46:00,89.53599,5.74876,898.78,272.6,92.7,863.3,3.58,5.09,-0.93,126.11,83.99,302.16,309.85,125.49,84.06,301.91,309.63,1.0
2018-08-23 11:46:00,89.53599,5.74878,898.78,272.6,92.7,863.3,3.57,5.06,-2.34,124.87,84.13,301.98,309.65,125.69,83.91,302.05,309.56,1.0
2018-08-23 11:46:00,89.53599,5.74879,898.77,272.6,92.7,863.3,3.42,4.99,-3.76,126.05,84.06,302.19,309.24,125.95,83.77,302.14,309.51,1.0
2018-08-23 11:46:00,89.53599,5.74881,898.789,272.6,92.7,863.2,3.23,4.96,-5.35,125.26,84.06,302.2,309.49,126.25,83.64,302.19,309.47,1.0
2018-08-23 11:46:00,89.53599,5.74883,898.798,272.6,92.7,863.1,3.27,4.91,-6.45,125.78,84.33,301.92,310.87,126.58,83.55,302.34,309.4,1.0
2018-08-23 11:46:00,89.53599,5.74884,898.807,272.6,92.7,863.0,2.95,5.04,-7.46,125.52,84.13,302.27,309.19,126.93,83.51,302.42,309.4,1.0
2018-08-23 11:46:00,89.53599,5.74886,898.804,272.6,92.7,863.0,2.81,5.09,-8.37,125.26,83.99,302.44,308.55,127.27,83.52,302.47,309.41,1.0
2018-08-23 11:46:00,89.53599,5.74888,898.789,272.6,92.7,863.2,2.73,5.05,-9.02,125.78,83.99,302.46,308.45,127.59,83.58,302.49,309.3,1.0
2018-08-23 11:46:00,89.53599,5.74889,898.77,272.6,92.7,863.3,2.64,4.99,-9.47,125.59,83.78,302.05,308.39,127.88,83.69,302.5,309.11,1.0
2018-08-23 11:46:00,89.53599,5.7489,898.786,272.6,92.6,863.2,2.79,5.03,-10.39,126.18,83.71,301.88,308.19,128.1,83.83,302.59,308.99,1.0
2018-08-23 11:46:00,89.53599,5.74891,898.765,272.59,92.6,863.4,2.81,4.98,-11.25,126.05,84.2,301.94,308.99,128.24,83.98,302.57,308.84,1.0
2018-08-23 11:46:00,89.53599,5.74892,898.76,272.59,92.6,863.4,2.99,5.01,-12.22,125.78,83.99,301.85,309.44,128.29,84.12,302.57,308.86,1.0
2018-08-23 11:46:00,89.53599,5.74894,898.767,272.59,92.6,863.4,3.13,5.08,-12.97,126.18,83.99,302.14,308.34,128.24,84.25,302.53,308.99,1.0
2018-08-23 11:46:00,89.53599,5.74895,898.775,272.59,92.6,863.3,3.18,5.14,-13.48,125.98,84.13,302.67,307.84,128.09,84.34,302.54,309.16,1.0
2018-08-23 11:46:00,89.53599,5.74896,898.775,272.59,92.6,863.3,3.24,5.13,-13.77,126.37,84.06,303.68,308.51,127.85,84.4,302.68,309.37,1.0
2018-08-23 11:46:00,89.53599,5.74897,898.753,272.58,92.6,863.5,3.37,5.06,-13.06,126.5,84.06,302.24,309.3,127.53,84.43,302.86,309.65,1.0
2018-08-23 11:46:00,89.53599,5.74898,898.754,272.58,92.6,863.5,3.3,5.03,-11.91,126.5,83.99,303.05,309.76,127.16,84.44,303.06,309.93,1.0
2018-08-23 11:46:00,89.53599,5.74899,898.767,272.58,92.6,863.4,3.24,5.03,-11.57,125.85,84.13,302.55,309.63,126.77,84.42,303.22,310.09,1.0
2018-08-23 11:46:00,89.53599,5.749,898.778,272.57,92.6,863.3,3.16,5.02,-11.19,126.24,84.06,302.8,309.86,126.38,84.41,303.32,310.25,1.0
2018-08-23 11:46:00,89.53599,5.74901,898.781,272.57,92.6,863.3,3.07,5.02,-10.09,126.05,84.13,303.7,310.14,126.02,84.39,303.33,310.48,1.0
2018-08-23 11:46:00,89.53599,5.74902,898.796,272.57,92.6,863.1,3.0,5.18,-9.83,126.24,84.13,304.05,310.32,125.72,84.38,303.21,310.68,1.0
2018-08-23 11:46:00,89.53599,5.74902,898.802,272.57,92.6,863.1,3.08,5.21,-9.27,126.18,84.13,303.83,311.01,125.49,84.37,303.17,310.77,1.0
2018-08-23 11:46:00,89.53599,5.74902,898.809,272.57,92.6,863.0,3.09,5.17,-8.73,126.24,83.92,303.05,310.21,125.33,84.36,303.04,310.79,1.0
2018-08-23 11:46:00,89.53599,5.74902,898.801,272.57,92.6,863.1,3.2,5.18,-7.67,125.78,84.06,302.64,309.54,125.25,84.34,302.92,310.8,1.0
2018-08-23 11:46:00,89.53599,5.74902,898.778,272.57,92.6,863.3,3.39,5.25,-6.16,126.05,84.2,302.41,310.15,125.23,84.31,302.78,310.79,1.0
2018-08-23 11:46:00,89.53599,5.74902,898.786,272.57,92.6,863.2,3.45,5.33,-4.93,127.36,83.99,302.56,311.33,125.27,84.25,302.56,310.77,1.0
2018-08-23 11:46:00,89.53599,5.74902,898.771,272.57,92.6,863.3,3.54,5.25,-3.74,125.65,84.26,302.27,311.14,125.37,84.16,302.39,310.75,1.0
2018-08-23 11:46:00,89.53599,5.74902,898.762,272.57,92.6,863.4,3.65,5.42,-2.52,126.18,84.13,302.42,311.27,125.5,84.05,302.27,310.67,1.0
2018-08-23 11:46:00,89.53599,5.74902,898.773,272.57,92.6,863.3,3.75,5.52,-1.29,125.85,84.26,302.23,311.14,125.68,83.91,302.21,310.68,1.0
2018-08-23 11:46:00,89.53599,5.74902,898.784,272.57,92.6,863.2,3.9,5.51,0.15,125.52,84.06,301.77,311.41,125.9,83.78,302.18,310.68,1.0
2018-08-23 11:46:00,89.53599,5.74902,898.752,272.57,92.6,863.5,4.14,5.51,1.95,125.78,84.13,302.0,310.95,126.16,83.65,302.16,310.59,1.0
2018-08-23 11:46:00,89.53599,5.74901,898.777,272.57,92.6,863.3,4.36,5.61,3.71,125.46,84.2,302.77,310.93,126.47,83.54,302.29,310.56,1.0
2018-08-23 11:46:00,89.53599,5.74901,898.772,272.56,92.6,863.3,4.5,5.67,5.15,125.39,83.99,302.48,310.54,126.82,83.48,302.38,310.48,1.0
2018-08-23 11:46:00,89.53599,5.74901,898.778,272.56,92.6,863.3,4.56,5.65,6.72,127.81,84.13,302.47,310.23,127.21,83.46,302.44,310.34,1.0
2018-08-23 11:46:00,89.53599,5.74901,898.792,272.57,92.6,863.2,4.39,5.07,9.64,126.7,83.92,301.97,309.26,127.62,83.48,302.49,310.17,1.0
2018-08-23 11:46:00,89.53599,5.74901,898.786,272.56,92.6,863.2,3.84,4.01,13.74,125.59,83.99,301.37,308.14,128.03,83.56,302.54,309.98,1.0
2018-08-23 11:46:00,89.53599,5.74901,898.782,272.56,92.6,863.2,2.83,4.47,14.73,125.92,83.85,302.96,310.02,128.41,83.67,302.57,309.79,1.0
2018-08-23 11:46:00,89.53599,5.749,898.798,272.56,92.6,863.1,2.78,4.39,16.15,127.03,83.99,302.57,309.74,128.71,83.8,302.55,309.61,1.0
2018-08-23 11:46:00,89.53599,5.749,898.788,272.57,92.6,863.2,2.27,4.63,17.34,125.52,83.92,302.18,309.52,128.91,83.95,302.49,309.47,1.0
2018-08-23 11:46:00,89.536,5.74899,898.791,272.57,92.6,863.2,1.96,4.78,18.49,125.78,83.99,302.29,309.56,128.97,84.09,302.41,309.3,1.0
2018-08-23 11:46:00,89.536,5.74899,898.824,272.57,92.6,862.9,1.91,4.66,19.67,126.44,84.13,302.56,309.7,128.88,84.21,302.39,309.24,1.0
2018-08-23 11:46:00,89.536,5.74898,898.813,272.57,92.6,863.0,1.52,4.47,20.72,127.09,84.06,302.71,309.54,128.62,84.3,302.47,309.36,1.0
2018-08-23 11:46:00,89.536,5.74898,898.815,272.58,92.6,863.0,2.08,4.56,21.79,126.64,84.13,303.02,309.54,128.2,84.37,302.47,309.32,1.0
2018-08-23 11:46:00,89.536,5.74897,898.819,272.58,92.6,862.9,2.61,4.49,22.83,126.83,83.99,302.37,309.24,127.66,84.4,302.53,309.18,1.0
2018-08-23 11:46:00,89.536,5.74897,898.803,272.58,92.6,863.1,2.93,4.57,24.0,126.64,84.13,301.85,308.94,127.03,84.41,302.61,309.03,1.0
2018-08-23 11:46:00,89.536,5.74896,898.787,272.59,92.6,863.2,3.31,4.58,26.53,127.55,83.85,301.9,308.71,126.36,84.4,302.72,308.97,1.0
2018-08-23 11:46:00,89.536,5.74895,898.815,272.59,92.6,863.0,3.83,4.29,30.5,126.37,84.13,302.51,309.73,125.71,84.38,302.85,309.01,1.0
2018-08-23 11:46:00,89.536,5.74894,898.815,272.59,92.6,863.0,3.33,4.22,30.76,127.03,83.99,303.1,309.82,125.13,84.34,302.88,309.06,1.0
2018-08-23 11:46:00,89.536,5.74894,898.804,272.6,92.6,863.1,3.29,3.99,29.89,126.44,84.13,302.94,307.46,124.65,84.3,302.87,308.96,1.0
2018-08-23 11:46:00,89.536,5.74893,898.803,272.6,92.7,863.1,2.84,3.87,29.44,126.05,84.13,303.02,307.07,124.3,84.26,302.96,308.95,1.0
2018-08-23 11:46:00,89.536,5.74892,898.799,272.6,92.7,863.1,2.62,3.78,29.64,126.57,84.06,303.2,307.96,124.1,84.22,303.1,309.06,1.0
2018-08-23 11:46:00,89.536,5.74892,898.781,272.6,92.7,863.3,2.82,3.69,30.04,126.05,84.13,303.74,309.07,124.03,84.18,303.21,309.18,1.0
2018-08-23 11:46:00,89.536,5.74891,898.781,272.6,92.7,863.2,2.74,3.65,29.47,126.11,84.13,303.1,309.35,124.07,84.13,303.23,309.22,1.0
2018-08-23 11:46:00,89.536,5.7489,898.802,272.6,92.7,863.1,2.53,3.5,28.17,125.59,84.13,303.0,308.03,124.21,84.08,303.25,309.2,1.0
2018-08-23 11:46:00,89.536,5.74889,898.779,272.61,92.7,863.3,2.8,3.41,27.42,126.44,84.06,303.76,309.47,124.4,84.03,303.21,309.45,1.0
2018-08-23 11:46:00,89.536,5.74889,898.765,272.61,92.7,863.4,3.05,3.24,26.56,126.64,84.13,303.78,310.14,124.62,83.97,303.1,309.67,1.0
2018-08-23 11:46:00,89.536,5.74888,898.784,272.6,92.7,863.2,3.11,3.01,25.57,125.98,84.06,303.3,310.75,124.84,83.93,302.89,309.74,1.0
2018-08-23 11:46:00,89.536,5.74887,898.794,272.61,92.7,863.1,3.14,2.86,24.82,126.11,83.99,303.34,310.87,125.03,83.9,302.68,309.76,1.0
2018-08-23 11:46:00,89.536,5.74885,898.793,272.61,92.7,863.1,3.16,2.66,23.75,126.64,84.13,303.54,310.03,125.21,83.88,302.64,309.92,1.0
2018-08-23 11:46:00,89.536,5.74884,898.789,272.61,92.7,863.2,2.82,2.53,26.66,125.65,84.13,302.84,310.95,125.36,83.88,302.61,310.22,1.0
2018-08-23 11:46:00,89.536,5.74882,898.774,272.61,92.7,863.3,2.51,2.34,26.74,125.98,84.2,301.82,310.39,125.49,83.92,302.5,310.41,1.0
2018-08-23 11:46:00,89.536,5.7488,898.765,272.61,92.7,863.4,2.28,2.2,25.32,125.85,83.78,301.36,309.41,125.64,83.97,302.37,310.49,1.0
2018-08-23 11:46:00,89.536,5.74879,898.783,272.61,92.7,863.2,2.12,2.19,24.13,125.85,83.99,301.22,309.43,125.8,84.05,302.28,310.49,1.0
2018-08-23 11:46:00,89.536,5.74877,898.773,272.61,92.7,863.3,2.04,1.98,22.19,125.06,83.99,302.28,310.99,125.99,84.15,302.23,310.46,1.0
2018-08-23 11:46:00,89.536,5.74876,898.799,272.61,92.7,863.1,1.99,1.82,20.95,127.62,84.2,302.65,311.21,126.23,84.25,302.15,310.44,1.0
2018-08-23 11:46:00,89.536,5.74874,898.792,272.61,92.7,863.2,1.95,1.63,22.48,125.65,84.13,302.25,311.19,126.51,84.36,302.16,310.34,1.0
2018-08-23 11:46:00,89.536,5.74872,898.78,272.61,92.7,863.3,1.95,1.46,22.78,125.39,84.13,302.35,310.35,126.82,84.46,302.28,310.31,1.0
2018-08-23 11:46:00,89.536,5.74871,898.787,272.61,92.7,863.2,1.99,1.32,20.95,126.11,84.13,302.21,310.26,127.15,84.54,302.45,310.34,1.0
2018-08-23 11:46:00,89.536,5.74869,898.798,272.61,92.7,863.1,2.05,1.16,18.93,126.64,84.06,302.38,310.08,127.49,84.6,302.57,310.29,1.0
2018-08-23 11:46:00,89.536,5.74868,898.798,272.61,92.7,863.1,2.14,1.21,16.57,125.98,83.99,302.43,309.83,127.82,84.63,302.6,310.1,1.0
2018-08-23 11:46:00,89.536,5.74866,898.811,272.61,92.7,863.0,2.24,1.13,18.47,126.05,83.92,302.63,310.11,128.11,84.63,302.63,309.92,1.0
2018-08-23 11:46:00,89.536,5.74865,898.799,272.61,92.7,863.1,2.37,1.09,21.49,126.24,84.33,302.61,310.23,128.36,84.61,302.65,309.78,1.0
2018-08-23 11:46:00,89.536,5.74863,898.784,272.61,92.7,863.2,2.42,0.99,22.87,126.05,84.13,302.83,309.96,128.55,84.56,302.65,309.69,1.0
2018-08-23 11:46:00,89.536,5.74862,898.822,272.61,92.7,862.9,2.28,0.72,21.26,126.31,84.33,302.59,309.53,128.68,84.48,302.62,309.66,1.0
2018-08-23 11:46:00,89.536,5.74861,898.834,272.61,92.7,862.8,2.14,0.65,19.33,126.44,84.13,302.45,309.83,128.73,84.39,302.63,309.66,1.0
2018-08-23 11:46:00,89.536,5.7486,898.808,272.61,92.6,863.0,2.03,0.56,17.23,127.49,84.26,302.83,309.34,128.72,84.29,302.63,309.68,1.0
2018-08-23 11:46:00,89.536,5.74858,898.806,272.61,92.7,863.0,1.76,0.56,15.11,125.65,84.33,302.82,309.73,128.63,84.19,302.7,309.62,1.0
2018-08-23 11:46:00,89.536,5.74857,898.817,272.61,92.7,862.9,1.59,0.57,13.32,127.03,83.99,302.6,309.44,128.48,84.1,302.75,309.51,1.0
2018-08-23 11:46:00,89.536,5.74856,898.817,272.61,92.6,862.9,1.56,0.56,11.89,126.5,84.2,302.35,309.53,128.27,84.02,302.78,309.43,1.0
2018-08-23 11:46:00,89.536,5.74854,898.803,272.61,92.6,863.1,1.33,0.59,10.64,126.44,84.13,302.92,309.44,127.99,83.97,302.84,309.36,1.0
2018-08-23 11:46:00,89.536,5.74853,898.811,272.61,92.6,863.0,1.59,0.39,9.49,126.96,84.13,303.02,309.34,127.66,83.94,302.92,309.23,1.0
2018-08-23 11:46:00,89.536,5.74852,898.819,272.61,92.6,862.9,1.67,0.36,8.44,126.96,84.26,303.84,308.91,127.28,83.94,302.97,309.12,1.0
2018-08-23 11:46:00,89.536,5.74851,898.822,272.61,92.6,862.9,1.71,0.3,7.44,126.18,83.92,303.76,308.79,126.86,83.96,302.96,309.0,1.0
2018-08-23 11:46:00,89.536,5.7485,898.815,272.6,92.6,863.0,1.68,0.16,6.07,127.62,84.13,302.82,309.14,126.42,84.02,302.98,308.92,1.0
2018-08-23 11:46:00,89.536,5.74849,898.82,272.61,92.6,862.9,1.46,0.12,3.88,126.7,84.2,302.92,309.14,125.97,84.09,303.12,308.95,1.0
2018-08-23 11:46:00,89.536,5.74848,898.802,272.61,92.6,863.1,1.35,0.14,1.88,126.64,84.33,302.82,308.83,125.53,84.18,303.09,308.9,1.0
2018-08-23 11:46:00,89.536,5.74847,898.805,272.61,92.6,863.0,1.06,0.18,0.23,126.44,84.13,302.82,309.66,125.14,84.26,303.01,308.96,1.0
2018-08-23 11:46:00,89.536,5.74846,898.809,272.61,92.6,863.0,0.86,0.14,-0.91,126.18,84.06,302.04,309.47,124.83,84.33,302.77,309.02,1.0
2018-08-23 11:46:00,89.536,5.74845,898.817,272.61,92.6,862.9,0.72,0.09,-1.84,126.96,83.99,302.6,309.63,124.61,84.37,302.48,309.06,1.0
2018-08-23 11:46:00,89.536,5.74844,898.835,272.61,92.6,862.8,0.67,0.09,-2.72,126.96,84.26,303.72,310.71,124.53,84.38,302.26,309.08,1.0
2018-08-23 11:46:00,89.536,5.74843,898.799,272.6,92.6,863.1,0.83,0.01,-3.4,125.78,84.13,302.7,309.36,124.59,84.35,302.06,309.12,1.0
2018-08-23 11:46:00,89.536,5.74842,898.802,272.6,92.6,863.1,0.74,-0.28,-7.99,126.57,84.2,302.8,310.5,124.81,84.29,301.89,309.16,1.0
2018-08-23 11:46:00,89.536,5.74841,898.801,272.6,92.6,863.1,0.87,-0.25,-9.22,126.24,84.13,301.62,309.22,125.17,84.19,301.9,309.35,1.0
2018-08-23 11:46:00,89.536,5.7484,898.805,272.6,92.6,863.0,0.98,-0.22,-9.83,125.98,84.2,301.23,308.38,125.66,84.07,302.04,309.5,1.0
2018-08-23 11:46:00,89.536,5.74839,898.813,272.6,92.6,863.0,1.02,-0.26,-10.53,126.44,84.2,301.17,308.39,126.25,83.94,302.09,309.45,1.0
2018-08-23 11:46:00,89.536,5.74838,898.796,272.59,92.6,863.1,1.05,-0.2,-10.3,126.37,84.33,301.19,308.32,126.89,83.83,301.97,309.22,1.0
2018-08-23 11:46:00,89.536,5.74837,898.809,272.59,92.6,863.0,1.08,-0.35,-10.27,126.18,84.2,301.07,308.33,127.54,83.75,302.02,309.11,1.0
2018-08-23 11:46:00,89.536,5.74836,898.82,272.58,92.6,862.9,1.02,-0.49,-9.82,126.44,84.33,302.83,310.42,128.13,83.7,302.24,309.12,1.0
2018-08-23 11:46:00,89.536,5.74834,898.841,272.58,92.6,862.7,0.93,-0.55,-8.97,125.92,83.92,302.87,310.34,128.62,83.69,302.35,309.09,1.0
2018-08-23 11:46:00,89.536,5.74832,898.858,272.59,92.6,862.6,0.84,-0.54,-8.31,126.24,83.92,302.08,308.72,128.97,83.73,302.37,309.05,1.0
2018-08-23 11:46:00,89.536,5.7483,898.841,272.58,92.6,862.7,0.8,-0.51,-8.73,126.64,84.06,301.48,308.08,129.13,83.81,302.39,309.03,1.0
2018-08-23 11:46:00,89.536,5.74828,898.823,272.58,92.6,862.9,0.82,-0.51,-11.41,127.42,83.92,302.53,308.44,129.11,83.9,302.33,309.05,1.0
2018-08-23 11:46:00,89.536,5.74826,898.849,272.58,92.6,862.7,0.92,-0.55,-11.27,126.96,84.2,304.77,311.01,128.91,84.01,302.38,309.19,1.0
2018-08-23 11:46:00,89.536,5.74824,898.876,272.58,92.6,862.4,0.82,-0.91,-10.28,127.16,84.2,302.63,309.87,128.55,84.1,302.23,309.11,1.0
2018-08-23 11:46:00,89.536,5.74822,898.882,272.58,92.6,862.4,0.77,-0.94,-8.93,126.24,84.13,301.81,308.6,128.08,84.16,302.04,309.04,1.0
2018-08-23 11:46:00,89.536,5.7482,898.868,272.58,92.6,862.5,0.84,-0.61,-8.02,127.16,84.06,302.22,308.71,127.55,84.19,301.98,309.1,1.0
2018-08-23 11:46:00,89.536,5.74818,898.848,272.57,92.6,862.7,0.91,-0.64,-8.9,126.77,84.13,301.54,309.02,127.02,84.18,302.07,309.25,1.0
2018-08-23 11:46:00,89.536,5.74817,898.857,272.57,92.6,862.6,0.55,-0.23,-8.2,126.11,83.99,302.83,309.77,126.56,84.14,302.27,309.32,1.0
2018-08-23 11:46:00,89.536,5.74815,898.846,272.57,92.6,862.7,0.53,-0.09,-6.89,127.62,84.2,301.89,309.29,126.21,84.08,302.24,309.15,1.0
2018-08-23 11:46:00,89.536,5.74814,898.842,272.57,92.6,862.7,0.4,0.0,-5.61,126.83,84.2,301.9,308.96,126.01,84.01,302.46,309.12,1.0
2018-08-23 11:46:00,89.536,5.74812,898.844,272.57,92.6,862.7,0.22,0.12,-4.66,126.96,84.13,301.91,309.09,125.98,83.96,302.76,309.19,1.0
2018-08-23 11:46:00,89.53601,5.7481,898.817,272.57,92.6,862.9,0.25,0.17,-4.07,127.22,84.13,302.59,309.1,126.11,83.93,302.9,309.19,1.0
2018-08-23 11:46:00,89.53601,5.74809,898.838,272.57,92.6,862.8,0.1,0.09,-3.18,126.05,84.06,304.17,308.84,126.37,83.92,303.05,309.11,1.0
2018-08-23 11:46:00,89.53601,5.74807,898.856,272.57,92.6,862.6,0.04,0.19,-1.72,126.77,84.13,303.58,308.22,126.72,83.96,303.05,309.0,1.0
2018-08-23 11:46:00,89.53601,5.74806,898.865,272.57,92.6,862.5,0.1,0.3,-0.32,126.05,83.92,303.98,308.66,127.09,84.02,303.1,309.05,1.0
2018-08-23 11:46:00,89.53601,5.74804,898.857,272.57,92.6,862.6,0.04,0.29,0.74,126.37,83.99,304.05,308.91,127.42,84.09,303.14,309.11,1.0
2018-08-23 11:46:00,89.53601,5.74802,898.822,272.56,92.6,862.9,-0.33,0.17,1.46,126.57,84.13,302.93,308.43,127.65,84.16,303.12,309.08,1.0
2018-08-23 11:46:00,89.53601,5.74801,898.825,272.57,92.6,862.9,-0.6,0.37,2.92,127.29,84.06,302.83,308.1,127.74,84.22,303.06,309.03,1.0
2018-08-23 11:46:00,89.53601,5.74799,898.849,272.57,92.6,862.7,-0.92,0.3,4.09,127.22,83.99,302.87,308.81,127.67,84.23,302.86,309.04,1.0
2018-08-23 11:46:00,89.53601,5.74798,898.842,272.57,92.6,862.7,-1.16,0.4,5.18,127.16,84.33,303.14,310.37,127.43,84.21,302.75,308.99,1.0
2018-08-23 11:46:00,89.53601,5.74796,898.833,272.57,92.6,862.8,-1.28,0.6,6.31,127.22,84.06,303.29,310.32,127.05,84.15,302.65,308.97,1.0
2018-08-23 11:46:00,89.53601,5.74794,898.844,272.58,92.6,862.7,-1.32,0.75,7.4,126.37,84.2,302.86,309.41,126.57,84.05,302.56,309.02,1.0
2018-08-23 11:46:00,89.53601,5.74792,898.843,272.58,92.6,862.7,-1.29,0.67,8.15,126.77,83.99,302.84,309.25,126.05,83.93,302.61,309.13,1.0
2018-08-23 11:46:00,89.53601,5.7479,898.859,272.58,92.6,862.6,-1.09,0.88,11.66,127.22,84.13,302.85,309.43,125.56,83.81,302.73,309.19,1.0
2018-08-23 11:46:00,89.53601,5.74789,898.86,272.58,92.6,862.6,-0.79,0.92,12.82,126.96,84.2,302.85,308.76,125.17,83.71,302.8,309.19,1.0
2018-08-23 11:46:00,89.53601,5.74787,898.861,272.58,92.6,862.6,-0.73,0.92,13.99,126.18,83.99,303.03,308.88,124.92,83.65,302.77,309.17,1.0
2018-08-23 11:46:00,89.53601,5.74785,898.867,272.59,92.6,862.5,-0.82,0.98,15.19,126.96,84.13,302.58,309.79,124.85,83.63,302.75,309.22,1.0
2018-08-23 11:46:00,89.53601,5.74783,898.868,272.6,92.6,862.5,-0.87,1.14,15.57,127.03,84.13,302.5,309.63,124.98,83.67,302.74,309.34,1.0
2018-08-23 11:46:00,89.53601,5.74781,898.878,272.6,92.6,862.4,-1.33,1.18,16.52,126.05,83.99,303.18,308.5,125.3,83.75,302.61,309.43,1.0
2018-08-23 11:46:00,89.53601,5.7478,898.837,272.6,92.6,862.8,-1.16,1.22,17.85,126.18,83.85,302.46,308.41,125.77,83.87,302.55,309.45,1.0
2018-08-23 11:46:00,89.53601,5.74778,898.836,272.61,92.6,862.8,-1.2,1.24,19.5,125.92,83.99,301.64,309.48,126.33,84.02,302.39,309.54,1.0
2018-08-23 11:46:00,89.53601,5.74776,898.839,272.61,92.6,862.7,-1.29,1.38,22.71,126.9,83.99,302.0,310.35,126.93,84.16,302.19,309.6,1.0
2018-08-23 11:46:00,89.53601,5.74774,898.822,272.61,92.6,862.9,-1.31,1.54,26.11,127.03,83.92,302.44,310.36,127.51,84.29,302.0,309.59,1.0
2018-08-23 11:46:00,89.53601,5.74772,898.832,272.61,92.6,862.8,-1.31,1.5,26.49,125.78,84.06,301.53,309.94,127.99,84.39,301.85,309.55,1.0
2018-08-23 11:46:00,89.53601,5.7477,898.818,272.61,92.6,862.9,-1.46,1.76,30.53,127.03,83.99,302.7,309.47,128.33,84.46,301.65,309.58,1.0
2018-08-23 11:46:00,89.53601,5.74768,898.83,272.61,92.6,862.8,-1.3,1.8,30.86,126.5,84.2,301.96,309.47,128.5,84.5,301.73,309.53,1.0
2018-08-23 11:46:00,89.53601,5.74765,898.847,272.61,92.6,862.7,-1.38,1.86,33.01,128.01,84.2,301.4,309.43,128.49,84.52,301.82,309.42,1.0
2018-08-23 11:46:00,89.53601,5.74763,898.847,272.61,92.6,862.7,-1.57,1.86,35.51,126.64,84.2,301.26,309.5,128.3,84.52,301.82,309.31,1.0
2018-08-23 11:46:00,89.53601,5.74761,898.821,272.61,92.6,862.9,-1.58,1.72,35.18,125.33,84.13,301.42,309.15,127.97,84.52,301.85,309.21,1.0
2018-08-23 11:46:00,89.53601,5.74759,898.833,272.61,92.6,862.8,-1.72,1.75,33.66,127.55,84.33,301.0,308.61,127.53,84.52,302.03,309.18,1.0
2018-08-23 11:46:00,89.53601,5.74757,898.833,272.6,92.6,862.8,-1.77,1.88,36.92,127.16,83.92,303.07,307.55,127.04,84.54,302.09,309.16,1.0
2018-08-23 11:46:00,89.53601,5.74755,898.844,272.6,92.6,862.7,-1.75,1.83,37.02,126.9,83.92,302.14,308.22,126.55,84.57,302.21,309.13,1.0
2018-08-23 11:46:00,89.53601,5.74753,898.853,272.61,92.6,862.6,-1.63,1.75,35.54,127.16,84.13,301.38,309.33,126.11,84.6,302.36,309.09,1.0
2018-08-23 11:46:00,89.53601,5.74751,898.84,272.61,92.6,862.7,-1.41,1.73,34.13,126.77,84.06,301.64,309.19,125.76,84.64,302.51,309.06,1.0
2018-08-23 11:46:00,89.53601,5.74749,898.827,272.61,92.6,862.9,-1.17,1.7,32.46,127.03,84.13,302.46,309.93,125.52,84.67,302.65,309.08,1.0
2018-08-23 11:46:00,89.53601,5.74747,898.824,272.6,92.6,862.9,-1.42,1.62,35.7,126.57,84.2,302.33,309.2,125.42,84.69,302.82,309.14,1.0
2018-08-23 11:46:00,89.53601,5.74745,898.82,272.6,92.6,862.9,-1.49,1.67,35.46,126.83,84.4,302.21,309.41,125.45,84.69,302.77,309.27,1.0
2018-08-23 11:46:00,89.53601,5.74743,898.835,272.6,92.6,862.8,-1.51,1.69,34.4,126.24,84.2,302.44,308.99,125.59,84.67,302.79,309.37,1.0
2018-08-23 11:46:00,89.53601,5.74741,898.864,272.61,92.6,862.5,-1.58,1.62,33.4,126.77,84.4,302.68,309.26,125.82,84.64,302.87,309.43,1.0
2018-08-23 11:46:00,89.53601,5.7474,898.864,272.61,92.6,862.5,-1.69,1.52,31.41,125.46,84.2,302.66,309.51,126.1,84.61,302.92,309.49,1.0
2018-08-23 11:46:00,89.53601,5.74738,898.874,272.61,92.6,862.4,-1.55,1.44,29.31,127.42,84.2,302.94,309.31,126.4,84.57,302.89,309.5,1.0
2018-08-23 11:46:00,89.53601,5.74736,898.867,272.6,92.6,862.5,-1.41,1.33,27.71,126.7,84.26,302.97,309.3,126.68,84.53,302.89,309.53,1.0
2018-08-23 11:46:00,89.53601,5.74734,898.881,272.6,92.6,862.4,-1.29,1.06,25.69,126.83,84.2,303.12,309.1,126.91,84.51,302.89,309.55,1.0
2018-08-23 11:46:00,89.53601,5.74732,898.894,272.61,92.6,862.3,-1.18,0.85,23.37,126.31,84.33,303.03,309.33,127.08,84.49,302.87,309.56,1.0
2018-08-23 11:46:00,89.53601,5.7473,898.862,272.6,92.6,862.5,-1.07,0.86,20.96,127.16,84.13,303.03,309.52,127.18,84.47,302.85,309.57,1.0
2018-08-23 11:46:00,89.53601,5.74728,898.85,272.61,92.6,862.7,-0.98,0.8,18.6,125.72,84.26,303.12,309.52,127.21,84.44,302.86,309.59,1.0
2018-08-23 11:46:00,89.53601,5.74726,898.851,272.61,92.6,862.6,-0.97,0.72,15.84,127.22,84.2,302.94,309.33,127.2,84.41,302.86,309.55,1.0
2018-08-23 11:46:00,89.53601,5.74724,898.868,272.61,92.6,862.5,-0.91,0.6,13.44,126.57,84.33,303.03,309.52,127.16,84.36,302.86,309.51,1.0
2018-08-23 11:46:00,89.53601,5.74722,898.873,272.61,92.6,862.5,-0.85,0.49,12.31,127.42,84.26,302.92,309.73,127.14,84.29,302.89,309.5,1.0
2018-08-23 11:46:00,89.53601,5.7472,898.851,272.6,92.6,862.6,-0.82,0.39,11.99,126.37,84.26,302.72,309.73,127.15,84.2,302.91,309.51,1.0
2018-08-23 11:46:00,89.53601,5.74717,898.85,272.6,92.6,862.7,-0.76,0.19,10.11,126.83,84.33,303.32,310.33,127.2,84.12,302.92,309.54,1.0
2018-08-23 11:46:00,89.53601,5.74715,898.834,272.61,92.6,862.8,-0.93,0.04,8.53,126.44,84.4,303.06,309.52,127.31,84.03,302.88,309.5,1.0
2018-08-23 11:46:00,89.53601,5.74712,898.856,272.6,92.6,862.6,-1.01,0.05,7.06,126.9,84.33,302.93,309.43,127.47,83.97,302.93,309.54,1.0
2018-08-23 11:46:00,89.53601,5.74709,898.876,272.6,92.6,862.4,-1.04,-0.0,5.09,126.7,84.33,302.94,309.52,127.66,83.94,302.94,309.62,1.0
2018-08-23 11:46:00,89.53601,5.74707,898.872,272.61,92.6,862.5,-1.01,-0.08,2.92,126.57,84.2,302.76,309.86,127.86,83.94,302.88,309.71,1.0
2018-08-23 11:46:00,89.53601,5.74704,898.858,272.6,92.6,862.6,-0.86,-0.1,1.15,126.57,84.2,302.85,310.04,128.03,83.98,302.79,309.81,1.0
2018-08-23 11:46:00,89.53601,5.74702,898.894,272.6,92.6,862.3,-0.75,-0.44,0.28,126.96,83.99,302.22,308.65,128.15,84.06,302.67,309.84,1.0
2018-08-23 11:46:00,89.53601,5.74699,898.895,272.6,92.5,862.3,-0.62,-0.33,-0.35,126.77,84.13,303.56,309.05,128.21,84.16,302.57,309.9,1.0
2018-08-23 11:46:00,89.53601,5.74697,898.88,272.6,92.6,862.4,-0.41,-0.36,-1.65,127.29,84.2,302.92,309.45,128.18,84.27,302.5,309.94,1.0
2018-08-23 11:46:00,89.53601,5.74696,898.877,272.61,92.6,862.4,-0.33,-0.42,-2.93,127.16,84.13,302.75,309.75,128.08,84.36,302.46,309.94,1.0
2018-08-23 11:46:00,89.53601,5.74695,898.898,272.61,92.6,862.2,-0.46,-0.41,-3.76,127.62,84.4,302.57,310.1,127.92,84.43,302.41,309.89,1.0
2018-08-23 11:46:00,89.53601,5.74694,898.879,272.61,92.6,862.4,-0.38,-0.51,-4.77,126.77,84.2,302.92,310.14,127.74,84.46,302.33,309.78,1.0
2018-08-23 11:46:00,89.53601,5.74693,898.851,272.61,92.6,862.6,-0.6,-0.23,-5.79,127.29,84.33,302.71,309.91,127.56,84.45,302.45,309.81,1.0
2018-08-23 11:46:00,89.53601,5.74692,898.859,272.6,92.6,862.6,-0.67,-0.32,-6.89,126.64,84.4,302.8,310.09,127.41,84.41,302.45,309.77,1.0
2018-08-23 11:46:00,89.53601,5.74691,898.879,272.6,92.6,862.4,-0.64,-0.29,-7.76,125.98,84.2,302.97,309.79,127.32,84.35,302.48,309.71,1.0
2018-08-23 11:46:00,89.53601,5.7469,898.882,272.6,92.6,862.4,-0.49,-0.25,-9.67,127.42,84.33,302.37,309.79,127.28,84.28,302.55,309.62,1.0
2018-08-23 11:46:00,89.53601,5.74688,898.847,272.6,92.6,862.7,-0.21,-0.63,-14.3,127.49,84.26,301.3,309.04,127.29,84.22,302.61,309.51,1.0
2018-08-23 11:46:00,89.53601,5.74687,898.848,272.6,92.6,862.7,-0.18,-0.58,-14.22,127.16,84.2,302.73,309.48,127.32,84.18,302.61,309.43,1.0
2018-08-23 11:46:00,89.53601,5.74686,898.867,272.59,92.6,862.5,-0.02,-0.6,-14.29,127.55,84.33,302.38,309.58,127.34,84.17,302.64,309.21,1.0
2018-08-23 11:46:00,89.53601,5.74685,898.878,272.59,92.6,862.4,0.11,-0.41,-14.12,127.03,84.13,302.53,309.19,127.32,84.19,302.62,309.06,1.0
2018-08-23 11:46:00,89.53601,5.74684,898.873,272.59,92.6,862.5,0.25,-0.26,-13.84,126.24,84.13,302.36,309.44,127.23,84.23,302.56,308.96,1.0
2018-08-23 11:46:00,89.53601,5.74683,898.867,272.58,92.6,862.5,0.4,-0.37,-13.58,127.36,84.13,302.42,309.2,127.05,84.27,302.51,308.89,1.0
2018-08-23 11:46:00,89.53601,5.74682,898.871,272.58,92.6,862.5,0.37,-0.27,-12.99,126.77,84.33,301.99,309.6,126.79,84.31,302.47,308.9,1.0
2018-08-23 11:46:00,89.53601,5.74681,898.874,272.58,92.6,862.4,0.43,-0.38,-12.65,128.01,84.33,302.97,307.96,126.49,84.33,302.4,308.9,1.0
2018-08-23 11:46:00,89.53601,5.7468,898.876,272.58,92.6,862.4,0.51,-0.21,-12.0,126.64,84.26,303.11,308.54,126.19,84.3,302.41,308.92,1.0
2018-08-23 11:46:00,89.53601,5.7468,898.875,272.58,92.6,862.4,0.55,-0.19,-11.05,126.96,84.2,302.99,308.86,125.94,84.24,302.46,308.93,1.0
2018-08-23 11:46:00,89.53601,5.74679,898.871,272.58,92.6,862.5,0.57,-0.34,-10.87,126.57,84.26,302.69,308.93,125.82,84.15,302.54,308.94,1.0
2018-08-23 11:46:00,89.53601,5.74678,898.86,272.58,92.6,862.6,0.68,-0.07,-13.64,127.94,84.33,302.13,309.29,125.86,84.03,302.65,308.95,1.0
2018-08-23 11:46:00,89.53601,5.74677,898.864,272.58,92.6,862.5,1.06,0.04,-12.78,126.64,84.33,302.73,309.51,126.1,83.91,302.78,308.89,1.0
2018-08-23 11:46:00,89.53601,5.74676,898.87,272.58,92.6,862.5,1.09,0.25,-11.86,126.96,84.33,302.84,309.43,126.53,83.82,302.85,309.03,1.0
2018-08-23 11:46:00,89.53601,5.74675,898.887,272.58,92.6,862.3,1.3,0.43,-10.89,126.64,84.2,303.12,309.15,127.11,83.76,302.9,309.13,1.0
2018-08-23 11:46:00,89.53601,5.74674,898.906,272.58,92.5,862.2,1.55,0.57,-10.34,126.64,84.2,303.05,309.29,127.78,83.76,302.94,309.17,1.0
2018-08-23 11:46:00,89.53601,5.74673,898.906,272.57,92.5,862.2,1.55,0.69,-10.51,127.29,84.2,302.83,308.85,128.45,83.83,302.98,309.2,1.0
2018-08-23 11:46:00,89.53601,5.74672,898.892,272.57,92.5,862.3,1.87,0.62,-9.11,126.18,83.99,302.33,308.35,129.03,83.95,303.06,309.21,1.0
2018-08-23 11:46:00,89.53601,5.7467,898.88,272.57,92.5,862.4,1.85,0.85,-8.61,126.57,83.99,302.64,308.88,129.44,84.11,303.05,309.19,1.0
2018-08-23 11:46:00,89.53601,5.74668,898.876,272.57,92.5,862.4,1.72,1.04,-7.62,127.36,84.26,302.83,309.43,129.61,84.29,303.02,309.19,1.0
2018-08-23 11:46:00,89.53601,5.74667,898.878,272.58,92.5,862.4,1.61,1.15,-6.18,126.83,84.06,302.83,309.42,129.5,84.48,302.99,309.23,1.0
2018-08-23 11:46:00,89.53601,5.74665,898.878,272.58,92.5,862.4,1.5,1.28,-4.67,128.01,84.2,302.92,309.6,129.14,84.63,302.96,309.33,1.0
2018-08-23 11:46:00,89.53601,5.74663,898.883,272.58,92.5,862.4,1.2,1.58,-3.49,127.94,84.26,302.73,309.71,128.57,84.75,302.95,309.5,1.0
2018-08-23 11:46:00,89.53601,5.74662,898.893,272.58,92.5,862.3,1.28,1.56,-2.75,127.55,84.33,302.92,309.42,127.88,84.8,302.96,309.72,1.0
2018-08-23 11:46:00,89.53601,5.7466,898.888,272.57,92.5,862.3,1.14,1.63,-1.25,127.75,84.4,303.03,309.48,127.17,84.8,302.99,309.88,1.0
2018-08-23 11:46:00,89.53601,5.74658,898.888,272.57,92.5,862.3,1.09,1.68,0.35,127.55,84.13,302.85,309.48,126.55,84.75,303.03,309.98,1.0
2018-08-23 11:46:00,89.53601,5.74657,898.902,272.57,92.5,862.2,1.19,1.75,1.88,127.42,84.33,302.86,309.96,126.12,84.67,303.04,310.05,1.0
2018-08-23 11:46:00,89.53601,5.74655,898.9,272.57,92.5,862.2,1.22,1.99,3.59,126.9,84.26,302.63,310.41,125.93,84.56,303.03,310.08,1.0
2018-08-23 11:46:00,89.53601,5.74653,898.894,272.57,92.5,862.3,1.36,1.9,5.28,126.77,84.4,302.79,310.2,126.01,84.45,302.88,310.04,1.0
2018-08-23 11:46:00,89.53601,5.74652,898.929,272.58,92.6,862.0,1.27,2.05,6.63,126.18,84.26,302.9,310.1,126.33,84.36,302.72,309.95,1.0
2018-08-23 11:46:00,89.53601,5.74651,898.93,272.58,92.6,862.0,1.33,2.11,7.96,126.9,84.2,302.78,309.77,126.84,84.28,302.54,309.84,1.0
2018-08-23 11:46:00,89.53601,5.7465,898.897,272.58,92.6,862.2,1.42,2.18,9.25,128.01,84.4,302.81,309.9,127.45,84.22,302.37,309.69,1.0
2018-08-23 11:46:00,89.53601,5.74648,898.886,272.58,92.6,862.3,1.38,2.36,10.46,126.83,84.13,302.7,309.56,128.04,84.18,302.24,309.5,1.0
2018-08-23 11:46:00,89.53601,5.74647,898.882,272.59,92.6,862.4,1.62,2.24,11.68,126.64,84.33,301.63,309.62,128.52,84.15,302.14,309.27,1.0
2018-08-23 11:46:00,89.53601,5.74646,898.899,272.59,92.6,862.2,1.48,2.47,12.08,128.01,84.26,301.7,309.57,128.81,84.12,302.06,309.09,1.0
2018-08-23 11:46:00,89.53601,5.74645,898.895,272.59,92.6,862.3,1.47,2.65,13.19,127.16,84.33,301.83,309.3,128.85,84.07,302.03,308.96,1.0
2018-08-23 11:46:00,89.53601,5.74644,898.894,272.59,92.6,862.3,1.49,2.71,14.33,127.49,84.06,302.14,309.47,128.63,84.01,302.03,308.88,1.0
2018-08-23 11:46:00,89.53601,5.74643,898.912,272.6,92.6,862.1,1.5,2.7,15.12,127.49,84.26,302.28,309.17,128.18,83.93,302.08,308.84,1.0
2018-08-23 11:46:00,89.53601,5.74642,898.89,272.6,92.6,862.3,1.65,2.77,15.82,127.22,84.33,302.49,309.39,127.56,83.84,302.17,308.79,1.0
2018-08-23 11:46:00,89.53602,5.7464,898.895,272.6,92.6,862.3,1.76,2.82,16.32,128.01,84.4,302.55,309.36,126.85,83.75,302.29,308.93,1.0
2018-08-23 11:46:00,89.53602,5.74639,898.907,272.6,92.6,862.2,1.74,2.83,17.2,127.03,84.33,302.64,309.27,126.13,83.68,302.42,309.09,1.0
2018-08-23 11:46:00,89.53602,5.74638,898.916,272.6,92.6,862.1,1.8,2.87,19.79,127.68,84.26,302.87,309.4,125.51,83.65,302.53,309.21,1.0
2018-08-23 11:46:00,89.53602,5.74637,898.922,272.6,92.6,862.0,1.93,2.96,22.47,127.55,84.2,302.94,308.98,125.03,83.66,302.6,309.32,1.0
2018-08-23 11:46:00,89.53602,5.74636,898.946,272.61,92.6,861.8,1.93,3.11,22.66,127.55,83.99,302.98,308.37,124.75,83.72,302.63,309.43,1.0
2018-08-23 11:46:00,89.53602,5.74634,898.938,272.6,92.6,861.9,2.03,3.09,27.37,126.57,84.06,302.09,309.58,124.68,83.83,302.64,309.47,1.0
2018-08-23 11:46:00,89.53602,5.74632,898.944,272.6,92.6,861.8,2.05,3.16,27.82,126.57,84.06,302.64,309.62,124.8,83.99,302.72,309.48,1.0
2018-08-23 11:46:00,89.53602,5.74631,898.934,272.6,92.6,861.9,2.14,3.3,27.0,126.24,83.99,302.68,309.24,125.08,84.18,302.79,309.45,1.0
2018-08-23 11:46:00,89.53602,5.74629,898.924,272.6,92.6,862.0,2.29,3.36,26.07,126.5,84.2,302.6,309.24,125.48,84.39,302.85,309.4,1.0
2018-08-23 11:46:00,89.53602,5.74627,898.94,272.6,92.6,861.9,2.42,3.31,25.35,127.81,84.13,302.68,309.5,125.94,84.6,302.89,309.41,1.0
2018-08-23 11:46:00,89.53602,5.74625,898.911,272.6,92.6,862.1,2.42,3.43,25.01,126.96,84.33,303.16,309.52,126.41,84.78,302.89,309.57,1.0
2018-08-23 11:46:00,89.53602,5.74624,898.916,272.6,92.6,862.1,2.73,3.52,28.93,126.37,84.26,304.18,309.56,126.86,84.91,303.01,309.5,1.0
2018-08-23 11:46:00,89.53602,5.74622,898.929,272.61,92.6,862.0,2.82,3.52,32.89,128.01,84.33,303.95,309.36,127.26,85.0,303.12,309.43,1.0
2018-08-23 11:46:00,89.53602,5.7462,898.926,272.61,92.6,862.0,2.97,3.54,34.44,126.31,84.33,303.89,309.44,127.59,85.03,303.21,309.43,1.0
2018-08-23 11:46:00,89.53602,5.74618,898.905,272.6,92.6,862.2,3.26,3.66,34.61,127.42,84.2,303.45,309.87,127.84,85.01,303.29,309.47,1.0
2018-08-23 11:46:00,89.53602,5.74617,898.914,272.61,92.6,862.1,3.42,3.86,37.63,126.64,83.99,302.6,311.04,128.0,84.95,303.33,309.52,1.0
2018-08-23 11:46:00,89.53602,5.74616,898.902,272.6,92.6,862.2,3.59,3.79,35.78,126.5,84.4,302.94,309.7,128.08,84.85,303.34,309.61,1.0
2018-08-23 11:46:00,89.53602,5.74615,898.911,272.6,92.6,862.1,3.55,3.79,34.08,126.83,84.4,302.61,309.71,128.08,84.74,303.25,309.72,1.0
2018-08-23 11:46:00,89.53602,5.74614,898.916,272.6,92.6,862.1,3.54,3.89,32.22,127.03,84.33,302.82,309.62,127.99,84.62,303.12,309.81,1.0
2018-08-23 11:46:00,89.53602,5.74612,898.917,272.6,92.6,862.1,3.67,3.97,30.03,127.55,84.4,302.83,309.34,127.82,84.51,302.99,309.89,1.0
2018-08-23 11:46:00,89.53602,5.74611,898.94,272.6,92.6,861.9,3.92,3.94,27.63,127.16,84.4,302.92,309.72,127.58,84.43,302.86,309.89,1.0
2018-08-23 11:46:00,89.53602,5.7461,898.952,272.6,92.6,861.8,3.96,4.14,25.86,127.22,84.26,303.01,309.52,127.27,84.37,302.73,309.77,1.0
2018-08-23 11:46:00,89.53602,5.74609,898.925,272.6,92.6,862.0,4.14,4.15,23.66,127.81,84.47,303.02,309.52,126.93,84.33,302.67,309.8,1.0
2018-08-23 11:46:00,89.53602,5.74608,898.932,272.6,92.6,861.9,4.17,4.16,21.19,126.9,84.2,302.75,309.51,126.59,84.31,302.57,309.74,1.0
2018-08-23 11:46:00,89.53602,5.74607,898.953,272.6,92.6,861.8,4.22,4.16,18.91,126.31,84.4,303.02,309.22,126.29,84.3,302.46,309.6,1.0
2018-08-23 11:46:00,89.53602,5.74606,898.948,272.6,92.6,861.8,4.32,4.16,16.89,127.55,84.13,302.71,309.57,126.06,84.29,302.4,309.46,1.0
2018-08-23 11:46:00,89.53602,5.74604,898.921,272.59,92.6,862.0,4.18,4.24,14.91,126.57,84.4,301.9,309.5,125.95,84.28,302.45,309.37,1.0
2018-08-23 11:46:00,89.53602,5.74603,898.943,272.6,92.6,861.8,4.23,4.3,12.89,127.68,84.33,303.05,310.63,125.97,84.26,302.56,309.24,1.0
2018-08-23 11:46:00,89.53602,5.74602,898.925,272.6,92.6,862.0,4.2,4.44,10.79,126.77,84.33,302.53,309.55,126.14,84.23,302.67,309.04,1.0
2018-08-23 11:46:00,89.53602,5.74601,898.905,272.6,92.6,862.2,4.18,4.5,8.56,127.03,84.4,302.05,309.23,126.43,84.18,302.79,308.85,1.0
2018-08-23 11:46:00,89.53602,5.746,898.909,272.6,92.6,862.1,4.17,4.56,6.33,127.29,84.2,302.36,309.8,126.82,84.12,302.91,308.81,1.0
2018-08-23 11:46:00,89.53602,5.74599,898.924,272.59,92.6,862.0,4.1,4.84,4.49,125.98,84.26,303.14,310.15,127.26,84.07,303.02,308.96,1.0
2018-08-23 11:46:00,89.53602,5.74598,898.935,272.6,92.5,861.9,4.08,4.72,2.37,126.57,84.33,304.13,309.6,127.7,84.02,303.13,309.17,1.0
2018-08-23 11:46:00,89.53602,5.74597,898.95,272.6,92.5,861.8,4.06,4.8,0.49,126.37,84.4,303.95,308.25,128.08,83.99,303.16,309.26,1.0
2018-08-23 11:46:00,89.53602,5.74596,898.946,272.6,92.5,861.8,4.05,4.82,-1.08,127.55,84.4,304.06,307.78,128.37,83.99,303.23,309.42,1.0
2018-08-23 11:46:00,89.53602,5.74595,898.924,272.6,92.6,862.0,4.01,4.85,-2.27,127.62,84.33,304.14,308.71,128.52,84.02,303.39,309.59,1.0
2018-08-23 11:46:00,89.53602,5.74594,898.909,272.6,92.5,862.1,3.93,4.95,-3.31,127.36,84.2,303.75,310.2,128.54,84.07,303.61,309.64,1.0
2018-08-23 11:46:00,89.53602,5.74593,898.936,272.6,92.6,861.9,3.79,4.92,-4.89,126.64,84.2,303.09,310.08,128.44,84.16,303.71,309.59,1.0
2018-08-23 11:46:00,89.53602,5.74592,898.961,272.6,92.5,861.7,3.8,5.07,-6.45,127.55,84.06,302.92,309.14,128.26,84.26,303.74,309.57,1.0
2018-08-23 11:46:00,89.53602,5.74591,898.974,272.6,92.6,861.6,3.82,5.1,-8.14,127.75,84.26,302.77,309.32,128.04,84.37,303.75,309.6,1.0
2018-08-23 11:46:00,89.53602,5.7459,898.964,272.6,92.6,861.7,3.78,5.12,-9.96,126.96,84.2,303.31,309.01,127.83,84.47,303.72,309.63,1.0
2018-08-23 11:46:00,89.53602,5.74588,898.938,272.6,92.6,861.9,3.72,5.18,-11.87,127.62,84.33,304.48,308.69,127.66,84.55,303.67,309.57,1.0
2018-08-23 11:46:00,89.53602,5.74586,898.95,272.6,92.5,861.8,3.8,5.22,-13.62,126.11,84.4,304.05,308.72,127.58,84.6,303.62,309.36,1.0
2018-08-23 11:46:00,89.53602,5.74585,898.984,272.6,92.5,861.5,3.77,5.53,-14.74,128.34,84.26,304.03,309.16,127.57,84.61,303.62,309.15,1.0
2018-08-23 11:46:00,89.53602,5.74583,898.98,272.6,92.6,861.5,3.8,5.5,-15.92,126.18,84.26,303.96,309.31,127.64,84.59,303.6,309.07,1.0
2018-08-23 11:46:00,89.53602,5.74582,898.967,272.6,92.6,861.6,3.74,5.5,-16.57,126.96,84.4,304.0,309.59,127.76,84.54,303.64,309.02,1.0
2018-08-23 11:46:00,89.53602,5.7458,898.958,272.6,92.6,861.7,3.69,5.56,-16.44,127.55,84.33,303.8,309.4,127.9,84.46,303.63,309.05,1.0
2018-08-23 11:46:00,89.53602,5.74579,898.944,272.6,92.5,861.8,3.8,5.54,-15.66,126.96,84.54,303.41,309.82,128.01,84.37,303.51,309.19,1.0
2018-08-23 11:46:00,89.53602,5.74577,898.938,272.59,92.5,861.9,3.69,5.45,-15.27,128.34,84.2,303.52,309.62,128.07,84.27,303.44,309.35,1.0
2018-08-23 11:46:00,89.53602,5.74576,898.951,272.59,92.5,861.8,3.73,5.44,-15.35,127.03,84.33,303.08,309.53,128.06,84.2,303.39,309.51,1.0
2018-08-23 11:46:00,89.53602,5.74574,898.962,272.59,92.5,861.7,3.74,5.4,-15.15,128.08,84.26,303.7,309.33,127.98,84.14,303.3,309.74,1.0
2018-08-23 11:46:00,89.53602,5.74573,898.968,272.59,92.5,861.6,3.78,5.33,-14.62,126.44,84.26,303.29,309.33,127.84,84.11,303.25,309.95,1.0
2018-08-23 11:46:00,89.53602,5.74572,898.973,272.59,92.5,861.6,3.86,5.27,-14.07,127.81,84.26,302.9,309.63,127.68,84.11,303.27,310.06,1.0
2018-08-23 11:46:00,89.53602,5.7457,898.966,272.57,92.5,861.6,3.88,5.2,-14.19,127.16,84.2,302.72,309.43,127.5,84.14,303.32,310.13,1.0
2018-08-23 11:46:00,89.53602,5.74569,898.948,272.57,92.5,861.8,3.97,5.25,-13.81,127.09,84.33,302.64,309.43,127.35,84.19,303.29,310.07,1.0
2018-08-23 11:46:00,89.53602,5.74568,898.944,272.57,92.5,861.8,4.09,5.15,-13.43,127.55,84.33,302.13,310.29,127.24,84.25,303.15,309.88,1.0
2018-08-23 11:46:00,89.53602,5.74566,898.962,272.57,92.5,861.7,4.1,5.07,-13.09,127.62,84.4,302.41,310.6,127.18,84.32,303.04,309.71,1.0
2018-08-23 11:46:00,89.53602,5.74565,898.989,272.57,92.5,861.5,4.02,5.01,-12.61,127.42,84.2,303.2,310.0,127.16,84.38,302.98,309.6,1.0
2018-08-23 11:46:00,89.53602,5.74564,898.969,272.57,92.4,861.6,3.97,4.86,-11.61,127.16,84.26,303.36,310.2,127.17,84.43,302.86,309.5,1.0
2018-08-23 11:46:00,89.53602,5.74563,898.968,272.56,92.5,861.6,3.87,4.81,-10.16,127.62,84.26,302.87,309.51,127.18,84.46,302.79,309.43,1.0
2018-08-23 11:46:00,89.53602,5.74562,898.966,272.56,92.5,861.6,3.7,4.71,-9.16,126.05,84.4,301.84,308.41,127.17,84.48,302.68,309.3,1.0
2018-08-23 11:46:00,89.53602,5.7456,898.975,272.56,92.5,861.6,3.56,4.66,-8.36,128.21,84.26,302.76,308.76,127.14,84.49,302.69,309.24,1.0
2018-08-23 11:46:00,89.53602,5.74559,898.981,272.56,92.5,861.5,3.47,4.61,-7.48,127.88,84.33,303.43,309.43,127.07,84.48,302.72,309.26,1.0
2018-08-23 11:46:00,89.53602,5.74558,898.96,272.56,92.5,861.7,3.39,4.51,-6.4,127.03,84.33,302.08,309.72,127.0,84.48,302.69,309.27,1.0
2018-08-23 11:46:00,89.53602,5.74556,898.973,272.56,92.5,861.6,3.32,4.39,-5.37,127.94,84.26,302.51,309.24,126.94,84.47,302.64,309.26,1.0
2018-08-23 11:46:00,89.53602,5.74555,898.976,272.56,92.5,861.6,3.37,4.29,-3.93,126.24,84.33,301.89,308.24,126.92,84.46,302.68,309.21,1.0
2018-08-23 11:46:00,89.53602,5.74554,898.971,272.56,92.5,861.6,3.37,4.28,-2.48,127.42,84.33,302.35,309.59,126.99,84.45,302.89,309.23,1.0
2018-08-23 11:46:00,89.53602,5.74552,898.969,272.56,92.5,861.6,3.38,4.26,-1.35,127.42,84.47,302.59,309.72,127.15,84.44,302.98,309.2,1.0
2018-08-23 11:46:00,89.53602,5.74551,898.979,272.56,92.5,861.5,3.41,4.24,-0.52,127.22,84.2,302.55,309.28,127.43,84.42,302.98,309.13,1.0
2018-08-23 11:46:00,89.53602,5.74549,898.99,272.56,92.5,861.4,3.39,4.3,0.31,127.29,84.33,302.73,309.29,127.8,84.4,303.12,309.09,1.0
2018-08-23 11:46:00,89.53602,5.74548,898.994,272.56,92.5,861.4,3.63,4.28,1.53,127.42,84.26,302.82,308.05,128.23,84.36,303.2,309.01,1.0
2018-08-23 11:46:00,89.53602,5.74546,898.999,272.56,92.5,861.4,3.73,4.23,3.01,127.22,84.47,303.93,307.64,128.69,84.31,303.32,309.15,1.0
2018-08-23 11:46:00,89.53602,5.74544,899.002,272.56,92.5,861.3,3.81,4.13,4.93,127.88,84.33,303.49,307.86,129.11,84.24,303.42,309.14,1.0
2018-08-23 11:46:00,89.53602,5.74543,898.999,272.56,92.5,861.4,3.88,4.07,6.61,126.64,84.33,303.15,308.28,129.45,84.16,303.51,309.07,1.0
2018-08-23 11:46:00,89.53602,5.74541,898.991,272.57,92.5,861.4,3.88,4.1,7.38,127.42,84.47,304.13,309.37,129.67,84.08,303.6,309.08,1.0
2018-08-23 11:46:00,89.53602,5.7454,899.0,272.56,92.5,861.4,3.83,4.16,8.57,127.09,84.2,304.31,308.66,129.75,84.0,303.69,309.12,1.0
2018-08-23 11:46:00,89.53602,5.74538,898.99,272.57,92.5,861.4,3.71,4.12,9.81,127.62,84.26,303.97,310.14,129.69,83.93,303.68,309.28,1.0
2018-08-23 11:46:00,89.53602,5.74537,898.99,272.57,92.5,861.4,3.71,4.18,11.12,128.14,84.33,304.29,309.64,129.52,83.87,303.62,309.44,1.0
2018-08-23 11:46:00,89.53602,5.74536,899.008,272.57,92.5,861.3,3.74,4.31,12.56,128.53,84.33,304.29,309.53,129.27,83.84,303.62,309.58,1.0
2018-08-23 11:46:00,89.53602,5.74534,899.033,272.58,92.6,861.1,3.71,4.31,13.97,127.55,84.2,303.85,309.48,129.01,83.85,303.63,309.65,1.0
2018-08-23 11:46:00,89.53602,5.74533,899.016,272.58,92.6,861.2,3.69,3.97,15.21,128.01,84.33,303.72,309.65,128.79,83.88,303.5,309.65,1.0
2018-08-23 11:46:00,89.53602,5.74532,899.009,272.58,92.6,861.3,3.82,4.41,16.32,127.81,84.2,302.57,309.8,128.63,83.95,303.39,309.68,1.0
2018-08-23 11:46:00,89.53602,5.7453,899.0,272.59,92.6,861.4,4.16,4.45,17.01,127.94,84.26,303.05,309.54,128.56,84.05,303.26,309.59,1.0
2018-08-23 11:46:00,89.53602,5.74529,899.004,272.59,92.6,861.3,4.32,4.43,18.12,127.42,84.2,303.16,309.36,128.58,84.16,303.1,309.5,1.0
2018-08-23 11:46:00,89.53602,5.74527,899.021,272.59,92.6,861.2,4.44,4.43,19.15,127.42,84.13,302.89,309.02,128.65,84.28,302.92,309.46,1.0
2018-08-23 11:46:00,89.53602,5.74526,899.015,272.59,92.6,861.2,4.84,4.4,19.51,127.55,84.33,302.42,309.34,128.74,84.4,302.75,309.43,1.0
2018-08-23 11:46:00,89.53602,5.74525,898.978,272.58,92.6,861.5,4.9,4.51,23.99,128.8,84.26,302.8,309.5,128.78,84.52,302.62,309.41,1.0
2018-08-23 11:46:00,89.53602,5.74523,898.978,272.59,92.6,861.5,5.09,4.18,28.65,127.16,84.33,302.72,309.42,128.74,84.62,302.61,309.41,1.0
2018-08-23 11:46:00,89.53602,5.74522,898.99,272.59,92.6,861.4,5.0,4.17,30.08,127.75,83.99,302.91,309.61,128.58,84.69,302.59,309.44,1.0
2018-08-23 11:46:00,89.53602,5.74521,899.001,272.59,92.6,861.3,4.86,4.21,29.53,128.6,84.33,302.73,309.7,128.28,84.74,302.57,309.5,1.0
2018-08-23 11:46:00,89.53602,5.7452,899.002,272.59,92.6,861.3,4.84,4.07,28.56,127.16,84.4,302.82,309.5,127.85,84.77,302.6,309.56,1.0
2018-08-23 11:46:00,89.53602,5.74519,899.008,272.59,92.6,861.3,4.76,4.08,27.45,128.47,84.4,302.82,309.52,127.33,84.78,302.68,309.6,1.0
2018-08-23 11:46:00,89.53602,5.74518,899.014,272.59,92.6,861.2,4.77,4.01,26.44,128.14,84.26,302.72,309.7,126.75,84.78,302.68,309.6,1.0
2018-08-23 11:46:00,89.53602,5.74516,899.023,272.59,92.6,861.2,4.87,4.04,25.31,129.52,84.47,303.09,309.12,126.2,84.76,302.73,309.56,1.0
2018-08-23 11:46:00,89.53602,5.74515,899.008,272.59,92.6,861.3,4.94,3.95,25.31,127.03,84.26,303.1,309.69,125.72,84.73,302.82,309.43,1.0
2018-08-23 11:46:00,89.53602,5.74514,898.977,272.59,92.6,861.6,4.98,3.81,25.62,128.6,84.26,302.88,309.69,125.38,84.69,302.89,309.21,1.0
2018-08-23 11:46:00,89.53602,5.74513,899.013,272.59,92.6,861.2,5.06,3.89,23.8,126.96,84.4,302.5,309.52,125.19,84.65,302.86,308.99,1.0
2018-08-23 11:46:00,89.53602,5.74512,898.996,272.59,92.6,861.4,5.16,3.85,22.42,126.77,84.4,301.63,309.35,125.18,84.61,302.82,308.87,1.0
2018-08-23 11:46:00,89.53602,5.74511,898.985,272.59,92.6,861.5,5.01,3.83,20.56,126.64,84.4,302.35,309.24,125.34,84.57,302.76,308.77,1.0
2018-08-23 11:46:00,89.53602,5.7451,898.988,272.59,92.6,861.5,4.87,3.76,19.05,127.29,84.4,303.03,308.44,125.63,84.51,302.68,308.7,1.0
2018-08-23 11:46:00,89.53602,5.74509,899.006,272.59,92.6,861.3,4.78,3.81,17.67,127.62,84.33,302.86,307.76,126.01,84.45,302.6,308.67,1.0
2018-08-23 11:46:00,89.53602,5.74508,899.039,272.59,92.6,861.0,4.72,4.03,16.77,128.53,84.26,302.23,308.16,126.43,84.39,302.53,308.67,1.0
2018-08-23 11:46:00,89.53602,5.74508,899.065,272.59,92.6,860.8,4.83,3.87,20.38,127.29,84.54,302.5,309.28,126.83,84.33,302.5,308.71,1.0
2018-08-23 11:46:00,89.53602,5.74508,899.052,272.59,92.6,860.9,4.9,4.01,22.93,127.62,84.4,302.55,309.6,127.16,84.26,302.56,308.79,1.0
2018-08-23 11:46:00,89.53602,5.74507,899.033,272.59,92.6,861.1,4.98,3.94,22.42,127.68,84.33,302.82,309.48,127.41,84.2,302.66,308.96,1.0
2018-08-23 11:46:00,89.53602,5.74507,899.02,272.59,92.6,861.2,5.01,3.98,20.74,126.64,84.33,302.68,309.31,127.53,84.16,302.76,309.15,1.0
2018-08-23 11:46:00,89.53602,5.74506,899.019,272.59,92.6,861.2,5.0,4.21,19.05,127.94,84.4,302.71,309.1,127.54,84.13,302.89,309.3,1.0
2018-08-23 11:46:00,89.53602,5.74506,899.045,272.59,92.6,861.0,5.11,4.17,16.74,127.22,84.4,302.99,309.5,127.43,84.13,303.09,309.44,1.0
2018-08-23 11:46:00,89.53602,5.74505,899.031,272.59,92.6,861.1,4.98,4.51,14.7,126.64,84.33,302.9,309.52,127.23,84.15,303.23,309.44,1.0
2018-08-23 11:46:00,89.53602,5.74505,899.03,272.59,92.6,861.1,5.01,4.53,13.06,127.49,84.4,303.54,310.13,126.97,84.19,303.36,309.43,1.0
2018-08-23 11:46:00,89.53602,5.74504,899.04,272.59,92.6,861.0,4.99,4.65,11.17,127.49,84.2,303.88,309.34,126.68,84.25,303.45,309.38,1.0
2018-08-23 11:46:00,89.53602,5.74504,899.056,272.59,92.6,860.9,4.99,4.82,9.14,128.53,84.33,303.94,308.4,126.41,84.33,303.49,309.3,1.0
2018-08-23 11:46:00,89.53602,5.74504,899.074,272.59,92.6,860.7,5.2,4.79,7.64,127.22,84.33,303.96,309.15,126.2,84.41,303.48,309.22,1.0
2018-08-23 11:46:00,89.53602,5.74503,899.029,272.59,92.6,861.1,5.03,5.06,6.22,127.55,84.2,303.6,309.09,126.07,84.49,303.45,309.15,1.0
2018-08-23 11:46:00,89.53602,5.74503,899.017,272.59,92.6,861.2,5.1,5.01,4.74,126.18,84.4,303.58,309.42,126.06,84.56,303.41,309.09,1.0
2018-08-23 11:46:00,89.53602,5.74502,899.039,272.59,92.6,861.0,4.97,4.89,3.14,127.94,84.33,303.52,309.57,126.17,84.61,303.3,309.0,1.0
2018-08-23 11:46:00,89.53602,5.74502,899.056,272.59,92.6,860.9,4.86,4.79,2.9,127.42,84.54,303.1,309.42,126.41,84.64,303.14,309.0,1.0
2018-08-23 11:46:00,89.53602,5.74501,899.028,272.59,92.6,861.1,4.96,4.73,4.11,126.18,84.33,302.79,309.62,126.76,84.65,302.98,309.09,1.0
2018-08-23 11:46:00,89.53602,5.74501,899.053,272.59,92.6,860.9,4.76,4.81,2.78,127.81,84.4,302.82,309.52,127.19,84.64,302.86,309.19,1.0
2018-08-23 11:46:00,89.53602,5.745,899.034,272.59,92.6,861.1,4.86,4.86,2.34,127.03,84.33,302.82,309.51,127.65,84.61,302.8,309.33,1.0
2018-08-23 11:46:00,89.53602,5.745,899.019,272.59,92.6,861.2,4.91,4.88,1.34,126.64,84.33,302.91,309.42,128.08,84.56,302.74,309.4,1.0
2018-08-23 11:46:00,89.53602,5.745,899.033,272.59,92.6,861.1,4.84,4.96,0.2,127.22,84.54,302.53,309.44,128.43,84.51,302.7,309.43,1.0
2018-08-23 11:46:00,89.53602,5.74499,899.061,272.6,92.6,860.8,4.72,5.09,-0.84,128.14,84.33,302.52,309.4,128.65,84.45,302.7,309.44,1.0
2018-08-23 11:46:00,89.53602,5.74499,899.032,272.59,92.6,861.1,4.74,5.09,-1.81,126.96,84.54,302.81,309.54,128.71,84.4,302.7,309.4,1.0
2018-08-23 11:46:00,89.53602,5.74498,899.029,272.59,92.6,861.1,4.45,5.23,-2.66,127.36,84.2,302.73,309.81,128.59,84.35,302.61,309.25,1.0
2018-08-23 11:46:00,89.53602,5.74498,899.033,272.59,92.6,861.1,4.44,5.37,-3.36,127.42,84.4,302.72,309.35,128.3,84.3,302.6,309.13,1.0
2018-08-23 11:46:00,89.53602,5.74498,899.052,272.59,92.6,860.9,4.42,5.41,-4.13,127.16,84.4,302.81,309.52,127.89,84.26,302.52,308.96,1.0
2018-08-23 11:46:00,89.53602,5.74497,899.085,272.59,92.6,860.6,4.41,5.43,-4.73,127.81,84.4,302.89,309.01,127.43,84.23,302.44,308.82,1.0
2018-08-23 11:46:00,89.53602,5.74496,899.112,272.59,92.6,860.4,4.57,5.51,-4.87,127.81,84.54,302.72,309.32,126.98,84.2,302.45,308.78,1.0
2018-08-23 11:46:00,89.53602,5.74495,899.061,272.59,92.6,860.8,4.71,5.46,-5.93,127.42,84.33,301.59,308.21,126.62,84.18,302.42,308.74,1.0
2018-08-23 11:46:00,89.53602,5.74495,899.061,272.58,92.6,860.8,4.62,5.46,-6.16,128.08,84.2,302.47,308.71,126.41,84.17,302.27,308.62,1.0
2018-08-23 11:46:00,89.53602,5.74494,899.066,272.58,92.6,860.8,4.61,5.45,-6.31,127.42,84.33,301.9,308.13,126.39,84.17,302.22,308.61,1.0
2018-08-23 11:46:00,89.53602,5.74493,899.068,272.58,92.6,860.8,4.59,5.49,-6.81,126.24,84.33,301.7,308.49,126.58,84.18,302.25,308.65,1.0
2018-08-23 11:46:00,89.53602,5.74492,899.069,272.58,92.6,860.8,4.5,5.54,-7.28,126.96,84.61,303.09,309.79,126.94,84.19,302.33,308.74,1.0
2018-08-23 11:46:00,89.53602,5.74491,899.064,272.58,92.5,860.8,4.42,5.36,-6.13,127.36,84.33,302.79,309.35,127.44,84.22,302.49,308.91,1.0
2018-08-23 11:46:00,89.53602,5.7449,899.051,272.57,92.5,860.9,4.33,5.28,-5.86,126.96,84.47,301.52,308.76,128.0,84.26,302.6,309.02,1.0
2018-08-23 11:46:00,89.53602,5.74489,899.058,272.56,92.5,860.9,4.16,5.12,-5.34,127.36,84.13,302.28,308.78,128.55,84.31,302.62,308.98,1.0
2018-08-23 11:46:00,89.53602,5.74489,899.068,272.56,92.5,860.8,4.04,5.08,-5.36,128.14,84.2,303.24,309.04,129.01,84.37,302.69,309.03,1.0
2018-08-23 11:46:00,89.53602,5.74488,899.07,272.56,92.5,860.7,3.98,5.04,-5.42,126.96,84.26,303.81,309.18,129.34,84.43,302.82,309.18,1.0
2018-08-23 11:46:00,89.53602,5.74488,899.064,272.56,92.5,860.8,3.94,4.76,-4.44,126.96,84.54,304.51,310.48,129.51,84.5,302.98,309.3,1.0
2018-08-23 11:46:00,89.53602,5.74487,899.092,272.56,92.5,860.6,3.98,4.87,-3.42,127.62,84.33,302.82,308.93,129.52,84.56,303.12,309.38,1.0
2018-08-23 11:46:00,89.53602,5.74486,899.066,272.55,92.5,860.8,4.03,4.75,-2.54,127.75,84.4,302.88,307.61,129.41,84.62,303.36,309.54,1.0
2018-08-23 11:46:00,89.53602,5.74486,899.075,272.55,92.5,860.7,4.05,4.63,-1.78,128.34,84.4,302.44,308.65,129.2,84.68,303.5,309.67,1.0
2018-08-23 11:46:00,89.53602,5.74485,899.112,272.55,92.5,860.4,4.1,4.57,-0.85,127.49,84.13,303.16,309.85,128.97,84.72,303.55,309.78,1.0
2018-08-23 11:46:00,89.53602,5.74485,899.124,272.55,92.5,860.3,4.23,4.52,0.4,128.27,84.61,304.19,310.66,128.76,84.75,303.51,309.86,1.0
2018-08-23 11:46:00,89.53602,5.74484,899.135,272.55,92.5,860.2,4.2,4.29,1.27,127.68,84.47,303.88,309.86,128.59,84.75,303.41,309.84,1.0
2018-08-23 11:46:00,89.53602,5.74484,899.109,272.55,92.5,860.4,3.99,4.16,1.51,127.68,84.4,303.8,310.5,128.47,84.73,303.39,309.87,1.0
2018-08-23 11:46:00,89.53602,5.74483,899.097,272.55,92.5,860.5,3.93,4.22,2.13,127.55,84.4,304.05,310.9,128.4,84.67,303.34,309.97,1.0
2018-08-23 11:46:00,89.53602,5.74483,899.095,272.55,92.5,860.5,3.84,4.32,2.89,127.75,84.33,303.56,310.68,128.35,84.57,303.29,310.0,1.0
2018-08-23 11:46:00,89.53602,5.74482,899.097,272.55,92.5,860.5,3.68,4.34,3.86,127.36,84.4,303.62,311.17,128.26,84.43,303.24,309.98,1.0
2018-08-23 11:46:00,89.53602,5.74481,899.095,272.55,92.5,860.5,3.59,4.21,5.35,127.42,84.47,303.33,310.78,128.11,84.26,303.15,310.0,1.0
2018-08-23 11:46:00,89.53602,5.7448,899.109,272.55,92.5,860.4,3.53,4.08,6.15,127.68,84.4,303.14,309.66,127.87,84.06,303.02,310.07,1.0
2018-08-23 11:46:00,89.53602,5.74479,899.102,272.55,92.5,860.5,3.54,4.06,7.37,127.94,84.47,302.98,309.41,127.53,83.85,302.94,310.12,1.0
2018-08-23 11:46:00,89.53602,5.74478,899.082,272.55,92.5,860.6,3.63,3.95,8.66,127.75,84.54,302.68,309.31,127.12,83.65,302.89,310.17,1.0
2018-08-23 11:46:00,89.53602,5.74476,899.069,272.56,92.6,860.8,3.68,3.9,9.87,128.34,84.33,303.13,309.7,126.67,83.47,302.88,310.2,1.0
2018-08-23 11:46:00,89.53602,5.74475,899.083,272.56,92.6,860.6,3.61,4.09,10.92,128.34,84.33,303.86,310.62,126.25,83.34,302.9,310.18,1.0
2018-08-23 11:46:00,89.53602,5.74474,899.094,272.56,92.6,860.5,3.72,4.12,11.58,127.75,84.33,302.86,310.75,125.92,83.28,302.84,310.13,1.0
2018-08-23 11:46:00,89.53602,5.74473,899.091,272.57,92.6,860.6,3.55,4.1,12.66,128.93,84.26,302.77,310.28,125.74,83.29,302.81,310.18,1.0
2018-08-23 11:46:00,89.53602,5.74472,899.081,272.57,92.6,860.6,3.51,4.03,13.68,127.42,84.33,302.69,310.7,125.75,83.38,302.89,310.26,1.0
2018-08-23 11:46:00,89.53602,5.74471,899.081,272.57,92.6,860.6,3.57,4.05,14.56,126.5,84.13,302.9,310.06,125.96,83.55,302.98,310.3,1.0
2018-08-23 11:46:00,89.53602,5.7447,899.099,272.57,92.6,860.5,3.64,4.16,15.09,126.18,84.13,302.67,309.08,126.36,83.78,302.94,310.24,1.0
2018-08-23 11:46:00,89.53602,5.74468,899.115,272.57,92.6,860.4,3.66,4.08,14.89,126.96,84.13,301.6,308.69,126.91,84.06,302.83,310.06,1.0
2018-08-23 11:46:00,89.53602,5.74467,899.123,272.58,92.6,860.3,3.77,4.19,15.45,126.96,84.06,301.64,308.78,127.55,84.36,302.85,309.87,1.0
2018-08-23 11:46:00,89.53602,5.74466,899.101,272.57,92.6,860.5,3.89,4.2,16.45,127.81,84.06,303.01,309.17,128.2,84.65,302.81,309.7,1.0
2018-08-23 11:46:00,89.53602,5.74464,899.081,272.57,92.6,860.6,3.91,4.13,16.79,127.22,84.26,302.88,309.26,128.81,84.91,302.76,309.55,1.0
2018-08-23 11:46:00,89.53602,5.74463,899.084,272.58,92.6,860.6,3.88,4.03,16.48,128.73,84.2,302.71,309.7,129.31,85.11,302.7,309.47,1.0
2018-08-23 11:46:00,89.53602,5.74462,899.097,272.58,92.6,860.5,3.94,3.9,16.33,128.08,84.54,302.89,309.61,129.68,85.24,302.67,309.5,1.0
2018-08-23 11:46:00,89.53602,5.74461,899.099,272.58,92.6,860.5,3.93,3.86,16.22,128.4,84.4,303.72,309.7,129.89,85.3,302.78,309.72,1.0
2018-08-23 11:46:00,89.53602,5.74459,899.093,272.58,92.6,860.5,3.9,3.73,16.04,128.21,84.33,302.94,309.22,129.97,85.29,302.99,309.86,1.0
2018-08-23 11:46:00,89.53602,5.74458,899.096,272.58,92.6,860.5,3.77,3.68,15.64,126.24,84.47,302.81,309.8,129.92,85.23,303.04,309.92,1.0
2018-08-23 11:46:00,89.53602,5.74457,899.1,272.58,92.6,860.5,3.6,3.65,15.11,127.03,84.4,302.81,309.61,129.78,85.13,303.05,309.97,1.0
2018-08-23 11:46:00,89.53602,5.74455,899.091,272.59,92.6,860.6,3.47,3.58,14.54,127.36,84.33,302.71,309.96,129.59,85.03,303.14,310.04,1.0
2018-08-23 11:46:00,89.53602,5.74454,899.086,272.59,92.6,860.6,3.35,3.48,13.79,129.71,84.33,302.81,310.9,129.36,84.92,303.19,310.08,1.0
2018-08-23 11:46:00,89.53602,5.74453,899.092,272.58,92.6,860.6,3.35,3.32,17.85,127.36,84.54,303.63,309.66,129.11,84.83,303.15,310.08,1.0
2018-08-23 11:46:00,89.53602,5.74451,899.102,272.58,92.6,860.5,3.32,3.33,18.72,128.4,84.33,302.81,309.04,128.84,84.77,303.18,309.97,1.0
2018-08-23 11:46:00,89.53602,5.7445,899.114,272.58,92.6,860.4,3.36,3.31,18.04,127.49,84.61,302.39,308.98,128.55,84.73,303.2,309.79,1.0
2018-08-23 11:46:00,89.53602,5.74449,899.118,272.59,92.6,860.3,3.43,3.15,17.13,128.99,84.33,302.8,309.39,128.22,84.72,303.2,309.61,1.0
2018-08-23 11:46:00,89.53602,5.74448,899.087,272.58,92.6,860.6,3.35,3.04,16.09,127.03,84.33,302.79,309.04,127.86,84.71,303.18,309.42,1.0
2018-08-23 11:46:00,89.53602,5.74447,899.1,272.59,92.6,860.5,3.46,2.91,14.9,128.14,84.54,302.7,309.67,127.45,84.71,303.14,309.13,1.0
2018-08-23 11:46:00,89.53602,5.74446,899.109,272.59,92.6,860.4,3.43,2.75,18.05,128.73,84.54,303.33,308.77,127.02,84.7,303.01,308.97,1.0
2018-08-23 11:46:00,89.53602,5.74445,899.113,272.59,92.6,860.4,3.41,2.66,19.54,128.14,84.47,303.46,308.6,126.59,84.68,303.01,308.98,1.0
2018-08-23 11:46:00,89.53602,5.74444,899.117,272.59,92.6,860.3,3.38,2.66,18.96,127.62,84.4,303.53,309.25,126.18,84.64,303.07,309.1,1.0
2018-08-23 11:46:00,89.53602,5.74442,899.123,272.59,92.6,860.3,3.25,2.69,18.06,127.81,84.54,303.46,309.54,125.84,84.59,303.11,309.2,1.0
2018-08-23 11:46:00,89.53602,5.74441,899.115,272.59,92.6,860.4,3.22,2.59,16.11,127.68,84.61,303.35,309.55,125.59,84.53,303.16,309.22,1.0
2018-08-23 11:46:00,89.53602,5.7444,899.128,272.59,92.6,860.2,3.31,2.64,14.93,127.62,84.4,303.14,309.54,125.46,84.47,303.16,309.32,1.0
2018-08-23 11:46:00,89.53602,5.74439,899.141,272.59,92.6,860.1,3.33,2.56,13.79,127.68,84.47,303.35,310.28,125.46,84.42,303.19,309.53,1.0
2018-08-23 11:46:00,89.53602,5.74438,899.143,272.59,92.6,860.1,3.37,2.56,12.66,127.55,84.47,303.45,310.85,125.59,84.39,303.28,309.77,1.0
2018-08-23 11:46:00,89.53602,5.74437,899.131,272.59,92.6,860.2,3.48,2.67,11.67,127.62,84.47,302.93,310.47,125.83,84.39,303.36,309.94,1.0
2018-08-23 11:46:00,89.53602,5.74436,899.124,272.59,92.6,860.3,3.54,2.5,10.85,127.16,84.54,302.59,309.18,126.16,84.41,303.32,310.04,1.0
2018-08-23 11:46:00,89.53602,5.74435,899.112,272.59,92.6,860.4,3.41,2.76,8.8,128.14,84.33,301.62,309.73,126.54,84.45,303.27,310.11,1.0
2018-08-23 11:46:00,89.53602,5.74433,899.117,272.59,92.6,860.3,3.27,2.56,6.63,126.5,84.47,302.96,310.39,126.93,84.5,303.21,310.15,1.0
2018-08-23 11:46:00,89.53602,5.74431,899.124,272.59,92.6,860.3,3.05,2.51,4.4,127.42,84.54,303.73,310.38,127.31,84.57,303.17,310.12,1.0
2018-08-23 11:46:00,89.53602,5.74428,899.128,272.59,92.6,860.2,2.87,2.63,2.47,127.42,84.4,303.88,310.33,127.65,84.64,303.14,310.06,1.0
2018-08-23 11:46:00,89.53602,5.74426,899.146,272.59,92.6,860.1,2.91,2.54,1.37,128.14,84.33,302.79,310.07,127.91,84.7,303.09,310.07,1.0
2018-08-23 11:46:00,89.53602,5.74424,899.148,272.58,92.6,860.1,2.58,2.64,0.38,128.08,84.61,302.69,310.29,128.09,84.74,303.17,310.21,1.0
2018-08-23 11:46:00,89.53602,5.74421,899.137,272.59,92.6,860.2,2.66,2.5,-1.24,126.9,84.54,302.88,309.68,128.18,84.78,303.3,310.31,1.0
2018-08-23 11:46:00,89.53602,5.74419,899.135,272.59,92.6,860.2,2.78,2.64,-2.7,127.29,84.61,303.29,309.94,128.17,84.8,303.32,310.29,1.0
2018-08-23 11:46:00,89.53602,5.74417,899.142,272.59,92.6,860.1,2.88,2.75,-3.99,127.75,84.4,303.45,310.31,128.07,84.8,303.24,310.23,1.0
2018-08-23 11:46:00,89.53602,5.74414,899.151,272.58,92.6,860.0,2.93,2.61,-5.24,126.57,84.61,302.94,310.64,127.9,84.79,303.17,310.19,1.0
2018-08-23 11:46:00,89.53602,5.74412,899.172,272.59,92.6,859.9,2.86,2.89,-6.28,128.99,84.33,304.26,310.75,127.68,84.77,303.26,310.15,1.0
2018-08-23 11:46:00,89.53602,5.7441,899.16,272.59,92.6,860.0,2.94,2.94,-8.55,127.75,84.61,303.83,310.76,127.42,84.73,303.28,310.12,1.0
2018-08-23 11:46:00,89.53602,5.74408,899.158,272.59,92.6,860.0,3.08,3.14,-9.35,127.16,84.61,303.12,309.77,127.16,84.69,303.27,310.09,1.0
2018-08-23 11:46:00,89.53602,5.74406,899.161,272.59,92.6,860.0,3.23,3.18,-9.75,126.96,84.54,302.9,309.31,126.95,84.63,303.21,310.03,1.0
2018-08-23 11:46:00,89.53602,5.74404,899.158,272.59,92.6,860.0,3.33,3.08,-11.09,127.88,84.47,303.02,309.51,126.81,84.56,303.14,309.95,1.0
2018-08-23 11:46:00,89.53602,5.74402,899.158,272.59,92.6,860.0,3.3,3.28,-14.3,127.75,84.54,303.85,309.51,126.78,84.47,303.08,309.84,1.0
2018-08-23 11:46:00,89.53602,5.74399,899.135,272.59,92.6,860.2,3.58,3.22,-15.26,127.68,84.61,302.8,309.71,126.88,84.37,302.92,309.7,1.0
2018-08-23 11:46:00,89.53602,5.74397,899.138,272.59,92.6,860.2,3.53,3.29,-16.15,128.14,84.54,302.7,309.5,127.11,84.27,302.8,309.58,1.0
2018-08-23 11:46:00,89.53602,5.74395,899.137,272.59,92.6,860.2,3.55,3.44,-16.63,126.44,84.61,302.8,309.4,127.48,84.17,302.74,309.54,1.0
2018-08-23 11:46:00,89.53602,5.74393,899.135,272.58,92.6,860.2,3.55,3.58,-17.35,127.55,84.4,302.99,309.69,127.95,84.07,302.75,309.51,1.0
2018-08-23 11:46:00,89.53602,5.74391,899.164,272.59,92.6,859.9,3.35,3.64,-18.75,127.03,84.54,302.79,309.29,128.47,84.0,302.79,309.48,1.0
2018-08-23 11:46:00,89.53602,5.74389,899.187,272.59,92.6,859.7,3.23,3.54,-18.64,127.81,84.4,302.69,309.17,128.99,83.95,302.82,309.56,1.0
2018-08-23 11:46:00,89.53602,5.74387,899.179,272.59,92.6,859.8,3.04,3.83,-19.03,127.16,84.54,302.6,309.48,129.44,83.95,302.81,309.61,1.0
2018-08-23 11:46:00,89.53602,5.74384,899.155,272.59,92.6,860.0,2.93,3.92,-20.07,127.22,84.54,302.79,309.51,129.76,83.98,302.83,309.6,1.0
2018-08-23 11:46:00,89.53602,5.74382,899.159,272.59,92.6,860.0,2.89,4.0,-20.89,127.94,84.4,303.24,309.16,129.91,84.05,302.87,309.56,1.0
2018-08-23 11:46:00,89.53602,5.7438,899.202,272.59,92.6,859.6,2.88,4.19,-21.0,127.81,84.47,303.42,309.29,129.87,84.16,302.88,309.52,1.0
2018-08-23 11:46:00,89.53602,5.74378,899.164,272.59,92.6,859.9,2.92,4.29,-20.8,128.34,84.2,303.87,310.57,129.64,84.3,302.88,309.52,1.0
2018-08-23 11:46:00,89.53602,5.74375,899.163,272.59,92.6,859.9,3.17,4.19,-21.95,128.47,84.4,302.5,310.3,129.24,84.46,302.87,309.64,1.0
2018-08-23 11:46:00,89.53602,5.74373,899.168,272.58,92.6,859.9,3.35,4.12,-23.35,128.14,84.4,302.93,309.6,128.72,84.62,302.87,309.77,1.0
