Date/Time,Latitude,Longitude,PPPP [hPa],TTT grad [K],RH [%],Height [m],Pitch [deg],Roll [deg],Yaw [deg],SWD [W/m**2] (raw),SWU [W/m**2] (raw),LWD [W/m**2] (raw),LWU [W/m**2] (raw),SWD [W/m**2] (corrected),SWU [W/m**2] (corrected),LWD [W/m**2] (corrected),LWU [W/m**2] (corrected),Flag
2018-08-23 11:28:00,89.53406,5.42017,1002.314,273.33,96.0,1.6,4.47,1.45,-65.78,81.81,48.72,309.82,318.1,82.22,49.3,309.84,318.4,0.0
2018-08-23 11:28:00,89.53406,5.42018,1002.304,273.33,96.0,1.7,4.58,1.54,-66.16,82.46,48.86,309.09,317.7,82.54,49.5,309.76,318.43,0.0
2018-08-23 11:28:00,89.53406,5.42019,1002.314,273.33,96.0,1.7,4.56,1.62,-66.43,82.4,48.79,309.37,318.47,82.87,49.73,309.7,318.55,0.0
2018-08-23 11:28:00,89.53406,5.42019,1002.341,273.34,96.0,1.4,4.56,1.63,-66.69,83.44,48.86,310.15,318.68,83.14,50.0,309.64,318.68,0.0
2018-08-23 11:28:00,89.53406,5.4202,1002.332,273.34,96.0,1.5,4.24,1.5,-66.9,83.12,48.93,308.94,318.93,83.28,50.28,309.54,318.73,0.0
2018-08-23 11:28:00,89.53406,5.42021,1002.372,273.34,96.0,1.2,3.79,1.61,-66.7,81.22,49.0,309.94,319.05,83.25,50.57,309.41,318.76,0.0
2018-08-23 11:28:00,89.53406,5.42022,1002.367,273.34,96.0,1.2,3.69,1.51,-66.77,84.1,49.14,309.77,318.97,83.03,50.85,309.27,318.75,0.0
2018-08-23 11:28:00,89.53406,5.42023,1002.349,273.34,96.0,1.4,3.86,1.54,-66.59,82.72,49.14,309.81,319.55,82.65,51.12,309.22,318.74,0.0
2018-08-23 11:28:00,89.53406,5.42024,1002.343,273.34,96.0,1.4,4.18,1.57,-66.13,83.05,49.14,309.53,320.15,82.15,51.37,309.18,318.73,0.0
2018-08-23 11:28:00,89.53406,5.42026,1002.336,273.33,96.0,1.5,4.42,1.37,-65.7,82.85,49.21,308.9,318.84,81.61,51.61,309.1,318.69,0.0
2018-08-23 11:28:00,89.53406,5.42027,1002.324,273.33,96.0,1.6,4.03,1.83,-65.41,83.05,49.34,308.5,318.17,81.13,51.86,309.14,318.63,0.0
2018-08-23 11:28:00,89.53406,5.42028,1002.304,273.32,96.0,1.7,4.23,1.54,-65.56,83.18,49.34,308.51,318.01,80.77,52.13,309.08,318.57,0.0
2018-08-23 11:28:00,89.53406,5.42029,1002.296,273.32,96.0,1.8,3.95,1.75,-65.53,83.12,49.41,308.44,318.27,80.6,52.43,309.07,318.49,0.0
2018-08-23 11:28:00,89.53406,5.4203,1002.298,273.33,96.0,1.8,3.64,1.98,-65.26,82.13,49.48,308.82,318.35,80.64,52.78,309.04,318.29,0.0
2018-08-23 11:28:00,89.53406,5.42031,1002.293,273.32,96.0,1.8,3.72,1.84,-64.88,82.0,49.69,309.19,318.58,80.89,53.18,308.94,318.05,0.0
2018-08-23 11:28:00,89.53406,5.42032,1002.276,273.33,96.0,2.0,3.47,2.34,-64.6,82.2,49.62,309.04,318.2,81.3,53.63,308.74,317.88,0.0
2018-08-23 11:28:00,89.53406,5.42033,1002.278,273.32,96.0,1.9,3.13,2.18,-64.27,81.54,49.62,308.96,318.22,81.82,54.11,308.67,317.7,0.0
2018-08-23 11:28:00,89.53406,5.42034,1002.277,273.32,96.0,1.9,2.77,2.47,-64.09,81.81,49.62,308.97,317.78,82.35,54.62,308.75,317.57,0.0
2018-08-23 11:28:00,89.53406,5.42035,1002.258,273.32,96.0,2.1,2.17,2.72,-63.54,83.51,50.04,309.04,317.07,82.83,55.13,308.85,317.57,0.0
2018-08-23 11:28:00,89.53406,5.42036,1002.227,273.31,96.0,2.3,1.61,2.91,-62.69,83.12,50.31,308.32,317.34,83.2,55.62,308.93,317.65,0.0
2018-08-23 11:28:00,89.53406,5.42038,1002.221,273.32,96.0,2.4,1.71,3.61,-62.23,82.2,50.24,306.77,316.83,83.43,56.06,309.0,317.71,0.0
2018-08-23 11:28:00,89.53406,5.42039,1002.224,273.32,96.0,2.4,2.32,4.09,-61.46,82.72,50.66,307.92,316.59,83.53,56.45,308.96,317.65,0.0
2018-08-23 11:28:00,89.53406,5.4204,1002.243,273.32,96.0,2.2,1.52,4.73,-60.83,82.72,50.66,309.84,317.2,83.52,56.78,308.59,317.56,0.0
2018-08-23 11:28:00,89.53406,5.42041,1002.233,273.32,96.0,2.3,1.84,5.19,-60.12,81.94,50.93,310.38,318.39,83.46,57.06,308.45,317.55,0.0
2018-08-23 11:28:00,89.53406,5.42042,1002.21,273.32,96.0,2.5,2.42,5.1,-59.53,83.57,50.86,310.14,319.5,83.4,57.28,308.54,317.63,0.0
2018-08-23 11:28:00,89.53406,5.42043,1002.222,273.32,96.0,2.4,1.97,4.56,-59.3,82.72,51.14,310.36,319.63,83.38,57.47,308.74,317.77,0.0
2018-08-23 11:28:00,89.53406,5.42044,1002.194,273.32,96.0,2.6,2.93,5.37,-58.86,82.13,51.14,308.75,317.66,83.44,57.64,309.13,317.96,0.0
2018-08-23 11:28:00,89.53406,5.42045,1002.198,273.32,96.0,2.6,4.1,5.48,-58.82,83.57,51.48,304.65,317.35,83.59,57.81,309.38,318.14,0.0
2018-08-23 11:28:00,89.53406,5.42046,1002.199,273.32,96.0,2.6,4.13,6.06,-58.29,82.13,51.69,307.3,317.65,83.79,57.99,309.45,318.21,0.0
2018-08-23 11:28:00,89.53406,5.42047,1002.203,273.32,96.0,2.5,4.3,6.42,-57.99,81.94,51.69,309.74,318.06,84.02,58.18,309.46,318.12,0.0
2018-08-23 11:28:00,89.53406,5.42048,1002.212,273.32,96.0,2.5,4.91,6.37,-58.1,82.2,51.9,310.02,318.66,84.2,58.38,309.43,317.93,0.0
2018-08-23 11:28:00,89.53406,5.42049,1002.18,273.32,96.0,2.7,4.58,6.74,-57.74,83.05,52.17,310.46,319.21,84.29,58.58,309.31,317.73,0.0
2018-08-23 11:28:00,89.53406,5.4205,1002.153,273.32,96.0,2.9,4.76,6.0,-57.94,83.25,52.38,310.46,319.11,84.22,58.78,309.16,317.63,0.0
2018-08-23 11:28:00,89.53406,5.42051,1002.134,273.31,96.0,3.1,5.54,5.74,-58.09,83.31,52.38,310.58,318.26,83.99,58.95,309.48,317.65,0.0
2018-08-23 11:28:00,89.53406,5.42052,1002.138,273.31,96.0,3.1,5.47,5.59,-58.38,83.12,52.52,310.2,318.24,83.58,59.1,309.61,317.67,0.0
2018-08-23 11:28:00,89.53406,5.42053,1002.156,273.32,96.0,2.9,5.26,5.62,-58.71,82.98,52.73,310.25,318.3,83.03,59.2,309.59,317.71,0.0
2018-08-23 11:28:00,89.53406,5.42054,1002.152,273.31,96.0,2.9,6.12,6.01,-58.87,82.85,52.93,309.54,318.17,82.4,59.27,309.65,317.8,0.0
2018-08-23 11:28:00,89.53406,5.42055,1002.155,273.31,96.0,2.9,5.28,5.76,-59.14,82.98,53.0,307.82,317.34,81.76,59.31,309.7,317.88,0.0
2018-08-23 11:28:00,89.53406,5.42056,1002.151,273.31,96.0,3.0,5.49,5.63,-59.51,83.9,53.28,309.13,318.26,81.18,59.33,309.62,317.85,0.0
2018-08-23 11:28:00,89.53406,5.42056,1002.141,273.31,96.0,3.0,4.97,5.8,-60.12,82.13,53.48,309.33,318.58,80.73,59.35,309.62,317.89,0.0
2018-08-23 11:28:00,89.53406,5.42057,1002.128,273.31,96.0,3.1,4.29,5.83,-60.59,82.85,53.48,310.4,319.23,80.43,59.39,309.72,318.0,0.0
2018-08-23 11:28:00,89.53406,5.42058,1002.11,273.31,96.0,3.3,4.19,5.64,-60.87,82.79,53.9,311.02,320.07,80.31,59.47,309.85,318.14,0.0
2018-08-23 11:28:00,89.53406,5.42059,1002.089,273.31,96.0,3.4,4.69,6.05,-61.83,82.33,53.9,310.94,319.82,80.36,59.59,309.91,318.1,0.0
2018-08-23 11:28:00,89.53406,5.4206,1002.101,273.3,96.0,3.4,4.01,6.33,-62.63,81.28,53.9,309.3,318.4,80.54,59.78,310.16,318.21,0.0
2018-08-23 11:28:00,89.53406,5.42061,1002.103,273.3,96.0,3.3,3.65,6.62,-63.61,82.92,54.18,309.68,318.23,80.8,60.01,310.33,318.41,0.0
2018-08-23 11:28:00,89.53406,5.42062,1002.09,273.3,96.0,3.4,3.76,6.81,-64.73,82.33,54.04,310.54,319.07,81.1,60.29,310.44,318.54,0.0
2018-08-23 11:28:00,89.53406,5.42064,1002.069,273.3,96.0,3.6,4.06,6.95,-65.86,82.13,54.11,310.69,319.0,81.4,60.6,310.45,318.54,0.0
2018-08-23 11:28:00,89.53406,5.42066,1002.043,273.3,96.0,3.8,3.42,7.43,-66.84,82.59,54.38,309.47,317.11,81.67,60.9,310.35,318.48,0.0
2018-08-23 11:28:00,89.53406,5.42067,1002.022,273.3,96.0,4.0,3.6,7.41,-67.38,82.98,54.8,309.9,318.55,81.89,61.19,310.26,318.4,0.0
2018-08-23 11:28:00,89.53406,5.42069,1002.007,273.31,96.0,4.1,3.37,7.82,-68.26,83.18,55.07,310.7,320.06,82.08,61.45,310.42,318.54,0.0
2018-08-23 11:28:00,89.53406,5.42071,1001.998,273.31,96.0,4.2,2.87,7.89,-69.09,82.4,55.21,310.78,319.69,82.26,61.64,310.55,318.65,0.0
2018-08-23 11:28:00,89.53406,5.42073,1001.979,273.31,96.0,4.3,2.29,8.06,-70.1,82.13,55.35,310.49,319.16,82.45,61.76,310.56,318.68,0.0
2018-08-23 11:28:00,89.53406,5.42074,1001.937,273.31,96.0,4.7,1.87,8.66,-71.37,82.13,55.42,310.3,318.94,82.67,61.81,310.51,318.67,0.0
2018-08-23 11:28:00,89.53406,5.42076,1001.94,273.3,96.0,4.6,2.18,8.45,-71.98,81.87,55.56,310.37,318.72,82.93,61.79,310.58,318.81,0.0
2018-08-23 11:28:00,89.53406,5.42077,1001.937,273.3,96.0,4.7,2.1,8.74,-72.42,82.13,55.62,311.17,319.69,83.24,61.7,310.59,318.76,0.0
2018-08-23 11:28:00,89.53406,5.42079,1001.93,273.3,96.0,4.7,2.3,8.7,-72.97,81.81,55.97,311.65,319.33,83.56,61.57,310.62,318.54,0.0
2018-08-23 11:28:00,89.53406,5.4208,1001.92,273.3,96.0,4.8,2.27,8.57,-73.64,82.85,56.04,311.14,318.53,83.86,61.41,310.7,318.41,0.0
2018-08-23 11:28:00,89.53406,5.42081,1001.912,273.3,96.0,4.9,1.99,8.46,-74.48,83.12,56.04,310.44,318.63,84.11,61.23,310.81,318.34,0.0
2018-08-23 11:28:00,89.53406,5.42083,1001.918,273.3,96.0,4.8,2.3,8.21,-75.62,82.33,56.38,310.42,318.57,84.27,61.06,310.92,318.21,0.0
2018-08-23 11:28:00,89.53406,5.42084,1001.894,273.3,96.0,5.0,2.26,7.98,-76.68,82.98,56.38,310.15,317.88,84.3,60.92,310.98,318.26,0.0
2018-08-23 11:28:00,89.53406,5.42085,1001.882,273.29,96.0,5.1,2.4,7.65,-77.75,82.72,56.52,311.24,317.8,84.22,60.81,310.96,318.07,0.0
2018-08-23 11:28:00,89.53406,5.42086,1001.88,273.29,96.0,5.1,2.44,7.6,-78.41,82.72,56.45,311.33,318.6,84.02,60.75,310.8,317.99,0.0
2018-08-23 11:28:00,89.53406,5.42088,1001.875,273.29,96.0,5.2,2.13,7.47,-78.88,82.98,56.8,311.62,318.26,83.74,60.74,310.69,317.96,0.0
2018-08-23 11:28:00,89.53406,5.42089,1001.847,273.3,96.0,5.4,1.45,6.84,-79.58,83.05,56.73,311.38,318.05,83.42,60.77,310.8,317.86,0.0
2018-08-23 11:28:00,89.53406,5.4209,1001.834,273.29,95.9,5.5,1.09,7.15,-79.69,82.07,56.94,311.0,319.55,83.12,60.85,310.83,317.91,0.0
2018-08-23 11:28:00,89.53406,5.42092,1001.84,273.29,95.9,5.4,0.45,7.19,-80.31,82.85,57.07,311.48,317.86,82.88,60.97,310.73,317.97,0.0
2018-08-23 11:28:00,89.53406,5.42093,1001.824,273.29,95.9,5.6,0.39,7.55,-80.32,82.85,56.94,310.02,318.4,82.73,61.11,310.69,318.09,0.0
2018-08-23 11:28:00,89.53406,5.42095,1001.816,273.29,95.9,5.6,0.52,7.77,-80.29,82.79,57.14,309.78,318.3,82.69,61.26,310.69,318.12,0.0
2018-08-23 11:28:00,89.53406,5.42097,1001.854,273.28,95.9,5.3,0.44,7.55,-80.61,83.31,57.21,311.49,317.86,82.76,61.41,310.66,318.07,0.0
2018-08-23 11:28:00,89.53406,5.42099,1001.824,273.28,95.9,5.6,0.44,7.42,-80.31,81.81,57.21,310.61,319.38,82.89,61.54,310.61,318.09,0.0
2018-08-23 11:28:00,89.53406,5.421,1001.786,273.27,95.9,5.9,0.25,8.53,-80.47,82.59,57.42,308.99,318.44,83.05,61.65,310.63,317.96,0.0
2018-08-23 11:28:00,89.53406,5.42102,1001.775,273.27,95.9,5.9,0.24,9.03,-79.9,82.98,57.76,310.32,319.08,83.19,61.73,310.61,318.0,0.0
2018-08-23 11:28:00,89.53406,5.42104,1001.771,273.27,95.9,6.0,0.08,9.44,-79.3,82.79,57.76,311.55,319.1,83.26,61.78,310.71,317.99,0.0
2018-08-23 11:28:00,89.53406,5.42106,1001.758,273.27,95.9,6.1,-0.14,9.71,-78.68,82.72,57.97,311.16,318.08,83.22,61.78,310.79,317.96,0.0
2018-08-23 11:28:00,89.53406,5.42108,1001.762,273.27,95.9,6.1,0.12,9.27,-77.42,83.18,57.9,310.95,318.47,83.07,61.75,310.7,318.01,0.0
2018-08-23 11:28:00,89.53406,5.4211,1001.746,273.27,95.9,6.2,1.36,10.45,-76.62,83.12,57.97,311.44,318.43,82.81,61.7,310.69,317.93,0.0
2018-08-23 11:28:00,89.53406,5.42112,1001.719,273.26,95.9,6.4,2.17,9.95,-75.55,82.72,58.18,311.0,318.49,82.47,61.62,310.83,317.93,0.0
2018-08-23 11:28:00,89.53406,5.42114,1001.705,273.26,95.9,6.5,2.7,10.36,-74.64,83.05,58.04,311.19,318.52,82.1,61.53,310.85,317.88,0.0
2018-08-23 11:28:00,89.53406,5.42115,1001.699,273.26,95.9,6.6,2.46,10.87,-73.73,83.12,58.18,310.79,318.7,81.73,61.44,310.8,317.86,0.0
2018-08-23 11:28:00,89.53406,5.42118,1001.675,273.25,95.9,6.7,1.24,10.36,-72.52,81.81,58.32,310.63,318.34,81.43,61.37,310.73,317.96,0.0
2018-08-23 11:28:00,89.53406,5.4212,1001.671,273.26,95.9,6.8,0.4,11.43,-70.98,82.46,58.59,310.51,318.34,81.21,61.31,310.6,318.09,0.0
2018-08-23 11:28:00,89.53406,5.42122,1001.671,273.26,95.9,6.8,-0.99,11.22,-69.33,82.98,58.45,310.23,318.44,81.1,61.28,310.65,318.15,0.0
2018-08-23 11:28:00,89.53406,5.42124,1001.667,273.25,95.9,6.8,-0.89,11.46,-67.41,82.13,58.45,310.24,318.34,81.08,61.28,310.6,318.19,0.0
2018-08-23 11:28:00,89.53406,5.42126,1001.655,273.25,95.9,6.9,-0.55,11.81,-65.66,83.51,58.73,310.24,318.34,81.14,61.31,310.53,318.25,0.0
2018-08-23 11:28:00,89.53406,5.42128,1001.635,273.25,95.9,7.1,-0.4,12.11,-64.1,82.53,58.52,310.14,318.54,81.23,61.37,310.53,318.34,0.0
2018-08-23 11:28:00,89.53406,5.4213,1001.628,273.25,95.9,7.1,0.81,12.8,-62.24,81.87,58.8,308.99,319.41,81.31,61.46,310.55,318.39,0.0
2018-08-23 11:28:00,89.53406,5.42132,1001.626,273.25,95.9,7.1,-0.35,13.05,-61.2,83.12,58.8,311.24,318.53,81.34,61.56,310.52,318.43,0.0
2018-08-23 11:28:00,89.53406,5.42134,1001.596,273.25,95.8,7.4,0.91,13.08,-59.24,82.72,58.87,310.49,318.24,81.32,61.67,310.43,318.38,0.0
2018-08-23 11:28:00,89.53406,5.42136,1001.563,273.25,95.8,7.6,1.43,13.33,-57.64,81.81,58.94,309.98,318.49,81.22,61.77,310.3,318.29,0.0
2018-08-23 11:28:00,89.53406,5.42138,1001.544,273.25,95.8,7.8,1.52,13.36,-56.54,82.92,59.01,310.79,318.59,81.08,61.87,310.2,318.24,0.0
2018-08-23 11:28:00,89.53406,5.42142,1001.535,273.25,95.8,7.9,3.21,12.49,-55.43,79.84,59.01,310.72,318.17,80.95,61.96,310.22,318.26,0.0
2018-08-23 11:28:00,89.53407,5.42149,1001.519,273.26,95.8,8.0,2.85,13.25,-54.19,83.05,59.08,310.55,318.42,80.86,62.02,310.42,318.31,0.0
2018-08-23 11:28:00,89.53407,5.42156,1001.523,273.25,95.8,8.0,3.35,12.2,-53.39,83.7,59.35,309.76,317.38,80.89,62.06,310.41,318.26,0.0
2018-08-23 11:28:00,89.53407,5.42163,1001.544,273.25,95.8,7.8,3.69,12.09,-52.63,82.79,59.42,309.37,316.87,81.07,62.07,310.48,318.3,0.0
2018-08-23 11:28:00,89.53407,5.4217,1001.544,273.25,95.8,7.8,3.56,12.06,-52.16,82.53,59.42,309.68,317.55,81.44,62.05,310.6,318.28,0.0
2018-08-23 11:28:00,89.53407,5.42177,1001.49,273.25,95.8,8.2,3.11,11.3,-52.19,82.0,59.42,310.58,318.96,81.98,62.01,310.72,318.15,0.0
2018-08-23 11:28:00,89.53407,5.42184,1001.496,273.26,95.8,8.2,3.13,11.72,-52.4,81.54,59.42,311.24,319.5,82.67,61.96,310.8,318.08,0.0
2018-08-23 11:28:00,89.53407,5.42191,1001.465,273.26,95.8,8.4,1.48,11.61,-52.68,81.41,59.63,311.15,317.66,83.44,61.89,310.93,318.01,0.0
2018-08-23 11:28:00,89.53407,5.42198,1001.444,273.26,95.8,8.6,1.9,11.34,-52.75,82.26,59.63,310.91,318.62,84.21,61.83,311.04,318.03,0.0
2018-08-23 11:28:00,89.53407,5.42205,1001.425,273.26,95.8,8.7,1.76,11.41,-53.06,82.13,59.63,311.25,318.13,84.89,61.77,311.2,318.11,0.0
2018-08-23 11:28:00,89.53407,5.42212,1001.406,273.26,95.8,8.9,0.85,11.45,-53.71,81.61,59.7,311.8,317.33,85.38,61.72,311.38,318.2,0.0
2018-08-23 11:28:00,89.53407,5.42219,1001.434,273.26,95.8,8.7,1.52,10.53,-54.4,81.74,60.04,311.67,317.15,85.61,61.7,311.47,318.24,0.0
2018-08-23 11:28:00,89.53407,5.42226,1001.424,273.26,95.8,8.7,0.84,11.44,-55.27,84.16,59.7,311.66,317.29,85.55,61.69,311.48,318.08,0.0
2018-08-23 11:28:00,89.53407,5.42232,1001.444,273.26,95.8,8.6,0.98,11.27,-56.23,83.51,59.9,310.55,317.49,85.19,61.7,311.49,318.09,0.0
2018-08-23 11:28:00,89.53407,5.42239,1001.451,273.26,95.8,8.5,0.63,11.2,-57.44,83.51,59.83,310.98,317.82,84.55,61.73,311.52,318.03,0.0
2018-08-23 11:28:00,89.53407,5.42246,1001.431,273.26,95.8,8.7,0.03,11.18,-58.97,82.92,59.9,311.38,318.51,83.72,61.77,311.43,318.03,0.0
2018-08-23 11:28:00,89.53407,5.42254,1001.407,273.26,95.8,8.9,-0.08,10.81,-60.71,82.13,59.83,311.66,319.68,82.77,61.82,311.23,318.13,0.0
2018-08-23 11:28:00,89.53407,5.42263,1001.375,273.26,95.8,9.1,0.21,10.67,-62.61,82.2,60.11,311.56,318.04,81.82,61.86,311.19,318.17,0.0
2018-08-23 11:28:00,89.53408,5.42272,1001.37,273.26,95.8,9.2,-0.07,10.74,-64.66,83.57,60.11,311.5,318.47,80.96,61.89,311.1,318.23,0.0
2018-08-23 11:28:00,89.53408,5.4228,1001.359,273.26,95.8,9.3,0.22,10.49,-66.47,82.2,60.25,311.35,318.32,80.28,61.9,311.07,318.28,0.0
2018-08-23 11:28:00,89.53408,5.42289,1001.349,273.26,95.8,9.3,0.2,10.42,-68.11,82.26,60.25,310.52,318.94,79.84,61.88,311.05,318.3,0.0
2018-08-23 11:28:00,89.53408,5.42298,1001.343,273.26,95.8,9.4,-0.34,10.6,-69.73,83.57,60.18,309.85,318.67,79.66,61.83,311.0,318.28,0.0
2018-08-23 11:28:00,89.53408,5.42306,1001.287,273.26,95.8,9.8,0.02,10.14,-71.29,82.07,60.32,311.29,318.5,79.75,61.75,310.87,318.21,0.0
2018-08-23 11:28:00,89.53408,5.42315,1001.302,273.26,95.8,9.7,-0.37,10.29,-73.06,82.2,60.25,310.82,318.52,80.08,61.64,310.64,318.29,0.0
2018-08-23 11:28:00,89.53408,5.42324,1001.295,273.25,95.8,9.8,-0.17,10.06,-74.57,81.28,60.25,310.46,318.33,80.58,61.52,310.51,318.33,0.0
2018-08-23 11:28:00,89.53408,5.42332,1001.27,273.25,95.8,10.0,-0.08,10.0,-75.79,82.98,60.46,310.62,318.33,81.2,61.39,310.43,318.33,0.0
2018-08-23 11:28:00,89.53408,5.42338,1001.249,273.25,95.8,10.1,-0.06,10.05,-76.96,81.74,60.32,311.18,318.13,81.86,61.27,310.45,318.32,0.0
2018-08-23 11:28:00,89.53408,5.42344,1001.254,273.24,95.8,10.1,0.48,9.78,-78.31,81.35,60.52,310.15,318.37,82.51,61.15,310.55,318.32,0.0
2018-08-23 11:28:00,89.53408,5.42351,1001.26,273.24,95.8,10.1,0.79,9.83,-79.41,83.12,60.32,309.08,318.83,83.11,61.06,310.38,318.29,0.0
2018-08-23 11:28:00,89.53408,5.42357,1001.252,273.24,95.8,10.1,1.16,9.95,-80.34,82.13,60.52,309.93,318.45,83.6,61.0,310.23,318.19,0.0
2018-08-23 11:28:00,89.53408,5.42363,1001.229,273.24,95.8,10.3,1.42,9.99,-80.96,82.4,60.46,310.59,318.49,83.99,60.96,310.18,318.12,0.0
2018-08-23 11:28:00,89.53408,5.42369,1001.203,273.23,95.7,10.5,1.42,10.11,-81.51,82.92,60.52,310.76,318.69,84.26,60.96,310.1,318.06,0.0
2018-08-23 11:28:00,89.53408,5.42375,1001.19,273.23,95.7,10.6,1.18,10.4,-82.2,82.07,60.32,310.82,318.8,84.41,60.98,309.96,318.01,0.0
2018-08-23 11:28:00,89.53408,5.42382,1001.169,273.23,95.7,10.8,1.11,10.27,-82.66,82.59,60.32,309.31,318.03,84.47,61.02,309.97,317.98,0.0
2018-08-23 11:28:00,89.53408,5.42388,1001.167,273.22,95.7,10.8,0.96,10.57,-82.92,83.38,60.52,308.98,317.57,84.44,61.06,310.1,317.83,0.0
2018-08-23 11:28:00,89.53408,5.42394,1001.162,273.22,95.7,10.8,0.85,10.77,-82.88,82.66,60.59,309.87,318.05,84.33,61.11,310.16,317.72,0.0
2018-08-23 11:28:00,89.53408,5.424,1001.155,273.22,95.7,10.9,0.76,11.08,-82.46,80.89,60.52,309.75,318.32,84.17,61.14,310.18,317.63,0.0
2018-08-23 11:28:00,89.53408,5.42404,1001.147,273.21,95.7,11.0,0.83,11.61,-81.74,82.66,60.32,309.55,317.8,83.97,61.17,310.18,317.55,0.0
2018-08-23 11:28:00,89.53408,5.42407,1001.115,273.21,95.7,11.2,1.42,12.03,-81.05,83.38,60.73,310.33,318.3,83.76,61.18,310.18,317.45,0.0
2018-08-23 11:28:00,89.53408,5.42409,1001.122,273.21,95.7,11.1,1.99,11.97,-80.26,83.38,60.59,310.7,317.11,83.55,61.17,310.32,317.41,0.0
2018-08-23 11:28:00,89.53408,5.42412,1001.121,273.21,95.7,11.2,2.57,12.05,-79.33,82.79,60.66,310.79,316.9,83.36,61.16,310.53,317.42,0.0
2018-08-23 11:28:00,89.53408,5.42414,1001.121,273.21,95.7,11.2,3.15,12.07,-78.31,82.0,60.52,310.78,317.02,83.21,61.14,310.62,317.47,0.0
2018-08-23 11:28:00,89.53408,5.42417,1001.103,273.21,95.7,11.3,3.74,12.07,-77.16,82.98,60.52,310.99,316.75,83.13,61.12,310.72,317.49,0.0
2018-08-23 11:28:00,89.53408,5.4242,1001.032,273.21,95.7,11.9,4.26,12.18,-75.86,83.51,60.66,311.03,316.79,83.11,61.11,310.92,317.46,0.0
2018-08-23 11:28:00,89.53408,5.42422,1001.038,273.21,95.7,11.8,4.36,12.02,-74.54,83.38,60.59,311.07,316.69,83.16,61.1,311.02,317.4,0.0
2018-08-23 11:28:00,89.53408,5.42425,1001.031,273.2,95.7,11.9,4.71,11.92,-73.2,82.2,60.73,311.47,316.98,83.25,61.11,311.11,317.43,0.0
2018-08-23 11:28:00,89.53408,5.42427,1001.019,273.2,95.7,12.0,4.74,11.78,-71.86,82.13,60.66,311.05,317.63,83.36,61.11,311.19,317.46,0.0
2018-08-23 11:28:00,89.53408,5.4243,1001.004,273.21,95.7,12.1,4.56,11.52,-70.54,82.79,60.66,310.85,317.8,83.44,61.12,311.26,317.51,0.0
2018-08-23 11:28:00,89.53408,5.42432,1000.986,273.21,95.7,12.2,4.28,11.17,-69.17,83.05,60.66,311.6,317.68,83.47,61.13,311.31,317.58,0.0
2018-08-23 11:28:00,89.53408,5.42435,1000.967,273.21,95.7,12.4,3.81,10.93,-67.6,81.87,60.73,311.4,317.78,83.38,61.13,311.33,317.66,0.0
2018-08-23 11:28:00,89.53408,5.42441,1000.976,273.21,95.7,12.3,3.64,10.9,-66.75,82.46,60.46,311.02,317.83,83.17,61.12,311.31,317.77,0.0
2018-08-23 11:28:00,89.53408,5.42449,1000.971,273.21,95.7,12.4,3.77,10.58,-65.6,83.9,60.73,311.34,317.77,82.81,61.1,311.23,317.92,0.0
2018-08-23 11:28:00,89.53408,5.42457,1000.949,273.21,95.7,12.5,3.89,10.43,-64.55,83.18,60.87,311.31,318.42,82.31,61.07,311.18,317.99,0.0
2018-08-23 11:28:00,89.53408,5.42465,1000.928,273.21,95.7,12.7,4.14,10.32,-63.76,83.7,60.59,311.15,318.07,81.72,61.03,311.13,318.07,0.0
2018-08-23 11:28:00,89.53408,5.42473,1000.955,273.21,95.7,12.5,4.81,9.72,-63.19,82.26,60.87,310.86,318.44,81.07,61.01,311.04,318.25,0.0
2018-08-23 11:28:00,89.53408,5.42481,1000.956,273.21,95.7,12.5,4.47,9.63,-62.72,83.9,60.87,310.8,318.4,80.45,61.0,310.95,318.38,0.0
2018-08-23 11:28:00,89.53408,5.42489,1000.922,273.22,95.7,12.7,4.74,9.36,-62.33,83.05,60.8,310.45,318.57,79.91,61.01,310.92,318.65,0.0
2018-08-23 11:28:00,89.53408,5.42497,1000.893,273.22,95.7,13.0,5.06,9.26,-62.15,81.02,60.73,310.27,318.11,79.53,61.05,310.83,318.8,0.0
2018-08-23 11:28:00,89.53408,5.42505,1000.891,273.22,95.7,13.0,5.29,9.17,-62.25,81.48,60.66,310.45,318.12,79.36,61.12,310.73,318.84,0.0
2018-08-23 11:28:00,89.53408,5.42513,1000.919,273.22,95.7,12.8,5.48,8.94,-62.64,83.57,60.59,310.6,318.8,79.42,61.21,310.68,318.82,0.0
2018-08-23 11:28:00,89.53408,5.42521,1000.89,273.22,95.7,13.0,5.96,9.02,-63.13,82.4,60.73,310.48,318.02,79.72,61.32,310.66,318.76,0.0
2018-08-23 11:28:00,89.53408,5.42529,1000.866,273.22,95.7,13.2,6.33,9.21,-63.69,81.68,60.8,311.09,319.8,80.24,61.43,310.66,318.67,0.0
2018-08-23 11:28:00,89.53408,5.42537,1000.859,273.22,95.7,13.3,6.13,9.12,-64.54,82.2,60.8,310.37,319.2,80.92,61.52,310.75,318.58,0.0
2018-08-23 11:28:00,89.53409,5.42544,1000.842,273.22,95.7,13.4,6.14,9.04,-65.26,82.13,60.8,310.18,318.41,81.7,61.59,310.84,318.5,0.0
2018-08-23 11:28:00,89.53409,5.4255,1000.81,273.23,95.7,13.6,6.32,9.13,-65.91,81.87,60.94,310.54,318.36,82.51,61.62,310.82,318.38,0.0
2018-08-23 11:28:00,89.53409,5.42557,1000.814,273.23,95.7,13.6,5.85,9.27,-66.81,82.66,60.94,310.56,318.26,83.28,61.6,310.71,318.17,0.0
2018-08-23 11:28:00,89.53409,5.42564,1000.781,273.23,95.7,13.9,6.47,9.28,-67.53,82.53,60.94,310.36,318.37,83.94,61.52,310.7,318.12,0.0
2018-08-23 11:28:00,89.53409,5.42571,1000.785,273.23,95.7,13.8,6.48,9.44,-68.51,81.61,61.08,310.99,318.37,84.46,61.39,310.63,317.85,0.0
2018-08-23 11:28:00,89.53409,5.42578,1000.788,273.23,95.7,13.8,6.83,9.57,-69.56,82.92,60.73,310.94,318.55,84.8,61.21,310.6,317.65,0.0
2018-08-23 11:28:00,89.53409,5.42585,1000.781,273.24,95.7,13.9,6.76,9.84,-70.74,82.13,61.01,310.12,317.85,84.96,60.99,310.59,317.54,0.0
2018-08-23 11:28:00,89.53409,5.42592,1000.776,273.24,95.7,13.9,5.63,10.3,-72.16,83.18,60.94,309.17,316.9,84.95,60.75,310.55,317.45,0.0
2018-08-23 11:28:00,89.53409,5.42599,1000.798,273.24,95.7,13.7,5.56,10.13,-73.58,82.4,60.94,310.52,318.14,84.78,60.51,310.5,317.39,0.0
2018-08-23 11:28:00,89.53409,5.42606,1000.758,273.24,95.7,14.1,4.87,10.39,-75.14,81.81,60.87,310.6,317.33,84.49,60.28,310.53,317.39,0.0
2018-08-23 11:28:00,89.53409,5.42612,1000.762,273.23,95.7,14.0,4.23,10.19,-76.46,83.18,60.87,310.81,316.88,84.1,60.09,310.48,317.41,0.0
2018-08-23 11:28:00,89.53409,5.42619,1000.764,273.23,95.7,14.0,3.75,10.11,-78.0,83.05,60.94,310.72,317.09,83.65,59.94,310.43,317.41,0.0
2018-08-23 11:28:00,89.53409,5.42626,1000.718,273.22,95.7,14.4,3.43,10.24,-79.75,83.57,60.87,310.88,317.06,83.16,59.85,310.49,317.44,0.0
2018-08-23 11:28:00,89.53409,5.42633,1000.724,273.22,95.7,14.3,3.3,9.84,-80.85,82.4,60.94,310.94,317.37,82.66,59.82,310.67,317.58,0.0
2018-08-23 11:28:00,89.53409,5.4264,1000.707,273.21,95.6,14.5,3.91,10.16,-82.17,83.18,60.66,311.85,318.11,82.16,59.85,310.77,317.77,0.0
2018-08-23 11:28:00,89.53409,5.42646,1000.676,273.21,95.6,14.7,3.71,10.19,-83.27,82.07,60.66,311.35,318.35,81.69,59.94,310.93,317.98,0.0
2018-08-23 11:28:00,89.53409,5.42652,1000.678,273.21,95.6,14.7,2.87,10.17,-84.04,82.07,60.46,311.01,318.14,81.25,60.07,310.98,318.17,0.0
2018-08-23 11:28:00,89.53409,5.42659,1000.694,273.21,95.6,14.6,1.88,10.25,-84.72,83.38,60.66,310.7,317.82,80.86,60.23,310.95,318.37,0.0
2018-08-23 11:28:00,89.53409,5.42665,1000.652,273.2,95.6,14.9,1.22,10.41,-85.56,82.59,60.66,310.98,318.14,80.54,60.41,310.9,318.57,0.0
2018-08-23 11:28:00,89.53409,5.42672,1000.643,273.19,95.6,15.0,0.1,10.06,-85.83,82.72,60.94,311.09,320.42,80.3,60.59,310.78,318.7,0.0
2018-08-23 11:28:00,89.53409,5.42678,1000.643,273.19,95.6,15.0,-0.15,10.43,-86.55,82.59,60.8,311.84,319.95,80.13,60.75,310.73,318.86,0.0
2018-08-23 11:28:00,89.53409,5.42684,1000.644,273.19,95.6,15.0,-0.22,10.37,-86.89,82.07,60.59,310.6,319.13,80.06,60.88,310.73,319.01,0.0
2018-08-23 11:28:00,89.53409,5.42691,1000.623,273.19,95.6,15.1,-0.33,10.39,-87.15,82.59,60.73,309.66,318.59,80.08,60.98,310.76,319.15,0.0
2018-08-23 11:28:00,89.53409,5.42697,1000.568,273.18,95.6,15.6,-0.45,10.73,-87.52,81.41,60.59,309.6,319.06,80.19,61.03,310.78,319.3,0.0
2018-08-23 11:28:00,89.53409,5.42704,1000.58,273.18,95.6,15.5,0.19,10.35,-87.27,82.2,60.66,309.12,318.49,80.38,61.04,310.76,319.38,0.0
2018-08-23 11:28:00,89.53409,5.42711,1000.579,273.18,95.6,15.5,0.13,10.78,-86.96,82.46,60.87,310.98,319.48,80.65,61.02,310.71,319.26,0.0
2018-08-23 11:28:00,89.53409,5.42719,1000.556,273.18,95.6,15.7,0.78,10.66,-86.4,82.59,60.73,311.74,319.61,80.96,60.98,310.51,319.14,0.0
2018-08-23 11:28:00,89.53409,5.42726,1000.537,273.18,95.6,15.8,1.34,10.97,-85.56,81.81,60.87,311.56,319.62,81.31,60.92,310.47,319.11,0.0
2018-08-23 11:28:00,89.53409,5.42733,1000.53,273.17,95.6,15.9,1.76,11.59,-84.69,81.94,60.73,311.45,319.68,81.69,60.86,310.56,319.16,0.0
2018-08-23 11:28:00,89.53409,5.42741,1000.511,273.17,95.6,16.0,2.46,11.54,-84.2,82.33,60.8,311.48,318.99,82.07,60.82,310.68,319.22,0.0
2018-08-23 11:28:00,89.53409,5.42748,1000.527,273.17,95.6,15.9,1.95,11.7,-84.06,81.61,60.8,311.06,318.64,82.43,60.8,310.97,319.31,0.0
2018-08-23 11:28:00,89.53409,5.42755,1000.52,273.17,95.6,16.0,2.12,11.69,-83.59,82.46,60.66,309.63,317.83,82.77,60.79,311.11,319.27,0.0
2018-08-23 11:28:00,89.53409,5.42763,1000.515,273.17,95.6,16.0,2.05,11.62,-82.82,81.48,60.8,309.92,318.22,83.06,60.8,311.12,319.17,0.0
2018-08-23 11:28:00,89.53409,5.4277,1000.501,273.17,95.6,16.1,1.94,11.55,-81.98,82.72,60.8,310.49,318.93,83.3,60.82,311.05,319.03,0.0
2018-08-23 11:28:00,89.53409,5.42777,1000.452,273.16,95.6,16.5,2.1,11.52,-81.24,81.81,60.73,310.56,319.06,83.48,60.83,310.96,318.86,0.0
2018-08-23 11:28:00,89.53409,5.42785,1000.456,273.16,95.6,16.5,2.25,11.45,-80.23,83.9,60.59,311.99,318.9,83.6,60.82,310.86,318.7,0.0
2018-08-23 11:28:00,89.53409,5.42794,1000.433,273.16,95.6,16.6,2.88,11.65,-79.55,81.02,60.87,311.9,319.09,83.66,60.78,310.8,318.59,0.0
2018-08-23 11:28:00,89.53409,5.42803,1000.418,273.16,95.6,16.8,2.97,11.5,-78.88,81.87,60.73,311.02,318.52,83.66,60.7,310.73,318.45,0.0
2018-08-23 11:28:00,89.53409,5.42812,1000.411,273.16,95.6,16.8,2.75,11.28,-78.21,82.2,60.73,310.3,318.03,83.62,60.59,310.68,318.3,0.0
2018-08-23 11:28:00,89.53409,5.42821,1000.403,273.16,95.6,16.9,2.5,11.08,-77.56,82.72,60.87,310.48,318.41,83.56,60.45,310.64,318.17,0.0
2018-08-23 11:28:00,89.53409,5.4283,1000.413,273.16,95.6,16.8,2.3,10.65,-77.07,83.12,60.73,310.29,318.01,83.5,60.31,310.57,318.07,0.0
2018-08-23 11:28:00,89.53409,5.4284,1000.416,273.16,95.6,16.8,2.2,10.28,-76.67,82.46,60.87,310.38,318.21,83.44,60.17,310.59,318.08,0.0
2018-08-23 11:28:00,89.53409,5.42849,1000.39,273.15,95.6,17.0,1.31,10.2,-76.23,82.53,60.8,309.29,317.48,83.4,60.06,310.62,318.06,0.0
2018-08-23 11:28:00,89.53409,5.42858,1000.375,273.15,95.6,17.1,0.46,10.04,-75.7,82.33,60.66,309.78,317.5,83.38,60.0,310.64,318.1,0.0
2018-08-23 11:28:00,89.53409,5.42867,1000.371,273.16,95.6,17.1,-0.22,9.92,-75.2,82.79,60.66,310.15,318.32,83.39,60.0,310.62,318.11,0.0
2018-08-23 11:28:00,89.53409,5.42876,1000.336,273.15,95.6,17.4,-0.85,10.11,-74.9,81.94,60.73,309.92,318.5,83.39,60.07,310.62,318.04,0.0
2018-08-23 11:28:00,89.53409,5.42886,1000.378,273.15,95.6,17.1,-0.85,10.05,-74.63,82.53,60.52,311.89,319.28,83.38,60.2,310.62,318.06,0.0
2018-08-23 11:28:00,89.53409,5.42895,1000.347,273.15,95.6,17.3,0.01,10.25,-74.72,83.12,60.66,312.22,318.75,83.32,60.38,310.73,318.07,0.0
2018-08-23 11:28:00,89.53409,5.42901,1000.299,273.14,95.6,17.7,0.76,10.26,-74.88,82.0,60.32,311.0,318.71,83.19,60.59,310.97,318.19,0.0
2018-08-23 11:28:00,89.53409,5.42907,1000.269,273.13,95.6,18.0,1.13,10.05,-75.11,81.54,60.46,310.03,317.71,82.97,60.8,311.13,318.24,0.0
2018-08-23 11:28:00,89.53409,5.42912,1000.284,273.14,95.6,17.8,1.09,9.92,-75.45,82.79,60.73,310.31,316.79,82.67,60.99,311.19,318.29,0.0
2018-08-23 11:28:00,89.53409,5.42918,1000.263,273.13,95.6,18.0,0.2,9.96,-75.94,84.16,60.66,310.43,317.92,82.3,61.14,311.33,318.61,0.0
2018-08-23 11:28:00,89.53409,5.42924,1000.268,273.13,95.6,18.0,0.09,9.85,-76.23,83.44,60.8,311.98,318.33,81.88,61.23,311.31,318.69,0.0
2018-08-23 11:28:00,89.53409,5.4293,1000.26,273.13,95.6,18.0,0.05,10.17,-76.31,82.33,60.73,312.52,318.31,81.46,61.26,311.13,318.77,0.0
2018-08-23 11:28:00,89.53409,5.42935,1000.25,273.13,95.6,18.1,0.4,10.13,-76.43,82.79,60.73,311.56,318.18,81.08,61.22,311.01,318.82,0.0
2018-08-23 11:28:00,89.53409,5.42941,1000.251,273.13,95.6,18.1,0.85,9.87,-76.7,81.68,60.87,311.32,318.88,80.81,61.14,311.06,318.92,0.0
2018-08-23 11:28:00,89.53409,5.42947,1000.26,273.12,95.6,18.0,0.58,10.2,-77.22,81.54,60.8,311.83,321.59,80.69,61.04,311.18,319.19,0.0
2018-08-23 11:28:00,89.53409,5.42953,1000.211,273.12,95.6,18.4,1.05,8.94,-78.61,82.79,60.73,311.64,319.73,80.75,60.92,311.33,319.39,0.0
2018-08-23 11:28:00,89.53409,5.42958,1000.188,273.11,95.6,18.6,0.69,8.96,-79.07,82.46,60.66,309.89,319.0,80.99,60.81,311.23,319.53,0.0
2018-08-23 11:28:00,89.53408,5.42964,1000.169,273.11,95.6,18.8,1.06,8.84,-79.54,82.13,60.66,309.29,318.35,81.41,60.73,311.05,319.62,0.0
2018-08-23 11:28:00,89.53408,5.4297,1000.163,273.11,95.6,18.8,1.59,8.62,-80.18,82.4,60.66,309.86,318.36,81.98,60.68,310.98,319.71,0.0
2018-08-23 11:28:00,89.53408,5.42974,1000.194,273.11,95.6,18.6,1.34,8.67,-80.9,81.87,60.8,311.03,319.2,82.63,60.65,310.98,319.69,0.0
2018-08-23 11:28:00,89.53408,5.42978,1000.126,273.1,95.6,19.1,1.42,8.54,-81.79,82.33,60.73,311.64,319.81,83.31,60.64,310.81,319.38,0.0
2018-08-23 11:28:00,89.53409,5.42982,1000.103,273.1,95.6,19.3,1.48,8.71,-82.15,82.85,60.66,310.59,319.42,83.95,60.63,310.7,319.3,0.0
2018-08-23 11:28:00,89.53409,5.42986,1000.091,273.1,95.6,19.4,1.14,8.76,-82.67,82.2,60.73,310.2,319.42,84.49,60.61,310.71,319.21,0.0
2018-08-23 11:28:00,89.53409,5.4299,1000.075,273.1,95.6,19.5,0.85,8.6,-82.93,82.72,60.73,311.19,319.19,84.87,60.57,310.76,319.15,0.0
2018-08-23 11:28:00,89.53409,5.42994,1000.055,273.09,95.6,19.7,0.9,8.46,-82.76,81.74,60.73,311.82,319.25,85.07,60.5,310.83,319.16,0.0
2018-08-23 11:28:00,89.53409,5.42998,1000.065,273.09,95.6,19.6,1.23,8.97,-82.53,83.12,60.73,310.42,318.73,85.06,60.4,310.91,319.15,0.0
2018-08-23 11:28:00,89.53409,5.43002,1000.052,273.1,95.6,19.7,1.18,8.92,-82.07,83.12,60.87,311.44,319.32,84.85,60.29,310.86,319.05,0.0
2018-08-23 11:28:00,89.53409,5.43006,1000.056,273.1,95.6,19.7,1.65,9.35,-81.73,81.41,60.59,310.7,318.8,84.45,60.17,310.89,319.04,0.0
2018-08-23 11:28:00,89.53409,5.4301,1000.049,273.1,95.6,19.7,2.37,9.46,-81.51,82.92,60.73,310.45,318.3,83.91,60.06,310.95,319.13,0.0
2018-08-23 11:28:00,89.53409,5.43015,1000.029,273.09,95.6,19.9,2.94,9.37,-81.17,84.1,60.59,311.06,318.77,83.25,59.99,310.94,319.18,0.0
2018-08-23 11:28:00,89.53409,5.43019,1000.029,273.09,95.6,19.9,3.04,9.65,-80.47,82.72,60.66,311.84,319.33,82.52,59.97,310.9,319.06,0.0
2018-08-23 11:28:00,89.53409,5.43023,999.992,273.09,95.6,20.2,3.36,9.58,-80.0,82.72,60.66,310.56,318.53,81.77,60.01,310.93,318.98,0.0
2018-08-23 11:28:00,89.53409,5.43027,999.982,273.09,95.6,20.2,3.65,9.47,-79.38,83.77,60.66,310.23,318.54,81.03,60.11,310.8,318.69,0.0
2018-08-23 11:28:00,89.53409,5.43031,999.968,273.09,95.6,20.4,3.93,9.72,-78.81,83.05,60.52,309.98,319.84,80.36,60.25,310.83,318.58,0.0
2018-08-23 11:28:00,89.53409,5.43036,999.948,273.09,95.6,20.5,4.2,10.03,-78.21,81.54,60.25,310.26,319.2,79.78,60.43,310.87,318.5,0.0
2018-08-23 11:28:00,89.53409,5.43043,999.957,273.09,95.6,20.4,4.27,9.83,-77.32,81.94,60.66,310.62,317.48,79.35,60.63,310.76,318.27,0.0
2018-08-23 11:28:00,89.53409,5.4305,999.908,273.1,95.6,20.8,3.83,10.53,-76.48,82.2,60.39,310.35,318.26,79.09,60.82,310.58,317.99,0.0
2018-08-23 11:28:00,89.53409,5.43056,999.93,273.1,95.6,20.7,3.86,9.98,-75.73,82.79,60.73,309.99,316.95,79.03,60.98,310.59,317.94,0.0
2018-08-23 11:28:00,89.53409,5.43063,999.926,273.11,95.6,20.7,3.58,10.08,-74.91,82.13,60.66,311.34,318.34,79.18,61.09,310.7,317.86,0.0
2018-08-23 11:28:00,89.53409,5.4307,999.905,273.11,95.6,20.9,3.6,10.08,-74.09,81.87,60.8,311.51,318.45,79.54,61.16,310.77,317.67,0.0
2018-08-23 11:28:00,89.53409,5.43077,999.889,273.11,95.6,21.0,3.9,9.68,-73.31,83.05,60.52,310.36,317.26,80.09,61.17,310.82,317.54,0.0
2018-08-23 11:28:00,89.53409,5.43084,999.867,273.11,95.6,21.2,3.9,9.25,-72.59,81.74,60.73,310.51,316.93,80.78,61.14,310.96,317.67,0.0
2018-08-23 11:28:00,89.53409,5.4309,999.85,273.12,95.6,21.3,3.91,9.39,-71.95,81.54,60.66,311.24,318.72,81.57,61.07,311.11,317.78,0.0
2018-08-23 11:28:00,89.53409,5.43096,999.879,273.11,95.6,21.1,4.34,9.15,-71.74,81.61,60.73,311.91,318.11,82.38,60.99,311.32,318.02,0.0
2018-08-23 11:28:00,89.53409,5.43102,999.897,273.11,95.6,20.9,4.24,9.25,-71.62,82.33,60.73,311.06,317.81,83.12,60.91,311.4,318.13,0.0
2018-08-23 11:28:00,89.53409,5.43107,999.872,273.11,95.6,21.1,3.96,9.47,-71.62,82.2,60.66,310.72,317.76,83.74,60.83,311.24,318.18,0.0
2018-08-23 11:28:00,89.53409,5.43113,999.841,273.12,95.6,21.4,4.2,9.36,-72.0,81.61,60.66,312.27,318.24,84.16,60.77,310.93,318.31,0.0
2018-08-23 11:28:00,89.53409,5.43118,999.799,273.12,95.6,21.7,3.54,10.19,-72.19,82.2,60.59,312.12,319.06,84.35,60.74,310.87,318.56,0.0
2018-08-23 11:28:00,89.53409,5.43124,999.827,273.12,95.6,21.5,5.17,10.02,-72.74,83.18,60.73,311.98,319.08,84.29,60.72,310.82,318.59,0.0
2018-08-23 11:28:00,89.53409,5.4313,999.807,273.12,95.6,21.6,6.07,10.18,-73.2,82.26,60.73,311.6,319.31,84.02,60.72,310.66,318.64,0.0
2018-08-23 11:28:00,89.53409,5.43135,999.764,273.12,95.6,22.0,6.4,10.53,-73.62,81.94,60.66,309.1,318.52,83.56,60.73,310.48,318.74,0.0
2018-08-23 11:28:00,89.5341,5.43141,999.753,273.12,95.6,22.1,6.67,10.77,-74.12,81.48,60.73,306.68,318.59,83.01,60.73,310.32,318.89,0.0
2018-08-23 11:28:00,89.5341,5.43146,999.748,273.13,95.6,22.1,7.05,10.84,-74.76,83.57,60.59,309.53,319.54,82.43,60.73,310.14,319.09,0.0
2018-08-23 11:28:00,89.5341,5.43152,999.765,273.13,95.6,22.0,5.18,10.77,-75.43,83.12,60.8,310.6,319.17,81.91,60.72,309.73,318.98,0.0
2018-08-23 11:28:00,89.5341,5.43158,999.774,273.13,95.6,21.9,5.08,10.93,-76.25,82.85,60.73,310.32,318.78,81.53,60.69,309.52,318.99,0.0
2018-08-23 11:28:00,89.5341,5.43162,999.762,273.13,95.6,22.0,4.97,11.14,-77.09,82.59,60.66,309.15,318.83,81.33,60.66,309.44,319.0,0.0
2018-08-23 11:28:00,89.5341,5.43166,999.721,273.13,95.6,22.3,4.47,11.2,-77.95,82.92,60.66,309.07,319.51,81.33,60.63,309.53,318.96,0.0
2018-08-23 11:28:00,89.5341,5.43169,999.733,273.13,95.6,22.2,4.29,11.11,-78.8,80.56,60.73,310.26,320.94,81.52,60.59,309.76,318.87,0.0
2018-08-23 11:28:00,89.5341,5.43172,999.702,273.13,95.6,22.5,3.95,11.75,-79.06,82.26,60.8,307.52,317.68,81.87,60.57,309.77,318.71,0.0
2018-08-23 11:28:00,89.5341,5.43176,999.687,273.13,95.6,22.6,5.54,11.48,-80.58,80.56,60.52,309.84,319.1,82.31,60.54,309.59,318.56,0.0
2018-08-23 11:28:00,89.5341,5.43179,999.66,273.13,95.6,22.8,6.91,11.48,-82.03,83.05,60.66,310.65,319.12,82.77,60.53,309.49,318.42,0.0
2018-08-23 11:28:00,89.5341,5.43182,999.638,273.13,95.6,23.0,7.5,11.62,-83.45,82.13,60.66,310.48,318.15,83.19,60.53,309.56,318.29,0.0
2018-08-23 11:28:00,89.5341,5.43186,999.661,273.13,95.6,22.8,7.44,11.55,-85.03,83.25,60.73,309.29,317.63,83.51,60.52,309.68,318.1,0.0
2018-08-23 11:28:00,89.5341,5.43189,999.692,273.14,95.6,22.6,7.38,11.72,-86.44,81.74,60.59,310.09,317.95,83.67,60.52,309.7,317.73,0.0
2018-08-23 11:28:00,89.5341,5.43193,999.683,273.14,95.6,22.6,7.24,11.62,-87.38,82.98,60.8,308.83,317.55,83.66,60.5,310.03,317.84,0.0
2018-08-23 11:28:00,89.5341,5.43196,999.654,273.14,95.6,22.9,7.04,11.21,-88.69,82.66,60.66,309.67,317.84,83.49,60.48,310.12,317.82,0.0
2018-08-23 11:28:00,89.5341,5.43199,999.632,273.14,95.6,23.0,6.37,10.97,-90.23,82.79,60.73,310.25,318.16,83.18,60.45,310.05,317.92,0.0
2018-08-23 11:28:00,89.5341,5.43203,999.631,273.14,95.6,23.0,5.37,10.98,-91.8,82.53,60.59,310.68,317.76,82.78,60.41,310.04,318.15,0.0
2018-08-23 11:28:00,89.5341,5.43206,999.621,273.13,95.6,23.1,4.82,10.85,-93.17,82.13,60.39,310.51,317.07,82.34,60.36,310.14,318.24,0.0
2018-08-23 11:28:00,89.5341,5.4321,999.62,273.13,95.6,23.1,4.03,10.58,-93.92,83.18,60.66,310.77,319.1,81.91,60.31,310.09,318.31,0.0
2018-08-23 11:28:00,89.5341,5.43214,999.617,273.13,95.6,23.2,3.41,10.23,-94.57,82.53,60.73,310.41,318.86,81.55,60.26,310.51,318.21,0.0
2018-08-23 11:28:00,89.5341,5.43218,999.595,273.13,95.6,23.3,3.14,9.98,-95.27,81.81,60.73,309.94,320.29,81.3,60.21,310.69,318.23,0.0
2018-08-23 11:28:00,89.5341,5.43221,999.574,273.12,95.6,23.5,2.75,9.75,-96.07,81.02,60.66,310.07,320.36,81.18,60.17,310.67,318.31,0.0
2018-08-23 11:28:00,89.5341,5.43225,999.604,273.12,95.6,23.3,1.75,9.5,-96.8,82.53,60.66,310.4,318.12,81.19,60.15,310.71,318.37,0.0
2018-08-23 11:28:00,89.5341,5.43229,999.581,273.11,95.6,23.4,1.26,9.77,-96.49,82.92,60.52,309.29,318.56,81.32,60.13,310.66,318.51,0.0
2018-08-23 11:28:00,89.5341,5.43233,999.563,273.11,95.6,23.6,0.8,9.9,-96.18,82.53,60.52,313.33,316.26,81.56,60.13,310.67,318.35,0.0
2018-08-23 11:28:00,89.5341,5.43236,999.546,273.11,95.6,23.7,0.72,10.01,-95.77,81.81,60.52,311.27,317.62,81.86,60.14,310.69,318.19,0.0
2018-08-23 11:28:00,89.5341,5.4324,999.534,273.1,95.6,23.8,1.08,10.27,-95.86,83.57,60.32,310.21,318.69,82.19,60.17,310.78,317.92,0.0
2018-08-23 11:28:00,89.5341,5.43244,999.53,273.11,95.6,23.9,1.65,10.62,-96.58,82.33,60.59,310.93,318.56,82.5,60.21,310.93,317.65,0.0
2018-08-23 11:28:00,89.5341,5.43248,999.508,273.11,95.6,24.0,1.91,10.46,-97.09,82.13,60.46,310.27,318.98,82.76,60.26,311.06,317.7,0.0
2018-08-23 11:28:00,89.5341,5.43251,999.478,273.1,95.6,24.3,2.02,10.86,-96.7,81.02,60.73,311.1,317.55,82.93,60.32,311.13,317.78,0.0
2018-08-23 11:28:00,89.5341,5.43253,999.468,273.1,95.6,24.4,1.63,11.15,-96.54,82.2,60.52,310.94,317.76,82.99,60.39,310.8,318.09,0.0
2018-08-23 11:28:00,89.5341,5.43256,999.464,273.1,95.6,24.4,1.83,11.3,-96.41,82.72,60.66,310.94,317.73,82.93,60.46,310.72,318.29,0.0
2018-08-23 11:28:00,89.5341,5.43259,999.449,273.1,95.6,24.5,2.63,11.41,-96.16,82.07,60.39,311.52,317.82,82.73,60.52,310.78,318.35,0.0
2018-08-23 11:28:00,89.53411,5.43262,999.406,273.1,95.6,24.8,2.7,11.73,-95.73,81.74,60.52,311.76,318.72,82.42,60.57,310.71,318.38,0.0
2018-08-23 11:28:00,89.53411,5.43264,999.384,273.1,95.6,25.0,2.88,11.88,-94.2,83.57,60.52,309.57,319.6,82.01,60.59,310.82,318.42,0.0
2018-08-23 11:28:00,89.53411,5.43267,999.383,273.1,95.6,25.0,2.37,12.06,-92.54,83.18,60.39,309.5,319.38,81.53,60.59,310.83,318.55,0.0
2018-08-23 11:28:00,89.53411,5.4327,999.4,273.1,95.6,24.9,1.5,12.08,-90.88,82.13,60.52,310.28,319.37,81.04,60.55,310.86,318.66,0.0
2018-08-23 11:28:00,89.53411,5.43273,999.419,273.09,95.6,24.7,0.53,12.06,-89.3,81.87,60.52,310.87,319.03,80.56,60.48,310.82,318.78,0.0
2018-08-23 11:28:00,89.53411,5.43276,999.404,273.1,95.6,24.9,-0.36,12.2,-87.8,82.33,60.59,310.69,318.55,80.15,60.39,310.7,318.88,0.0
2018-08-23 11:28:00,89.53411,5.43278,999.329,273.09,95.6,25.5,-1.08,12.22,-86.08,82.13,60.52,312.27,318.65,79.84,60.27,310.67,318.83,0.0
2018-08-23 11:28:00,89.53411,5.43281,999.321,273.09,95.6,25.5,-1.07,12.28,-84.35,82.33,60.59,311.64,318.96,79.66,60.15,310.75,318.74,0.0
2018-08-23 11:28:00,89.53411,5.43284,999.33,273.1,95.6,25.4,-1.29,11.91,-83.02,81.87,60.52,311.86,318.64,79.62,60.04,310.85,318.58,0.0
2018-08-23 11:28:00,89.53411,5.43287,999.332,273.1,95.6,25.4,-0.83,11.7,-81.93,81.81,60.66,311.24,318.43,79.74,59.95,310.9,318.43,0.0
2018-08-23 11:28:00,89.53411,5.4329,999.323,273.1,95.6,25.5,0.41,11.75,-80.88,81.61,60.39,310.68,318.73,80.0,59.91,310.98,318.34,0.0
2018-08-23 11:28:00,89.53411,5.43293,999.339,273.1,95.6,25.4,1.37,11.39,-79.52,82.72,60.52,311.59,318.0,80.38,59.92,311.08,318.26,0.0
2018-08-23 11:28:00,89.53411,5.43296,999.308,273.1,95.6,25.6,2.69,10.98,-77.92,80.82,60.46,310.92,318.38,80.84,59.97,310.91,318.08,0.0
2018-08-23 11:28:00,89.53411,5.43299,999.262,273.1,95.6,26.0,3.92,10.87,-76.44,81.22,60.18,310.11,317.41,81.34,60.08,310.84,317.99,0.0
2018-08-23 11:28:00,89.53411,5.43302,999.225,273.1,95.6,26.3,4.54,10.53,-75.07,81.48,60.46,310.06,317.35,81.85,60.23,310.69,317.88,0.0
2018-08-23 11:28:00,89.53411,5.43305,999.21,273.1,95.6,26.4,4.36,9.89,-73.86,82.4,60.25,310.78,318.09,82.34,60.4,310.51,317.74,0.0
2018-08-23 11:28:00,89.53411,5.43308,999.183,273.11,95.7,26.6,3.66,9.7,-73.09,82.2,60.39,310.83,317.58,82.77,60.56,310.37,317.62,0.0
2018-08-23 11:28:00,89.53411,5.43311,999.184,273.12,95.6,26.6,2.9,8.97,-72.16,82.33,60.46,309.36,317.35,83.12,60.71,310.13,317.4,0.0
2018-08-23 11:28:00,89.5341,5.43314,999.186,273.12,95.6,26.6,2.76,8.79,-70.94,81.15,60.46,310.87,318.0,83.39,60.82,310.05,317.26,0.0
2018-08-23 11:28:00,89.5341,5.43317,999.175,273.12,95.6,26.7,3.4,8.57,-69.79,83.12,60.46,310.32,317.48,83.56,60.88,309.92,317.18,0.0
2018-08-23 11:28:00,89.5341,5.4332,999.15,273.12,95.6,26.9,4.26,8.29,-68.75,81.94,60.59,309.73,317.6,83.65,60.88,309.82,317.16,0.0
2018-08-23 11:28:00,89.5341,5.43326,999.115,273.12,95.6,27.2,4.77,8.01,-67.91,81.61,60.52,310.31,317.55,83.65,60.83,309.76,317.15,0.0
2018-08-23 11:28:00,89.5341,5.43332,999.099,273.12,95.6,27.3,4.84,7.69,-67.51,81.94,60.66,310.26,316.31,83.58,60.74,309.62,317.19,0.0
2018-08-23 11:28:00,89.5341,5.43338,999.097,273.12,95.6,27.3,5.01,7.25,-67.32,81.61,60.32,311.12,317.15,83.43,60.62,309.81,317.31,0.0
2018-08-23 11:28:00,89.5341,5.43345,999.091,273.12,95.6,27.4,4.69,7.32,-67.32,81.48,60.52,310.19,317.31,83.23,60.49,309.83,317.34,0.0
2018-08-23 11:28:00,89.5341,5.43351,999.087,273.12,95.6,27.4,4.69,7.2,-67.43,82.66,60.46,310.17,317.72,82.97,60.38,309.98,317.46,0.0
2018-08-23 11:28:00,89.5341,5.43358,999.09,273.12,95.6,27.4,4.88,6.98,-67.66,82.59,60.66,310.54,317.87,82.67,60.29,310.19,317.57,0.0
2018-08-23 11:28:00,89.5341,5.43364,999.093,273.12,95.6,27.3,4.36,7.33,-68.09,83.44,60.46,309.21,317.36,82.35,60.25,310.28,317.56,0.0
2018-08-23 11:28:00,89.5341,5.4337,999.052,273.13,95.6,27.7,4.5,6.66,-68.72,81.61,60.32,310.22,317.2,82.03,60.24,310.4,317.72,0.0
2018-08-23 11:28:00,89.5341,5.43376,999.039,273.13,95.6,27.8,4.19,7.03,-69.18,82.0,60.39,309.28,317.11,81.73,60.27,310.44,317.81,0.0
2018-08-23 11:28:00,89.5341,5.43383,999.023,273.13,95.6,27.9,3.77,7.46,-69.87,83.51,60.46,309.92,317.77,81.49,60.33,310.5,317.81,0.0
2018-08-23 11:28:00,89.5341,5.43389,999.011,273.13,95.6,28.0,3.8,7.72,-70.72,82.0,60.52,310.46,317.67,81.32,60.41,310.38,317.62,0.0
2018-08-23 11:28:00,89.5341,5.43395,999.038,273.13,95.6,27.8,4.57,7.87,-71.59,81.15,60.46,309.56,317.01,81.25,60.5,310.1,317.33,0.0
2018-08-23 11:28:00,89.5341,5.43399,999.048,273.13,95.6,27.7,5.06,7.96,-72.88,81.22,60.46,309.88,317.75,81.3,60.59,309.97,317.29,0.0
2018-08-23 11:28:00,89.5341,5.43403,999.027,273.13,95.6,27.9,5.66,7.83,-73.87,82.2,60.46,310.56,318.31,81.47,60.66,309.74,317.19,0.0
2018-08-23 11:28:00,89.5341,5.43408,998.978,273.13,95.6,28.3,5.84,8.1,-74.97,82.13,60.52,310.64,317.67,81.74,60.72,309.7,317.17,0.0
2018-08-23 11:28:00,89.5341,5.43412,998.949,273.13,95.6,28.5,5.7,8.37,-76.0,82.2,60.46,309.37,315.85,82.07,60.75,309.61,317.13,0.0
2018-08-23 11:28:00,89.5341,5.43416,998.969,273.13,95.6,28.3,5.83,8.48,-76.97,83.12,60.46,308.51,315.5,82.43,60.77,309.46,317.12,0.0
2018-08-23 11:28:00,89.5341,5.4342,998.947,273.13,95.6,28.5,7.39,8.83,-78.12,81.22,60.39,309.17,318.11,82.77,60.76,309.43,317.23,0.0
2018-08-23 11:28:00,89.5341,5.43424,998.932,273.14,95.6,28.6,7.02,8.84,-79.4,81.15,60.52,309.37,317.09,83.02,60.75,309.37,317.27,0.0
2018-08-23 11:28:00,89.5341,5.43429,998.92,273.13,95.6,28.7,7.22,8.66,-80.49,83.05,60.66,310.22,317.41,83.16,60.72,309.47,317.2,0.0
2018-08-23 11:28:00,89.5341,5.43433,998.91,273.13,95.6,28.8,6.56,8.88,-81.47,82.4,60.46,309.88,317.4,83.14,60.67,309.52,317.19,0.0
2018-08-23 11:28:00,89.5341,5.43437,998.905,273.13,95.6,28.8,5.4,9.25,-82.36,82.79,60.73,308.93,317.23,82.98,60.61,309.53,317.3,0.0
2018-08-23 11:28:00,89.5341,5.43441,998.907,273.13,95.6,28.8,4.89,9.19,-83.16,81.94,60.39,309.02,317.74,82.67,60.54,309.62,317.45,0.0
2018-08-23 11:28:00,89.5341,5.43446,998.929,273.12,95.6,28.7,3.86,9.6,-84.62,82.26,60.52,308.96,317.21,82.28,60.45,309.63,317.38,0.0
2018-08-23 11:28:00,89.5341,5.4345,998.898,273.12,95.6,28.9,3.8,9.01,-85.77,81.68,60.39,311.09,316.75,81.85,60.35,309.6,317.35,0.0
2018-08-23 11:28:00,89.5341,5.43453,998.856,273.12,95.6,29.2,2.93,9.05,-86.78,82.2,60.59,309.98,316.32,81.45,60.23,309.47,317.28,0.0
2018-08-23 11:28:00,89.5341,5.43456,998.828,273.11,95.6,29.5,2.43,9.15,-87.59,81.94,60.46,308.75,317.13,81.16,60.12,309.41,317.22,0.0
2018-08-23 11:28:00,89.5341,5.4346,998.829,273.11,95.6,29.4,2.94,8.81,-88.1,82.92,60.39,308.65,316.75,81.03,60.0,309.52,317.2,0.0
2018-08-23 11:28:00,89.5341,5.43463,998.86,273.11,95.6,29.2,1.29,9.26,-88.54,82.07,60.66,308.66,317.3,81.08,59.91,309.73,317.16,0.0
2018-08-23 11:28:00,89.5341,5.43466,998.84,273.1,95.6,29.4,1.89,9.16,-88.48,81.54,60.52,308.86,317.18,81.34,59.84,309.91,317.04,0.0
2018-08-23 11:28:00,89.5341,5.4347,998.815,273.1,95.6,29.6,1.91,9.34,-88.47,82.53,60.52,308.96,317.1,81.76,59.81,309.91,317.11,0.0
2018-08-23 11:28:00,89.5341,5.43473,998.806,273.1,95.6,29.6,1.98,9.53,-88.52,82.79,60.46,309.66,317.37,82.3,59.82,309.98,317.25,0.0
2018-08-23 11:28:00,89.5341,5.43476,998.806,273.1,95.6,29.6,2.37,9.61,-88.46,81.68,60.39,310.41,316.99,82.89,59.87,310.13,317.38,0.0
2018-08-23 11:28:00,89.5341,5.4348,998.754,273.09,95.6,30.1,2.62,9.71,-88.01,81.22,60.25,311.75,317.46,83.45,59.95,310.27,317.46,0.0
2018-08-23 11:28:00,89.5341,5.43483,998.757,273.09,95.6,30.0,2.18,10.23,-87.98,81.48,60.25,311.15,315.84,83.91,60.05,310.41,317.52,0.0
2018-08-23 11:28:00,89.5341,5.43486,998.762,273.09,95.6,30.0,1.92,9.99,-87.98,82.07,60.25,311.29,316.83,84.19,60.17,310.51,317.57,0.0
2018-08-23 11:28:00,89.5341,5.4349,998.762,273.09,95.6,30.0,2.16,10.26,-87.65,81.81,60.25,310.96,317.71,84.27,60.28,310.61,317.62,0.0
2018-08-23 11:28:00,89.5341,5.43492,998.739,273.08,95.6,30.2,2.42,10.63,-87.06,83.64,60.46,310.56,317.58,84.14,60.38,310.68,317.66,0.0
2018-08-23 11:28:00,89.5341,5.43494,998.689,273.08,95.6,30.6,2.51,10.65,-86.39,82.33,60.59,310.36,317.42,83.82,60.47,310.67,317.69,0.0
2018-08-23 11:28:00,89.5341,5.43496,998.726,273.08,95.6,30.3,3.49,11.15,-85.56,83.18,60.46,310.43,317.58,83.36,60.53,310.55,317.75,0.0
2018-08-23 11:28:00,89.5341,5.43499,998.7,273.08,95.6,30.5,4.06,10.99,-84.6,82.59,60.25,310.06,317.65,82.83,60.57,310.48,317.9,0.0
2018-08-23 11:28:00,89.53411,5.43501,998.697,273.07,95.6,30.5,4.35,10.95,-83.47,82.53,60.52,310.22,317.95,82.29,60.6,310.36,318.01,0.0
2018-08-23 11:28:00,89.53411,5.43503,998.694,273.07,95.6,30.5,4.37,11.19,-82.52,82.2,60.46,310.43,317.98,81.83,60.61,310.25,318.1,0.0
2018-08-23 11:28:00,89.53411,5.43505,998.674,273.07,95.6,30.7,4.19,11.45,-81.57,81.81,60.32,310.52,318.14,81.49,60.62,310.18,318.2,0.0
2018-08-23 11:28:00,89.53411,5.43507,998.669,273.07,95.6,30.7,3.99,11.27,-80.14,82.72,60.25,310.3,318.42,81.3,60.63,310.1,318.33,0.0
2018-08-23 11:28:00,89.53411,5.4351,998.662,273.06,95.6,30.8,4.35,11.86,-79.22,82.4,60.52,310.15,318.43,81.28,60.64,310.0,318.52,0.0
2018-08-23 11:28:00,89.53411,5.43512,998.626,273.06,95.6,31.1,4.01,11.44,-78.19,81.87,60.39,309.77,318.77,81.42,60.64,309.91,318.62,0.0
2018-08-23 11:28:00,89.53411,5.43514,998.614,273.06,95.6,31.2,3.68,11.59,-77.27,82.72,60.39,309.79,318.9,81.66,60.63,309.76,318.71,0.0
2018-08-23 11:28:00,89.53411,5.43516,998.619,273.06,95.6,31.1,3.51,11.9,-76.58,80.82,60.46,309.68,318.66,81.98,60.62,309.58,318.74,0.0
2018-08-23 11:28:00,89.53411,5.43518,998.589,273.06,95.6,31.4,3.41,11.63,-76.09,82.46,60.46,309.24,318.65,82.31,60.58,309.42,318.7,0.0
2018-08-23 11:28:00,89.53411,5.43521,998.594,273.06,95.6,31.3,3.23,11.83,-75.59,82.72,60.52,309.11,319.5,82.6,60.51,309.39,318.62,0.0
2018-08-23 11:28:00,89.53411,5.43523,998.578,273.05,95.6,31.5,3.05,11.63,-75.2,82.46,60.32,309.21,318.87,82.82,60.43,309.39,318.57,0.0
2018-08-23 11:28:00,89.53411,5.43527,998.571,273.05,95.6,31.5,2.6,11.21,-74.36,81.74,60.52,309.06,318.55,82.93,60.33,309.33,318.44,0.0
2018-08-23 11:28:00,89.53411,5.43531,998.559,273.06,95.6,31.6,2.44,11.08,-73.45,83.9,60.52,308.52,318.58,82.91,60.22,309.26,318.27,0.0
2018-08-23 11:28:00,89.53411,5.43535,998.528,273.05,95.6,31.9,2.7,11.15,-72.74,81.74,60.39,309.09,318.11,82.78,60.11,309.28,318.1,0.0
2018-08-23 11:28:00,89.53411,5.4354,998.544,273.05,95.6,31.7,2.75,10.6,-72.2,81.35,60.46,310.25,317.89,82.54,60.02,309.47,317.92,0.0
2018-08-23 11:28:00,89.53411,5.43544,998.562,273.05,95.6,31.6,3.13,10.9,-71.47,83.51,60.39,310.55,317.99,82.21,59.96,309.63,317.72,0.0
2018-08-23 11:28:00,89.53411,5.43548,998.554,273.04,95.5,31.6,3.68,10.51,-71.21,81.81,60.52,309.24,317.62,81.82,59.94,309.67,317.62,0.0
2018-08-23 11:28:00,89.5341,5.43552,998.529,273.04,95.5,31.8,3.98,10.29,-71.11,82.53,60.25,308.79,317.27,81.42,59.94,309.7,317.51,0.0
2018-08-23 11:28:00,89.5341,5.43556,998.498,273.05,95.5,32.1,4.07,10.26,-71.06,81.68,60.46,309.41,316.83,81.02,59.98,309.78,317.45,0.0
2018-08-23 11:28:00,89.5341,5.4356,998.497,273.04,95.5,32.1,4.49,9.68,-71.23,82.98,60.25,310.49,316.25,80.68,60.05,309.86,317.48,0.0
2018-08-23 11:28:00,89.5341,5.43564,998.488,273.04,95.5,32.2,5.11,10.07,-71.55,82.2,60.11,310.18,316.9,80.43,60.13,309.73,317.44,0.0
2018-08-23 11:28:00,89.5341,5.43568,998.463,273.04,95.5,32.4,4.85,9.88,-71.64,82.33,60.39,309.16,316.97,80.3,60.21,309.64,317.38,0.0
2018-08-23 11:28:00,89.5341,5.43572,998.442,273.04,95.5,32.5,4.9,10.02,-71.69,81.61,60.32,308.93,317.18,80.32,60.29,309.67,317.37,0.0
2018-08-23 11:28:00,89.5341,5.43576,998.425,273.04,95.5,32.7,5.1,10.13,-71.84,81.48,60.52,309.45,317.48,80.52,60.35,309.78,317.38,0.0
2018-08-23 11:28:00,89.5341,5.4358,998.403,273.04,95.5,32.9,5.26,9.92,-72.11,82.79,60.32,310.18,317.82,80.88,60.4,309.83,317.39,0.0
2018-08-23 11:28:00,89.5341,5.43584,998.386,273.04,95.5,33.0,5.98,9.9,-72.31,82.79,60.46,309.08,317.35,81.4,60.43,309.66,317.45,0.0
2018-08-23 11:28:00,89.5341,5.43588,998.388,273.03,95.5,33.0,6.37,9.76,-72.92,81.41,60.32,310.0,317.16,82.04,60.44,309.54,317.48,0.0
2018-08-23 11:28:00,89.5341,5.43592,998.379,273.03,95.5,33.0,6.43,9.65,-73.28,80.43,60.32,310.08,317.36,82.76,60.45,309.6,317.59,0.0
2018-08-23 11:28:00,89.5341,5.43596,998.354,273.03,95.5,33.2,6.45,9.7,-73.59,82.66,60.32,310.13,317.48,83.48,60.45,309.73,317.7,0.0
2018-08-23 11:28:00,89.5341,5.436,998.331,273.03,95.5,33.4,6.39,9.76,-73.9,81.54,60.46,310.19,317.21,84.14,60.44,309.81,317.73,0.0
2018-08-23 11:28:00,89.5341,5.43604,998.344,273.03,95.5,33.3,5.96,9.5,-74.16,82.46,60.25,308.93,317.59,84.67,60.43,309.83,317.73,0.0
2018-08-23 11:28:00,89.5341,5.43608,998.315,273.02,95.5,33.6,5.43,9.81,-74.22,82.4,60.39,308.92,317.02,84.99,60.41,309.91,317.78,0.0
2018-08-23 11:28:00,89.5341,5.43611,998.284,273.02,95.5,33.8,5.21,9.64,-74.02,82.59,60.52,309.31,318.61,85.09,60.38,309.8,317.81,0.0
2018-08-23 11:28:00,89.5341,5.43614,998.275,273.02,95.5,33.9,4.68,9.59,-73.89,82.46,60.32,310.14,318.55,84.95,60.34,309.74,317.83,0.0
2018-08-23 11:28:00,89.5341,5.43616,998.283,273.03,95.5,33.8,4.14,9.65,-73.99,82.2,60.25,310.11,317.98,84.58,60.28,309.71,317.89,0.0
2018-08-23 11:28:00,89.5341,5.43619,998.277,273.03,95.5,33.9,3.98,9.54,-74.21,82.59,60.25,310.4,318.26,84.04,60.22,309.7,317.99,0.0
2018-08-23 11:28:00,89.53411,5.43621,998.247,273.02,95.5,34.1,3.62,9.24,-73.8,82.53,60.46,310.12,318.07,83.39,60.16,309.81,318.05,0.0
2018-08-23 11:28:00,89.53411,5.43623,998.243,273.02,95.5,34.1,2.91,9.1,-74.22,82.72,60.39,309.13,317.62,82.72,60.1,309.84,318.15,0.0
2018-08-23 11:28:00,89.53411,5.43626,998.244,273.02,95.5,34.1,2.73,9.17,-74.31,83.18,60.39,309.85,317.74,82.1,60.06,309.8,318.05,0.0
2018-08-23 11:28:00,89.53411,5.43628,998.237,273.02,95.5,34.2,2.45,9.3,-74.27,81.54,60.39,310.13,318.21,81.58,60.03,309.75,317.88,0.0
2018-08-23 11:28:00,89.53411,5.43631,998.219,273.02,95.5,34.3,1.77,9.36,-74.37,83.57,60.39,310.27,317.96,81.2,60.04,309.76,317.73,0.0
2018-08-23 11:28:00,89.53411,5.43633,998.23,273.02,95.5,34.2,1.33,9.24,-74.61,83.25,60.32,310.12,318.1,80.97,60.07,309.84,317.62,0.0
2018-08-23 11:28:00,89.53411,5.43635,998.243,273.01,95.5,34.1,1.41,9.33,-74.27,81.41,60.32,309.08,318.54,80.85,60.13,309.69,317.57,0.0
2018-08-23 11:28:00,89.53411,5.43638,998.21,273.01,95.5,34.4,1.69,9.32,-74.25,81.81,60.46,308.7,317.68,80.8,60.19,309.68,317.47,0.0
2018-08-23 11:28:00,89.53411,5.43641,998.186,273.01,95.5,34.6,2.06,9.23,-74.34,82.2,59.97,309.15,316.91,80.77,60.26,309.57,317.31,0.0
2018-08-23 11:28:00,89.53411,5.43644,998.186,273.01,95.5,34.6,2.33,9.05,-74.45,81.28,60.18,310.21,316.95,80.69,60.31,309.36,317.14,0.0
2018-08-23 11:28:00,89.53411,5.43648,998.147,273.0,95.5,34.9,2.26,8.79,-74.55,82.79,60.18,311.07,317.61,80.52,60.33,309.19,317.03,0.0
2018-08-23 11:28:00,89.53411,5.43651,998.171,273.0,95.5,34.7,2.59,8.8,-73.84,82.53,60.32,308.5,318.18,80.25,60.31,309.16,317.01,0.0
2018-08-23 11:28:00,89.53411,5.43654,998.121,273.0,95.5,35.1,1.98,8.83,-73.62,82.0,60.46,309.62,317.7,79.9,60.26,309.25,316.94,0.0
2018-08-23 11:28:00,89.53411,5.43658,998.108,273.0,95.5,35.2,2.13,8.82,-73.48,82.13,60.52,309.2,316.89,79.52,60.18,309.44,316.97,0.0
2018-08-23 11:28:00,89.53411,5.43661,998.137,273.0,95.5,35.0,2.49,8.87,-73.44,81.41,60.32,308.82,317.22,79.19,60.09,309.71,317.1,0.0
2018-08-23 11:28:00,89.53411,5.43664,998.15,273.0,95.5,34.9,2.45,8.97,-73.51,84.1,60.32,309.05,317.4,78.98,60.0,309.95,317.27,0.0
2018-08-23 11:28:00,89.53411,5.43668,998.119,272.99,95.5,35.1,2.71,8.78,-73.4,82.07,60.46,310.69,317.88,78.98,59.94,310.1,317.35,0.0
2018-08-23 11:28:00,89.53411,5.43671,998.084,273.0,95.5,35.4,2.61,8.77,-73.33,81.74,60.32,310.25,317.15,79.26,59.92,310.49,317.35,0.0
2018-08-23 11:28:00,89.53411,5.43675,998.071,272.99,95.5,35.5,2.23,8.59,-73.32,80.43,60.32,310.58,317.09,79.83,59.96,310.69,317.39,0.0
2018-08-23 11:28:00,89.53411,5.43678,998.063,272.99,95.5,35.6,1.76,8.65,-73.68,81.35,59.97,311.2,316.54,80.68,60.05,310.83,317.4,0.0
2018-08-23 11:28:00,89.53411,5.43681,998.048,273.0,95.5,35.7,1.23,8.89,-74.28,80.24,60.11,311.16,316.61,81.76,60.2,310.92,317.34,0.0
2018-08-23 11:28:00,89.53411,5.43682,998.044,272.99,95.5,35.7,0.6,8.77,-74.58,81.87,60.04,310.57,316.3,82.95,60.37,310.85,317.2,0.0
2018-08-23 11:28:00,89.53411,5.43684,998.036,272.99,95.6,35.8,-0.01,8.73,-74.6,80.82,60.11,311.23,316.67,84.14,60.54,310.67,316.98,0.0
2018-08-23 11:28:00,89.53411,5.43686,998.031,273.0,95.5,35.8,-0.26,8.81,-75.14,82.59,60.52,310.11,316.8,85.19,60.68,310.49,316.91,0.0
2018-08-23 11:28:00,89.53411,5.43688,998.001,273.0,95.5,36.1,-0.1,8.73,-75.25,81.68,60.32,309.85,317.16,86.0,60.78,310.24,316.83,0.0
2018-08-23 11:28:00,89.53411,5.4369,997.967,272.99,95.6,36.3,0.04,8.66,-75.35,82.98,60.46,309.77,317.32,86.47,60.8,309.94,316.74,0.0
2018-08-23 11:28:00,89.53411,5.43692,997.977,272.99,95.6,36.3,-0.15,8.81,-76.08,82.59,60.25,309.59,317.24,86.55,60.75,309.64,316.71,0.0
2018-08-23 11:28:00,89.53411,5.43694,997.968,272.99,95.6,36.3,0.67,8.67,-76.4,81.81,60.46,310.2,317.56,86.24,60.62,309.34,316.73,0.0
2018-08-23 11:28:00,89.53411,5.43696,997.97,272.99,95.6,36.3,0.53,9.21,-77.24,83.05,60.25,310.55,318.4,85.58,60.44,309.22,316.78,0.0
2018-08-23 11:28:00,89.53411,5.43698,997.953,272.99,95.6,36.4,1.43,9.05,-78.07,82.13,60.52,310.55,318.12,84.66,60.22,309.3,316.9,0.0
2018-08-23 11:28:00,89.53411,5.43699,997.93,272.99,95.6,36.6,2.2,8.92,-78.99,82.72,60.25,310.46,317.71,83.58,60.0,309.47,317.16,0.0
2018-08-23 11:28:00,89.53411,5.43701,997.919,272.99,95.6,36.7,2.42,9.09,-80.1,83.12,60.39,310.28,317.15,82.48,59.8,309.7,317.49,0.0
2018-08-23 11:28:00,89.53411,5.43703,997.905,272.99,95.6,36.8,3.39,8.76,-81.33,82.13,60.32,308.72,317.19,81.45,59.66,309.99,317.76,0.0
2018-08-23 11:28:00,89.53411,5.43705,997.926,272.99,95.6,36.7,3.29,9.02,-82.17,82.72,60.25,310.34,316.57,80.6,59.6,310.16,317.91,0.0
2018-08-23 11:28:00,89.53411,5.43707,997.891,272.98,95.6,36.9,3.41,8.97,-83.41,82.0,60.25,310.22,316.97,79.99,59.61,310.3,317.96,0.0
2018-08-23 11:28:00,89.53411,5.43709,997.859,272.98,95.6,37.2,2.82,9.04,-84.43,82.13,60.25,310.21,318.04,79.66,59.69,310.4,318.08,0.0
2018-08-23 11:28:00,89.53411,5.43711,997.856,272.98,95.6,37.2,1.86,9.21,-85.38,82.26,60.18,309.88,318.67,79.58,59.84,310.46,318.22,0.0
2018-08-23 11:28:00,89.53411,5.43712,997.819,272.97,95.6,37.5,1.75,9.15,-86.92,81.81,59.97,309.49,317.73,79.74,60.03,310.53,318.27,0.0
2018-08-23 11:28:00,89.53411,5.43713,997.803,272.97,95.6,37.6,1.21,9.12,-87.71,82.79,60.04,309.38,317.31,80.07,60.23,310.64,318.31,0.0
2018-08-23 11:28:00,89.53411,5.43714,997.815,272.98,95.6,37.6,1.64,9.26,-88.85,81.94,60.25,309.61,317.86,80.51,60.43,310.58,318.35,0.0
2018-08-23 11:28:00,89.53411,5.43716,997.805,272.98,95.6,37.6,1.83,9.18,-89.87,81.15,60.25,310.26,318.99,80.98,60.59,310.47,318.37,0.0
2018-08-23 11:28:00,89.53411,5.43717,997.784,272.97,95.6,37.8,1.83,9.15,-90.58,82.4,60.52,311.05,319.66,81.43,60.7,310.4,318.33,0.0
2018-08-23 11:28:00,89.53411,5.43718,997.797,272.97,95.6,37.7,2.0,9.36,-91.16,81.74,60.32,311.52,319.08,81.81,60.76,310.47,318.28,0.0
2018-08-23 11:28:00,89.53411,5.4372,997.784,272.98,95.6,37.8,2.11,9.2,-91.95,81.81,60.25,311.78,318.85,82.09,60.76,310.59,318.34,0.0
2018-08-23 11:28:00,89.53411,5.43721,997.756,272.97,95.6,38.0,1.81,9.56,-92.52,81.81,60.32,311.44,318.67,82.27,60.71,310.81,318.53,0.0
2018-08-23 11:28:00,89.53411,5.43722,997.741,272.97,95.6,38.1,1.87,9.41,-92.95,82.13,60.11,310.7,318.47,82.35,60.63,311.06,318.74,0.0
2018-08-23 11:28:00,89.53411,5.43724,997.726,272.97,95.6,38.3,1.92,9.41,-93.19,82.33,60.39,311.12,318.24,82.36,60.52,311.33,318.85,0.0
2018-08-23 11:28:00,89.5341,5.43725,997.701,272.97,95.6,38.5,1.87,9.7,-93.34,82.13,60.32,311.63,318.41,82.31,60.4,311.52,318.88,0.0
2018-08-23 11:28:00,89.5341,5.43727,997.688,272.97,95.6,38.6,2.0,9.68,-93.69,82.72,60.32,311.84,318.76,82.25,60.29,311.56,318.91,0.0
2018-08-23 11:28:00,89.5341,5.43728,997.707,272.98,95.6,38.4,1.74,9.49,-93.5,81.15,60.39,311.76,318.9,82.19,60.19,311.73,319.0,0.0
2018-08-23 11:28:00,89.5341,5.4373,997.685,272.99,95.6,38.6,1.64,9.77,-93.58,82.33,60.18,311.73,319.24,82.17,60.11,311.76,318.98,0.0
2018-08-23 11:28:00,89.5341,5.43732,997.66,272.99,95.6,38.8,1.54,9.86,-93.35,82.2,60.46,311.83,319.41,82.19,60.06,311.76,318.94,0.0
2018-08-23 11:28:00,89.5341,5.43733,997.649,272.99,95.6,38.9,1.37,9.93,-92.97,81.54,60.11,311.14,318.41,82.25,60.04,311.7,318.89,0.0
2018-08-23 11:28:00,89.5341,5.43734,997.639,272.99,95.6,39.0,1.11,10.32,-92.67,82.2,60.32,309.93,318.22,82.36,60.04,311.57,318.85,0.0
2018-08-23 11:28:00,89.5341,5.43736,997.599,272.99,95.6,39.3,0.97,10.13,-91.66,81.61,60.32,311.68,319.23,82.48,60.08,311.45,318.8,0.0
2018-08-23 11:28:00,89.5341,5.43738,997.603,273.0,95.6,39.2,1.4,10.7,-90.78,82.53,60.39,310.55,317.99,82.61,60.14,311.21,318.66,0.0
2018-08-23 11:28:00,89.5341,5.43739,997.602,273.0,95.6,39.3,1.25,10.75,-89.91,81.81,60.25,310.34,317.69,82.72,60.22,310.99,318.4,0.0
2018-08-23 11:28:00,89.5341,5.43741,997.594,273.0,95.6,39.3,1.07,10.74,-89.12,82.66,60.04,310.35,317.75,82.79,60.31,310.74,318.22,0.0
2018-08-23 11:28:00,89.5341,5.43742,997.59,273.0,95.6,39.4,1.24,10.96,-88.39,82.59,60.32,310.61,318.62,82.81,60.41,310.57,318.18,0.0
2018-08-23 11:28:00,89.5341,5.43742,997.575,273.0,95.6,39.5,1.33,10.65,-87.61,81.81,60.18,311.83,318.57,82.78,60.5,310.7,318.12,0.0
2018-08-23 11:28:00,89.5341,5.43743,997.577,273.0,95.6,39.5,1.85,10.58,-87.2,81.74,60.32,310.33,318.24,82.7,60.58,310.68,318.07,0.0
2018-08-23 11:28:00,89.5341,5.43744,997.566,273.0,95.6,39.5,2.31,10.41,-86.47,81.74,60.39,311.14,317.14,82.59,60.64,310.82,318.17,0.0
2018-08-23 11:28:00,89.53409,5.43744,997.551,273.0,95.6,39.7,2.74,10.26,-85.59,82.2,60.25,310.34,317.72,82.46,60.68,311.0,318.28,0.0
2018-08-23 11:28:00,89.53409,5.43745,997.542,273.0,95.6,39.7,3.18,10.26,-84.74,82.46,60.04,310.12,318.26,82.34,60.69,311.16,318.37,0.0
2018-08-23 11:28:00,89.53409,5.43746,997.532,273.0,95.6,39.8,3.71,10.43,-84.0,82.13,60.52,311.74,317.74,82.25,60.68,311.26,318.41,0.0
2018-08-23 11:28:00,89.53409,5.43746,997.512,273.0,95.6,40.0,3.83,10.02,-82.8,82.72,60.46,311.79,318.68,82.21,60.64,311.29,318.43,0.0
2018-08-23 11:28:00,89.53409,5.43747,997.514,273.0,95.6,40.0,3.51,10.24,-81.7,82.4,60.39,312.0,318.85,82.22,60.59,311.31,318.43,0.0
2018-08-23 11:28:00,89.53409,5.43748,997.524,273.0,95.6,39.9,3.62,10.2,-80.75,82.79,60.46,311.56,319.16,82.28,60.52,311.27,318.54,0.0
