Date/Time,Latitude,Longitude,PPPP [hPa],TTT grad [K],RH [%],Height [m],Pitch [deg],Roll [deg],Yaw [deg],SWD [W/m**2] (raw),SWU [W/m**2] (raw),LWD [W/m**2] (raw),LWU [W/m**2] (raw),SWD [W/m**2] (corrected),SWU [W/m**2] (corrected),LWD [W/m**2] (corrected),LWU [W/m**2] (corrected),Flag
2018-08-23 12:18:00,89.53441,5.92159,925.985,272.77,89.6,629.2,3.75,5.25,-76.05,151.37,99.17,302.88,310.71,151.36,98.89,302.6,310.58,0.0
2018-08-23 12:18:00,89.53441,5.92156,925.995,272.78,89.6,629.1,3.75,5.18,-76.17,150.78,98.96,303.06,310.6,151.39,98.91,302.62,310.58,0.0
2018-08-23 12:18:00,89.53441,5.92152,926.01,272.78,89.6,629.0,3.68,5.2,-76.31,150.85,99.03,302.88,310.42,151.37,98.93,302.77,310.53,0.0
2018-08-23 12:18:00,89.53441,5.92149,926.026,272.78,89.6,628.8,3.66,5.29,-76.51,150.06,99.03,302.88,310.41,151.31,98.97,302.92,310.53,0.0
2018-08-23 12:18:00,89.53441,5.92146,926.031,272.78,89.6,628.8,3.65,5.35,-76.76,150.65,99.24,303.15,310.31,151.24,99.03,303.01,310.58,0.0
2018-08-23 12:18:00,89.53441,5.92144,925.987,272.78,89.6,629.1,3.67,5.29,-77.04,150.85,99.17,303.05,310.7,151.17,99.09,303.03,310.64,0.0
2018-08-23 12:18:00,89.53441,5.92142,926.0,272.78,89.6,629.0,3.71,5.38,-77.29,151.83,99.03,302.98,310.59,151.13,99.17,303.04,310.69,0.0
2018-08-23 12:18:00,89.53441,5.9214,926.003,272.78,89.6,629.0,4.01,5.48,-77.63,150.65,99.1,303.2,310.05,151.13,99.26,303.05,310.75,0.0
2018-08-23 12:18:00,89.53441,5.92138,926.014,272.78,89.6,628.9,4.08,5.42,-77.93,150.33,98.9,302.97,310.27,151.17,99.35,303.06,310.81,0.0
2018-08-23 12:18:00,89.53441,5.92136,926.023,272.78,89.6,628.8,4.09,5.27,-78.27,150.72,99.17,302.87,310.52,151.26,99.43,303.07,310.85,0.0
2018-08-23 12:18:00,89.53441,5.92134,926.017,272.78,89.6,628.9,4.15,5.21,-78.62,150.78,99.03,302.97,310.71,151.4,99.49,303.1,310.9,0.0
2018-08-23 12:18:00,89.53441,5.92131,925.999,272.79,89.6,629.0,4.21,5.4,-78.84,150.98,99.1,303.06,310.71,151.55,99.53,303.16,310.97,0.0
2018-08-23 12:18:00,89.53441,5.92129,925.983,272.79,89.6,629.2,4.07,5.24,-78.72,151.44,99.24,302.97,310.8,151.71,99.55,303.19,310.96,0.0
2018-08-23 12:18:00,89.53441,5.92127,925.989,272.79,89.6,629.1,4.09,5.26,-78.91,150.59,99.17,303.15,310.52,151.85,99.55,303.2,311.0,0.0
2018-08-23 12:18:00,89.53441,5.92125,925.994,272.79,89.6,629.1,4.21,5.27,-79.29,150.98,99.17,302.95,310.8,151.95,99.52,303.21,310.98,0.0
2018-08-23 12:18:00,89.53441,5.92123,925.997,272.79,89.6,629.1,4.25,5.17,-79.59,150.59,99.17,303.18,310.54,152.0,99.47,303.21,310.92,0.0
2018-08-23 12:18:00,89.53441,5.92123,926.013,272.79,89.6,628.9,4.06,5.02,-79.72,151.05,99.17,303.18,311.24,151.97,99.42,303.19,310.85,0.0
2018-08-23 12:18:00,89.53441,5.92124,926.04,272.8,89.6,628.7,3.96,5.17,-80.31,151.11,99.24,302.87,310.62,151.88,99.35,303.15,310.76,0.0
2018-08-23 12:18:00,89.53441,5.92124,926.02,272.8,89.6,628.9,4.08,5.38,-80.5,150.92,99.17,302.78,310.71,151.72,99.29,303.08,310.66,0.0
2018-08-23 12:18:00,89.53441,5.92125,926.016,272.8,89.6,628.9,4.07,5.57,-80.71,150.52,99.1,303.06,310.7,151.5,99.22,302.99,310.57,0.0
2018-08-23 12:18:00,89.53441,5.92125,926.027,272.79,89.6,628.8,4.24,6.0,-81.09,151.96,99.24,303.05,310.64,151.25,99.15,302.9,310.51,0.0
2018-08-23 12:18:00,89.53441,5.92126,926.038,272.79,89.6,628.7,4.71,6.49,-81.52,150.78,99.17,303.05,311.05,150.98,99.09,302.81,310.44,0.0
2018-08-23 12:18:00,89.53441,5.92126,926.04,272.79,89.6,628.7,5.15,6.28,-81.72,151.5,99.17,303.16,310.6,150.71,99.02,302.72,310.39,0.0
2018-08-23 12:18:00,89.53441,5.92127,926.021,272.79,89.6,628.9,4.86,6.28,-81.81,151.05,99.24,302.79,310.8,150.47,98.95,302.68,310.4,0.0
2018-08-23 12:18:00,89.53441,5.92128,926.043,272.8,89.6,628.7,5.18,6.59,-81.96,151.7,99.24,302.97,310.71,150.27,98.88,302.68,310.45,0.0
2018-08-23 12:18:00,89.53441,5.92128,926.05,272.8,89.6,628.6,5.19,6.7,-82.19,150.06,99.24,303.06,310.7,150.12,98.8,302.72,310.51,0.0
2018-08-23 12:18:00,89.53441,5.92129,926.033,272.79,89.6,628.8,4.92,6.61,-82.46,151.31,98.96,303.07,310.7,150.04,98.71,302.76,310.56,0.0
2018-08-23 12:18:00,89.53441,5.92129,926.055,272.79,89.6,628.6,4.83,6.59,-82.75,150.46,99.17,303.08,310.71,150.03,98.63,302.78,310.6,0.0
2018-08-23 12:18:00,89.53441,5.92128,926.048,272.8,89.6,628.6,4.96,6.69,-83.26,150.92,99.1,303.07,310.6,150.08,98.56,302.87,310.65,0.0
2018-08-23 12:18:00,89.53441,5.92127,926.048,272.8,89.6,628.6,4.63,6.46,-83.61,150.78,99.24,303.25,310.42,150.18,98.51,302.83,310.63,0.0
2018-08-23 12:18:00,89.53441,5.92126,926.044,272.8,89.6,628.7,4.6,6.48,-84.02,151.5,99.17,303.07,310.8,150.34,98.47,302.82,310.61,0.0
2018-08-23 12:18:00,89.53441,5.92124,926.042,272.8,89.6,628.7,4.69,6.63,-84.38,151.18,99.17,302.86,310.5,150.53,98.45,302.84,310.59,0.0
2018-08-23 12:18:00,89.53441,5.92123,926.048,272.8,89.6,628.6,4.61,6.69,-84.56,150.33,98.96,302.22,310.6,150.76,98.45,302.81,310.57,0.0
2018-08-23 12:18:00,89.53441,5.92122,926.028,272.79,89.6,628.8,4.4,6.43,-84.46,151.24,98.96,302.67,310.42,150.99,98.47,302.74,310.53,0.0
2018-08-23 12:18:00,89.53441,5.92121,926.068,272.8,89.6,628.5,4.48,6.65,-84.4,150.98,99.03,301.32,309.95,151.23,98.51,302.65,310.51,0.0
2018-08-23 12:18:00,89.53441,5.92119,926.074,272.8,89.6,628.4,4.52,6.52,-84.57,150.0,99.1,302.21,310.1,151.47,98.55,302.55,310.49,0.0
2018-08-23 12:18:00,89.53441,5.92118,926.062,272.8,89.6,628.5,4.38,6.29,-84.84,150.78,99.03,302.78,310.7,151.69,98.59,302.45,310.5,0.0
2018-08-23 12:18:00,89.53441,5.92117,926.067,272.8,89.6,628.5,4.19,6.24,-85.1,151.37,98.83,303.06,310.7,151.88,98.63,302.41,310.52,0.0
2018-08-23 12:18:00,89.53441,5.92116,926.07,272.8,89.6,628.4,4.21,6.45,-85.36,150.92,99.03,303.07,310.6,152.04,98.66,302.43,310.56,0.0
2018-08-23 12:18:00,89.53441,5.92114,926.053,272.79,89.6,628.6,4.05,6.08,-85.46,150.98,98.96,302.88,310.51,152.15,98.68,302.43,310.61,0.0
2018-08-23 12:18:00,89.53441,5.92113,926.07,272.8,89.6,628.4,3.82,6.05,-85.45,150.78,99.1,302.96,310.42,152.21,98.69,302.58,310.69,0.0
2018-08-23 12:18:00,89.53441,5.92112,926.082,272.8,89.6,628.3,3.79,6.13,-85.51,151.37,98.96,302.78,310.8,152.2,98.7,302.71,310.75,0.0
2018-08-23 12:18:00,89.53441,5.92111,926.068,272.79,89.6,628.5,3.81,6.07,-85.53,151.11,98.9,302.97,310.71,152.12,98.71,302.8,310.76,0.0
2018-08-23 12:18:00,89.53441,5.9211,926.032,272.8,89.6,628.8,3.66,5.8,-85.36,151.05,99.03,302.97,310.61,151.96,98.73,302.9,310.76,0.0
2018-08-23 12:18:00,89.53441,5.92108,926.06,272.8,89.6,628.5,3.77,5.97,-85.11,151.05,98.96,303.16,310.62,151.74,98.75,303.0,310.73,0.0
2018-08-23 12:18:00,89.53441,5.92107,926.054,272.8,89.7,628.6,4.02,5.93,-85.03,150.65,98.96,302.97,310.71,151.46,98.78,303.07,310.7,0.0
2018-08-23 12:18:00,89.53441,5.92106,926.058,272.8,89.7,628.5,4.02,5.81,-84.71,152.03,98.96,302.97,310.81,151.13,98.82,303.12,310.66,0.0
2018-08-23 12:18:00,89.53441,5.92105,926.074,272.8,89.7,628.4,4.04,5.77,-84.18,150.78,98.83,303.06,310.71,150.79,98.85,303.15,310.64,0.0
2018-08-23 12:18:00,89.53441,5.92104,926.089,272.8,89.7,628.3,4.14,5.82,-83.61,151.24,98.96,302.87,310.71,150.47,98.88,303.15,310.64,0.0
2018-08-23 12:18:00,89.53441,5.92103,926.103,272.8,89.7,628.2,3.94,5.83,-83.28,151.18,98.83,302.87,310.61,150.19,98.89,303.13,310.67,0.0
2018-08-23 12:18:00,89.53441,5.92102,926.092,272.8,89.7,628.3,3.65,5.76,-82.6,151.05,99.03,302.87,310.71,149.98,98.88,303.1,310.68,0.0
2018-08-23 12:18:00,89.53441,5.921,926.087,272.8,89.7,628.3,3.66,5.8,-82.02,151.31,98.83,302.87,310.61,149.88,98.85,303.08,310.7,0.0
2018-08-23 12:18:00,89.53441,5.92099,926.095,272.8,89.7,628.2,3.65,5.81,-81.44,151.24,99.03,302.87,310.88,149.88,98.8,303.06,310.72,0.0
2018-08-23 12:18:00,89.53441,5.92098,926.109,272.8,89.7,628.1,3.59,5.73,-80.78,150.65,98.96,302.86,311.07,150.0,98.74,303.06,310.74,0.0
2018-08-23 12:18:00,89.53441,5.92097,926.114,272.8,89.7,628.1,3.63,5.54,-80.01,151.18,98.96,303.05,311.04,150.23,98.68,303.07,310.75,0.0
2018-08-23 12:18:00,89.53441,5.92096,926.112,272.8,89.7,628.1,3.61,5.66,-80.22,150.59,98.96,302.88,310.72,150.54,98.62,303.09,310.75,0.0
2018-08-23 12:18:00,89.53441,5.92093,926.11,272.8,89.7,628.1,3.72,5.65,-80.04,150.46,98.96,302.87,310.4,150.9,98.58,303.12,310.72,0.0
2018-08-23 12:18:00,89.53441,5.92091,926.1,272.8,89.7,628.2,3.79,5.52,-79.77,151.31,98.83,303.06,310.6,151.28,98.56,303.15,310.67,0.0
2018-08-23 12:18:00,89.53441,5.92088,926.099,272.8,89.7,628.2,3.91,5.44,-79.41,151.05,98.9,303.07,310.41,151.64,98.58,303.17,310.6,0.0
2018-08-23 12:18:00,89.53441,5.92086,926.126,272.81,89.7,628.0,4.09,5.47,-78.89,151.24,98.96,302.79,310.69,151.95,98.62,303.2,310.5,0.0
2018-08-23 12:18:00,89.53441,5.92083,926.136,272.8,89.7,627.9,4.01,5.38,-78.1,150.78,98.69,302.69,310.51,152.19,98.69,303.21,310.43,0.0
2018-08-23 12:18:00,89.53441,5.92081,926.12,272.8,89.7,628.0,3.82,5.23,-77.42,150.13,99.03,302.88,310.42,152.36,98.76,303.22,310.41,0.0
2018-08-23 12:18:00,89.53441,5.92078,926.106,272.8,89.7,628.1,3.93,5.22,-76.82,151.18,98.76,303.25,310.41,152.46,98.84,303.24,310.43,0.0
2018-08-23 12:18:00,89.53441,5.92076,926.109,272.8,89.7,628.1,3.91,5.22,-76.34,151.18,98.9,302.97,310.7,152.51,98.91,303.26,310.48,0.0
2018-08-23 12:18:00,89.53441,5.92073,926.126,272.81,89.7,628.0,3.72,5.21,-75.99,151.44,98.76,303.16,310.6,152.51,98.95,303.28,310.56,0.0
2018-08-23 12:18:00,89.53441,5.92072,926.121,272.8,89.7,628.0,3.8,5.25,-75.67,151.83,98.83,303.07,310.6,152.5,98.96,303.32,310.66,0.0
2018-08-23 12:18:00,89.53441,5.92072,926.134,272.81,89.7,627.9,3.59,5.11,-75.11,150.92,98.9,303.07,310.88,152.49,98.95,303.36,310.77,0.0
2018-08-23 12:18:00,89.53441,5.92071,926.143,272.81,89.6,627.8,3.55,5.19,-74.7,151.5,99.03,303.07,310.52,152.49,98.9,303.4,310.86,0.0
2018-08-23 12:18:00,89.53441,5.9207,926.166,272.81,89.6,627.6,3.73,5.35,-74.39,150.78,98.96,303.07,310.9,152.49,98.84,303.43,310.9,0.0
2018-08-23 12:18:00,89.53441,5.92069,926.178,272.8,89.6,627.5,3.88,5.37,-74.07,151.11,98.83,303.07,310.6,152.5,98.78,303.44,310.9,0.0
2018-08-23 12:18:00,89.53441,5.92068,926.138,272.81,89.6,627.9,3.78,5.16,-73.64,151.24,98.83,302.88,310.7,152.48,98.71,303.43,310.89,0.0
2018-08-23 12:18:00,89.53441,5.92067,926.182,272.81,89.6,627.5,3.98,5.14,-72.99,151.83,98.9,303.07,310.33,152.42,98.67,303.39,310.84,0.0
2018-08-23 12:18:00,89.53441,5.92066,926.174,272.8,89.6,627.6,4.1,5.28,-72.52,150.78,98.96,303.25,310.62,152.3,98.64,303.32,310.77,0.0
2018-08-23 12:18:00,89.53441,5.92066,926.167,272.81,89.6,627.6,4.17,5.2,-72.08,151.31,98.9,303.16,310.19,152.09,98.64,303.23,310.68,0.0
2018-08-23 12:18:00,89.53441,5.92065,926.168,272.81,89.6,627.6,4.18,5.02,-71.82,151.64,98.83,303.16,310.21,151.82,98.66,303.12,310.59,0.0
2018-08-23 12:18:00,89.53441,5.92064,926.166,272.8,89.6,627.6,4.13,4.92,-71.76,151.37,98.83,302.89,310.9,151.47,98.7,303.01,310.52,0.0
2018-08-23 12:18:00,89.53441,5.92063,926.169,272.8,89.6,627.6,3.98,5.06,-71.65,152.03,98.76,303.13,310.42,151.09,98.73,302.92,310.49,0.0
2018-08-23 12:18:00,89.53441,5.92062,926.176,272.8,89.6,627.6,4.09,5.12,-71.52,151.7,98.76,303.06,310.89,150.71,98.77,302.85,310.49,0.0
2018-08-23 12:18:00,89.53441,5.92061,926.177,272.8,89.6,627.5,4.05,4.88,-71.19,151.77,98.76,303.05,310.6,150.37,98.79,302.82,310.52,0.0
2018-08-23 12:18:00,89.53441,5.92059,926.184,272.8,89.6,627.5,3.99,4.64,-71.02,151.05,99.03,303.06,310.41,150.11,98.8,302.82,310.62,0.0
2018-08-23 12:18:00,89.53441,5.92058,926.188,272.8,89.6,627.4,3.97,4.38,-71.2,150.78,98.76,303.25,310.89,149.96,98.8,302.85,310.73,0.0
2018-08-23 12:18:00,89.53441,5.92057,926.159,272.8,89.6,627.7,3.99,3.92,-71.71,151.18,98.83,303.15,310.7,149.94,98.78,302.9,310.79,0.0
2018-08-23 12:18:00,89.53441,5.92055,926.203,272.8,89.6,627.3,3.66,3.81,-71.96,151.18,98.9,303.15,310.89,150.05,98.76,303.0,310.86,0.0
2018-08-23 12:18:00,89.53441,5.92054,926.185,272.8,89.6,627.5,3.95,3.87,-72.15,152.29,99.03,303.15,310.69,150.26,98.73,303.07,310.92,0.0
2018-08-23 12:18:00,89.5344,5.92053,926.197,272.8,89.6,627.4,4.02,3.83,-72.34,150.92,98.83,303.06,310.6,150.56,98.72,303.11,310.93,0.0
2018-08-23 12:18:00,89.5344,5.92051,926.231,272.8,89.6,627.1,3.88,3.57,-72.48,151.18,98.96,303.15,310.54,150.88,98.72,303.12,310.9,0.0
2018-08-23 12:18:00,89.5344,5.9205,926.232,272.8,89.6,627.1,3.79,3.21,-72.57,150.33,98.62,303.13,310.59,151.21,98.73,303.11,310.84,0.0
2018-08-23 12:18:00,89.5344,5.92049,926.179,272.79,89.5,627.5,4.03,3.39,-72.89,150.98,98.48,303.3,310.33,151.49,98.76,303.06,310.77,0.0
2018-08-23 12:18:00,89.5344,5.92047,926.187,272.79,89.6,627.5,4.28,3.57,-73.09,151.57,99.03,303.06,310.96,151.7,98.8,303.0,310.7,0.0
2018-08-23 12:18:00,89.5344,5.92046,926.213,272.8,89.6,627.2,4.3,3.23,-73.27,151.24,98.83,303.06,310.82,151.84,98.85,302.93,310.65,0.0
2018-08-23 12:18:00,89.5344,5.92043,926.226,272.8,89.6,627.1,4.27,2.96,-73.54,151.05,98.83,302.87,310.51,151.91,98.89,302.87,310.63,0.0
2018-08-23 12:18:00,89.5344,5.92039,926.21,272.79,89.6,627.3,4.31,2.96,-73.83,151.77,98.83,302.88,310.89,151.95,98.92,302.83,310.64,0.0
2018-08-23 12:18:00,89.5344,5.92036,926.197,272.8,89.6,627.4,4.4,2.73,-73.81,151.11,98.9,302.88,310.7,151.98,98.94,302.81,310.68,0.0
2018-08-23 12:18:00,89.5344,5.92032,926.2,272.79,89.6,627.3,3.8,2.72,-74.09,151.44,98.83,302.97,310.71,152.04,98.94,302.8,310.73,0.0
2018-08-23 12:18:00,89.5344,5.92029,926.22,272.8,89.6,627.2,3.89,2.87,-74.83,151.24,98.83,303.07,310.6,152.16,98.92,302.84,310.76,0.0
2018-08-23 12:18:00,89.5344,5.92025,926.222,272.8,89.6,627.2,3.87,2.8,-75.39,151.05,98.83,303.07,310.88,152.36,98.88,302.92,310.81,0.0
2018-08-23 12:18:00,89.5344,5.92022,926.212,272.79,89.6,627.2,3.63,2.61,-75.76,151.83,98.76,303.15,310.6,152.62,98.84,303.01,310.83,0.0
2018-08-23 12:18:00,89.5344,5.92018,926.232,272.79,89.6,627.1,3.44,2.57,-76.25,150.78,98.96,303.05,310.79,152.94,98.78,303.09,310.83,0.0
2018-08-23 12:18:00,89.5344,5.92015,926.241,272.79,89.6,627.0,3.67,2.65,-76.93,151.5,98.83,303.06,310.6,153.28,98.72,303.15,310.8,0.0
2018-08-23 12:18:00,89.5344,5.92012,926.233,272.8,89.6,627.1,3.51,2.65,-77.16,151.37,98.9,302.88,310.79,153.59,98.66,303.19,310.74,0.0
2018-08-23 12:18:00,89.5344,5.92008,926.227,272.8,89.6,627.1,3.5,2.56,-77.66,151.11,98.83,303.16,310.6,153.83,98.6,303.2,310.65,0.0
2018-08-23 12:18:00,89.5344,5.92005,926.233,272.79,89.6,627.1,3.57,2.62,-78.26,151.64,98.76,302.97,310.6,153.95,98.54,303.17,310.56,0.0
2018-08-23 12:18:00,89.5344,5.92002,926.245,272.79,89.6,627.0,3.6,2.86,-78.73,151.5,98.83,302.87,310.69,153.92,98.47,303.12,310.48,0.0
2018-08-23 12:18:00,89.5344,5.92,926.231,272.79,89.5,627.1,3.51,2.83,-79.02,152.42,98.76,303.07,310.7,153.73,98.4,303.05,310.41,0.0
2018-08-23 12:18:00,89.5344,5.91998,926.252,272.79,89.5,626.9,3.49,2.83,-79.34,151.64,98.83,302.97,310.7,153.4,98.32,302.97,310.38,0.0
2018-08-23 12:18:00,89.5344,5.91996,926.259,272.8,89.5,626.8,3.35,2.87,-79.73,151.5,98.76,303.07,310.79,152.95,98.23,302.9,310.38,0.0
2018-08-23 12:18:00,89.5344,5.91994,926.263,272.8,89.5,626.8,3.33,2.91,-80.16,151.96,98.96,303.07,310.7,152.44,98.15,302.85,310.41,0.0
2018-08-23 12:18:00,89.5344,5.91992,926.268,272.79,89.5,626.8,3.42,2.88,-80.59,151.96,98.76,303.16,310.71,151.91,98.06,302.83,310.47,0.0
2018-08-23 12:18:00,89.5344,5.9199,926.26,272.79,89.5,626.8,3.4,2.74,-81.01,152.29,98.76,302.97,310.6,151.42,97.99,302.82,310.54,0.0
2018-08-23 12:18:00,89.5344,5.91988,926.286,272.79,89.5,626.6,3.55,3.03,-81.33,151.77,98.62,303.16,310.79,151.04,97.93,302.85,310.61,0.0
2018-08-23 12:18:00,89.5344,5.91986,926.259,272.79,89.6,626.8,3.66,2.97,-81.65,152.03,98.69,302.97,310.8,150.78,97.89,302.89,310.67,0.0
2018-08-23 12:18:00,89.5344,5.91983,926.247,272.79,89.6,626.9,3.54,2.83,-81.88,151.9,98.83,303.07,310.71,150.67,97.87,302.94,310.72,0.0
2018-08-23 12:18:00,89.5344,5.91981,926.262,272.79,89.6,626.8,3.34,2.73,-82.12,151.37,98.62,303.26,310.42,150.72,97.88,302.93,310.74,0.0
2018-08-23 12:18:00,89.5344,5.91979,926.291,272.79,89.6,626.6,3.29,2.79,-82.6,151.57,98.62,302.86,310.61,150.9,97.9,302.84,310.73,0.0
2018-08-23 12:18:00,89.5344,5.91977,926.266,272.79,89.5,626.8,2.92,2.78,-82.73,151.57,98.41,302.87,310.41,151.18,97.95,302.85,310.73,0.0
2018-08-23 12:18:00,89.5344,5.91975,926.279,272.79,89.5,626.7,2.88,2.85,-82.73,151.05,98.76,303.15,310.5,151.53,98.01,302.86,310.73,0.0
2018-08-23 12:18:00,89.5344,5.91973,926.285,272.79,89.5,626.6,2.92,2.99,-82.87,151.96,98.62,303.06,310.69,151.9,98.08,302.87,310.73,0.0
2018-08-23 12:18:00,89.5344,5.91971,926.282,272.79,89.6,626.7,2.92,3.01,-83.02,152.55,98.62,302.31,310.8,152.25,98.16,302.85,310.74,0.0
2018-08-23 12:18:00,89.5344,5.91965,926.283,272.79,89.6,626.6,2.9,2.85,-83.08,151.64,98.48,301.34,310.15,152.55,98.23,302.82,310.76,0.0
2018-08-23 12:18:00,89.5344,5.9196,926.295,272.79,89.6,626.5,3.02,2.68,-83.06,151.05,98.48,302.29,310.32,152.78,98.29,302.79,310.78,0.0
2018-08-23 12:18:00,89.5344,5.91954,926.316,272.79,89.6,626.4,2.99,2.91,-82.93,151.37,98.41,302.74,310.8,152.94,98.34,302.75,310.82,0.0
2018-08-23 12:18:00,89.5344,5.91949,926.296,272.79,89.6,626.5,3.17,2.99,-83.05,151.18,98.62,303.07,310.5,153.03,98.39,302.71,310.85,0.0
2018-08-23 12:18:00,89.5344,5.91943,926.289,272.79,89.6,626.6,3.21,2.92,-83.02,152.75,98.76,303.35,310.88,153.05,98.42,302.69,310.87,0.0
2018-08-23 12:18:00,89.5344,5.91938,926.308,272.79,89.6,626.4,3.12,2.9,-82.85,152.36,98.55,303.07,310.97,153.03,98.45,302.74,310.88,0.0
2018-08-23 12:18:00,89.5344,5.91932,926.298,272.78,89.6,626.5,3.13,3.12,-82.71,151.96,98.55,303.06,310.58,152.97,98.47,302.87,310.89,0.0
2018-08-23 12:18:00,89.5344,5.91927,926.319,272.78,89.6,626.3,3.22,3.07,-82.37,151.7,98.41,302.78,310.58,152.9,98.47,302.91,310.86,0.0
2018-08-23 12:18:00,89.5344,5.91923,926.316,272.78,89.6,626.4,3.09,2.98,-82.19,151.44,98.34,302.88,310.48,152.82,98.47,302.94,310.82,0.0
2018-08-23 12:18:00,89.5344,5.9192,926.309,272.78,89.6,626.4,3.07,3.07,-81.82,152.09,98.76,303.07,310.78,152.73,98.46,302.98,310.78,0.0
2018-08-23 12:18:00,89.53439,5.91917,926.313,272.78,89.6,626.4,3.12,3.23,-81.32,151.83,98.48,303.16,310.88,152.65,98.44,303.03,310.75,0.0
2018-08-23 12:18:00,89.53439,5.91914,926.331,272.78,89.6,626.2,3.16,3.35,-80.73,152.16,98.55,303.07,310.68,152.57,98.42,303.08,310.73,0.0
2018-08-23 12:18:00,89.53439,5.91912,926.339,272.78,89.6,626.2,3.21,3.45,-79.85,152.09,98.48,302.97,310.96,152.49,98.38,303.13,310.72,0.0
2018-08-23 12:18:00,89.53439,5.91909,926.336,272.78,89.6,626.2,3.34,3.5,-78.91,152.09,98.62,303.06,310.58,152.4,98.35,303.17,310.72,0.0
2018-08-23 12:18:00,89.53439,5.91906,926.328,272.78,89.6,626.3,3.44,3.54,-78.3,151.83,98.55,303.06,310.96,152.3,98.31,303.19,310.73,0.0
2018-08-23 12:18:00,89.53439,5.91903,926.336,272.78,89.6,626.2,3.45,3.5,-77.74,151.57,98.41,303.35,310.68,152.19,98.27,303.2,310.77,0.0
2018-08-23 12:18:00,89.53439,5.919,926.353,272.78,89.6,626.0,3.46,3.49,-77.15,152.55,98.62,303.07,310.87,152.07,98.24,303.18,310.81,0.0
2018-08-23 12:18:00,89.53439,5.91897,926.324,272.78,89.6,626.3,3.59,3.75,-76.54,152.42,98.41,302.98,310.68,151.95,98.21,303.15,310.8,0.0
2018-08-23 12:18:00,89.53439,5.91894,926.359,272.78,89.6,626.0,3.6,3.76,-75.26,151.64,98.55,302.89,310.79,151.85,98.19,303.1,310.77,0.0
2018-08-23 12:18:00,89.53439,5.91891,926.358,272.78,89.6,626.0,3.55,3.64,-74.16,152.36,98.55,302.79,310.6,151.77,98.18,303.04,310.71,0.0
2018-08-23 12:18:00,89.53439,5.91888,926.361,272.78,89.6,626.0,3.56,3.63,-72.97,152.22,98.55,303.16,311.02,151.74,98.18,302.98,310.65,0.0
2018-08-23 12:18:00,89.53439,5.91884,926.374,272.78,89.6,625.9,3.58,3.69,-71.84,151.96,98.34,302.88,311.01,151.76,98.18,302.93,310.57,0.0
2018-08-23 12:18:00,89.53439,5.91879,926.366,272.78,89.6,625.9,3.49,3.71,-70.94,150.78,98.34,303.06,310.3,151.86,98.2,302.89,310.5,0.0
2018-08-23 12:18:00,89.53439,5.91874,926.361,272.78,89.6,626.0,3.32,3.66,-70.13,152.29,98.48,302.88,310.69,152.02,98.23,302.88,310.45,0.0
2018-08-23 12:18:00,89.53439,5.9187,926.389,272.78,89.6,625.7,3.27,3.9,-69.66,152.55,98.48,302.88,310.68,152.26,98.27,302.9,310.42,0.0
2018-08-23 12:18:00,89.53439,5.91865,926.381,272.79,89.6,625.8,3.25,3.81,-69.04,152.09,98.55,303.07,310.88,152.56,98.31,302.94,310.42,0.0
2018-08-23 12:18:00,89.53439,5.9186,926.356,272.79,89.6,626.0,3.2,3.72,-68.41,152.16,98.34,303.16,310.4,152.89,98.37,303.0,310.42,0.0
2018-08-23 12:18:00,89.53439,5.91855,926.351,272.78,89.6,626.1,3.18,3.83,-67.87,151.31,98.48,303.16,310.77,153.24,98.43,303.07,310.43,0.0
2018-08-23 12:18:00,89.53439,5.91851,926.364,272.78,89.6,626.0,3.39,4.05,-67.23,152.09,98.41,303.07,310.48,153.57,98.49,303.14,310.49,0.0
2018-08-23 12:18:00,89.53439,5.91846,926.382,272.79,89.6,625.8,3.09,3.8,-66.27,152.03,98.48,302.88,310.77,153.84,98.56,303.2,310.55,0.0
2018-08-23 12:18:00,89.53439,5.91841,926.39,272.79,89.6,625.7,2.95,3.68,-65.68,152.22,98.48,303.07,310.87,154.04,98.61,303.24,310.59,0.0
2018-08-23 12:18:00,89.53439,5.91836,926.394,272.79,89.6,625.7,2.96,3.81,-64.95,152.49,98.41,303.07,310.58,154.12,98.66,303.26,310.62,0.0
2018-08-23 12:18:00,89.53439,5.91832,926.397,272.78,89.6,625.7,3.04,3.98,-63.82,152.29,98.41,302.97,310.58,154.09,98.69,303.24,310.62,0.0
2018-08-23 12:18:00,89.53439,5.91827,926.402,272.78,89.6,625.6,3.09,3.88,-62.25,151.96,98.28,303.06,310.57,153.94,98.69,303.21,310.61,0.0
2018-08-23 12:18:00,89.53439,5.91824,926.389,272.78,89.6,625.7,3.15,4.0,-61.58,152.36,98.55,302.96,310.68,153.68,98.67,303.16,310.56,0.0
2018-08-23 12:18:00,89.53439,5.9182,926.43,272.78,89.6,625.4,3.33,4.04,-61.2,152.42,98.55,303.06,310.59,153.34,98.63,303.09,310.51,0.0
2018-08-23 12:18:00,89.53439,5.91816,926.444,272.78,89.6,625.3,3.37,3.93,-60.68,151.77,98.62,302.88,310.93,152.95,98.56,303.04,310.46,0.0
2018-08-23 12:18:00,89.53438,5.91812,926.424,272.78,89.6,625.4,3.4,3.83,-60.09,153.14,98.34,303.16,310.6,152.57,98.47,302.96,310.46,0.0
2018-08-23 12:18:00,89.53438,5.91808,926.403,272.79,89.6,625.6,3.51,3.82,-59.66,153.14,98.48,302.87,310.6,152.21,98.38,302.87,310.5,0.0
2018-08-23 12:18:00,89.53438,5.91805,926.436,272.78,89.6,625.3,3.47,3.75,-59.64,151.96,98.55,303.16,310.67,151.92,98.29,302.8,310.56,0.0
2018-08-23 12:18:00,89.53438,5.91801,926.441,272.78,89.6,625.3,3.39,3.76,-59.27,152.62,98.48,303.16,310.48,151.73,98.22,302.74,310.61,0.0
2018-08-23 12:18:00,89.53438,5.91797,926.453,272.78,89.6,625.2,3.29,3.62,-58.99,152.62,98.55,303.07,310.86,151.63,98.17,302.75,310.68,0.0
2018-08-23 12:18:00,89.53438,5.91793,926.449,272.78,89.6,625.2,3.22,3.65,-58.8,151.77,98.41,302.86,310.92,151.62,98.15,302.74,310.83,0.0
2018-08-23 12:18:00,89.53438,5.9179,926.428,272.78,89.6,625.4,3.25,3.78,-58.66,152.55,98.55,302.3,311.06,151.69,98.16,302.71,311.01,0.0
2018-08-23 12:18:00,89.53438,5.91786,926.446,272.78,89.6,625.3,3.39,3.6,-58.61,152.55,98.34,302.41,310.98,151.8,98.22,302.71,311.04,0.0
2018-08-23 12:18:00,89.53438,5.91782,926.429,272.77,89.6,625.4,3.29,3.5,-58.44,152.03,98.41,302.37,310.73,151.93,98.3,302.7,311.07,0.0
2018-08-23 12:18:00,89.53438,5.9178,926.429,272.78,89.6,625.4,3.38,3.51,-58.64,151.9,98.34,302.96,310.3,152.05,98.41,302.68,311.07,0.0
2018-08-23 12:18:00,89.53438,5.91777,926.43,272.78,89.6,625.4,3.39,3.48,-58.89,151.83,98.55,302.69,311.56,152.14,98.53,302.65,311.05,0.0
2018-08-23 12:18:00,89.53438,5.91775,926.43,272.77,89.6,625.4,3.32,3.41,-59.18,152.22,98.21,302.31,311.76,152.19,98.66,302.63,310.99,0.0
2018-08-23 12:18:00,89.53438,5.91772,926.443,272.77,89.6,625.3,3.26,3.36,-59.66,152.62,98.48,302.66,310.3,152.2,98.78,302.65,310.91,0.0
2018-08-23 12:18:00,89.53438,5.9177,926.452,272.77,89.6,625.2,3.28,3.31,-60.04,152.88,98.41,302.86,310.68,152.19,98.88,302.69,310.86,0.0
2018-08-23 12:18:00,89.53438,5.91767,926.442,272.77,89.6,625.3,3.19,3.27,-60.32,152.42,98.48,303.16,310.59,152.17,98.96,302.74,310.84,0.0
2018-08-23 12:18:00,89.53438,5.91764,926.432,272.77,89.6,625.4,3.14,3.17,-60.75,152.49,98.55,302.97,310.68,152.17,99.02,302.76,310.85,0.0
2018-08-23 12:18:00,89.53438,5.91762,926.44,272.77,89.6,625.3,3.07,3.07,-61.21,152.29,98.48,303.35,310.68,152.22,99.04,302.82,310.78,0.0
2018-08-23 12:18:00,89.53438,5.91759,926.471,272.77,89.6,625.1,2.96,3.03,-61.68,151.83,98.48,302.97,310.58,152.33,99.05,302.92,310.71,0.0
2018-08-23 12:18:00,89.53438,5.91757,926.5,272.77,89.5,624.8,2.94,3.19,-62.32,152.36,98.48,302.96,310.69,152.51,99.02,302.99,310.75,0.0
2018-08-23 12:18:00,89.53438,5.91754,926.496,272.77,89.5,624.8,2.96,3.11,-62.98,151.83,98.62,302.96,310.77,152.75,98.98,303.04,310.79,0.0
2018-08-23 12:18:00,89.53438,5.91752,926.478,272.76,89.5,625.0,2.91,3.17,-63.65,151.96,98.55,302.87,310.87,153.03,98.92,303.09,310.81,0.0
2018-08-23 12:18:00,89.53438,5.91749,926.465,272.76,89.5,625.1,2.99,3.23,-64.4,152.62,98.55,303.07,310.59,153.32,98.85,303.12,310.82,0.0
2018-08-23 12:18:00,89.53438,5.91747,926.467,272.76,89.5,625.1,3.13,3.23,-65.25,152.36,98.55,302.97,310.59,153.59,98.78,303.14,310.81,0.0
2018-08-23 12:18:00,89.53438,5.91744,926.48,272.76,89.5,625.0,3.13,3.21,-66.22,152.09,98.34,302.78,310.68,153.79,98.7,303.14,310.77,0.0
2018-08-23 12:18:00,89.53438,5.91741,926.484,272.76,89.5,624.9,3.14,3.37,-67.29,152.22,98.76,303.05,310.68,153.91,98.62,303.13,310.73,0.0
2018-08-23 12:18:00,89.53438,5.91738,926.498,272.76,89.5,624.8,3.07,3.28,-68.28,153.01,98.55,303.06,310.59,153.93,98.55,303.15,310.7,0.0
2018-08-23 12:18:00,89.53438,5.91735,926.492,272.76,89.5,624.9,2.9,3.36,-69.2,152.42,98.62,303.06,310.68,153.82,98.49,303.15,310.68,0.0
2018-08-23 12:18:00,89.53438,5.91732,926.489,272.76,89.5,624.9,2.79,3.55,-69.93,152.75,98.62,302.97,310.87,153.62,98.43,303.15,310.66,0.0
2018-08-23 12:18:00,89.53438,5.91729,926.529,272.76,89.5,624.6,2.79,3.59,-70.56,152.75,98.55,302.97,310.68,153.33,98.39,303.17,310.66,0.0
2018-08-23 12:18:00,89.53438,5.91726,926.524,272.76,89.5,624.6,2.51,3.12,-71.58,152.29,98.62,303.07,310.69,152.98,98.36,303.2,310.68,0.0
2018-08-23 12:18:00,89.53438,5.91723,926.537,272.76,89.5,624.5,2.36,3.35,-72.58,152.42,98.55,303.55,310.77,152.62,98.35,303.25,310.72,0.0
2018-08-23 12:18:00,89.53438,5.9172,926.539,272.76,89.5,624.5,2.49,3.41,-73.54,152.42,98.48,303.23,310.76,152.27,98.35,303.31,310.78,0.0
2018-08-23 12:18:00,89.53438,5.91717,926.536,272.76,89.5,624.5,2.53,3.29,-74.42,152.94,98.41,303.02,310.61,151.97,98.35,303.37,310.84,0.0
2018-08-23 12:18:00,89.53438,5.91715,926.54,272.76,89.5,624.5,2.41,3.12,-75.15,152.22,98.55,303.17,310.63,151.75,98.37,303.43,310.87,0.0
2018-08-23 12:18:00,89.53438,5.91713,926.551,272.76,89.5,624.4,2.45,3.15,-75.64,153.14,98.55,303.08,310.68,151.63,98.38,303.48,310.89,0.0
2018-08-23 12:18:00,89.53438,5.9171,926.543,272.76,89.5,624.4,2.6,3.27,-76.3,152.36,98.62,303.07,310.57,151.62,98.39,303.51,310.89,0.0
2018-08-23 12:18:00,89.53438,5.91708,926.531,272.75,89.5,624.5,2.53,3.0,-76.84,152.42,98.55,303.25,310.91,151.72,98.4,303.48,310.86,0.0
2018-08-23 12:18:00,89.53438,5.91706,926.53,272.75,89.5,624.5,2.35,2.82,-77.53,152.62,98.48,303.05,310.75,151.91,98.4,303.46,310.83,0.0
2018-08-23 12:18:00,89.53438,5.91704,926.546,272.76,89.5,624.4,2.19,2.85,-78.34,152.16,98.41,303.04,310.48,152.2,98.4,303.41,310.81,0.0
2018-08-23 12:18:00,89.53438,5.91702,926.572,272.76,89.5,624.2,2.12,3.01,-79.11,152.81,98.55,303.07,310.48,152.55,98.39,303.33,310.79,0.0
2018-08-23 12:18:00,89.53438,5.917,926.557,272.75,89.5,624.3,1.92,2.76,-79.55,151.96,98.48,302.88,310.77,152.94,98.38,303.23,310.79,0.0
2018-08-23 12:18:00,89.53437,5.91697,926.565,272.75,89.5,624.2,1.78,2.66,-80.01,152.16,98.62,303.25,310.67,153.35,98.37,303.18,310.81,0.0
2018-08-23 12:18:00,89.53437,5.91695,926.551,272.75,89.5,624.4,1.82,2.6,-80.37,152.36,98.62,303.07,310.67,153.74,98.36,303.15,310.83,0.0
2018-08-23 12:18:00,89.53437,5.91693,926.54,272.75,89.5,624.5,1.91,2.6,-80.61,152.75,98.34,302.98,310.67,154.09,98.35,303.13,310.87,0.0
2018-08-23 12:18:00,89.53437,5.91691,926.562,272.75,89.5,624.3,1.95,2.62,-80.75,152.36,98.62,302.77,310.77,154.37,98.35,303.13,310.92,0.0
2018-08-23 12:18:00,89.53437,5.91688,926.563,272.74,89.5,624.3,1.87,2.42,-80.72,152.42,98.34,302.8,310.86,154.55,98.35,303.14,310.98,0.0
2018-08-23 12:18:00,89.53437,5.91684,926.567,272.74,89.5,624.2,1.77,2.34,-81.16,152.75,98.55,303.08,310.68,154.62,98.34,303.16,311.01,0.0
2018-08-23 12:18:00,89.53437,5.91681,926.585,272.74,89.5,624.1,1.87,2.57,-81.13,152.81,98.48,302.88,310.87,154.57,98.33,303.18,311.03,0.0
2018-08-23 12:18:00,89.53437,5.91677,926.596,272.74,89.5,624.0,2.03,2.61,-80.72,153.08,98.41,303.25,310.68,154.39,98.31,303.19,311.02,0.0
2018-08-23 12:18:00,89.53437,5.91673,926.593,272.73,89.5,624.0,2.09,2.46,-80.25,152.94,98.55,303.34,310.77,154.11,98.28,303.2,310.99,0.0
2018-08-23 12:18:00,89.53437,5.9167,926.592,272.72,89.5,624.0,1.96,2.55,-80.09,152.55,98.34,303.34,310.68,153.75,98.23,303.21,310.95,0.0
2018-08-23 12:18:00,89.53437,5.91666,926.605,272.73,89.5,623.9,2.17,2.76,-79.22,152.68,98.62,303.06,310.77,153.35,98.16,303.23,310.89,0.0
2018-08-23 12:18:00,89.53437,5.91662,926.593,272.72,89.5,624.0,2.18,2.56,-78.32,152.88,98.48,303.17,310.68,152.94,98.08,303.2,310.83,0.0
2018-08-23 12:18:00,89.53437,5.91659,926.603,272.72,89.5,623.9,2.2,2.43,-77.83,153.14,98.55,303.17,310.88,152.58,98.0,303.15,310.78,0.0
2018-08-23 12:18:00,89.53437,5.91655,926.622,272.72,89.5,623.8,2.3,2.5,-77.42,153.01,98.34,303.16,310.69,152.3,97.92,303.1,310.75,0.0
2018-08-23 12:18:00,89.53437,5.91651,926.609,272.72,89.5,623.9,2.46,2.72,-76.74,152.75,98.48,303.16,310.59,152.14,97.85,303.04,310.75,0.0
2018-08-23 12:18:00,89.53437,5.91648,926.612,272.71,89.5,623.8,2.47,2.83,-76.11,152.81,98.48,303.06,310.96,152.1,97.8,303.0,310.76,0.0
2018-08-23 12:18:00,89.53437,5.91645,926.612,272.7,89.5,623.9,2.44,2.52,-74.89,153.01,98.28,303.06,310.58,152.2,97.78,302.97,310.79,0.0
2018-08-23 12:18:00,89.53437,5.91642,926.628,272.7,89.5,623.7,2.42,2.76,-74.16,152.62,98.41,303.16,310.96,152.4,97.8,302.96,310.84,0.0
2018-08-23 12:18:00,89.53437,5.91639,926.649,272.7,89.5,623.5,2.44,2.97,-73.43,152.81,98.34,303.25,310.68,152.69,97.84,302.96,310.88,0.0
2018-08-23 12:18:00,89.53437,5.91636,926.652,272.7,89.5,623.5,2.42,2.79,-72.43,152.62,98.48,303.16,310.87,153.02,97.92,302.97,310.92,0.0
2018-08-23 12:18:00,89.53437,5.91633,926.617,272.7,89.5,623.8,2.21,2.47,-71.49,152.94,98.21,303.35,310.77,153.34,98.02,302.99,310.94,0.0
2018-08-23 12:18:00,89.53437,5.91631,926.639,272.7,89.5,623.6,2.34,2.97,-70.59,152.16,98.34,303.15,310.68,153.62,98.15,303.02,310.96,0.0
2018-08-23 12:18:00,89.53437,5.91628,926.65,272.7,89.5,623.5,2.16,2.89,-69.64,152.75,98.28,302.96,310.86,153.81,98.28,303.06,310.95,0.0
2018-08-23 12:18:00,89.53437,5.91625,926.652,272.7,89.5,623.5,1.91,2.91,-68.53,152.62,98.21,303.05,310.29,153.9,98.41,303.09,310.92,0.0
2018-08-23 12:18:00,89.53437,5.91622,926.652,272.7,89.5,623.5,1.85,3.17,-67.39,152.94,98.41,303.06,310.78,153.88,98.53,303.12,310.88,0.0
2018-08-23 12:18:00,89.53437,5.91619,926.643,272.71,89.5,623.6,2.08,3.46,-66.35,153.21,98.28,303.15,310.7,153.75,98.63,303.15,310.84,0.0
2018-08-23 12:18:00,89.53437,5.91616,926.678,272.71,89.5,623.3,2.02,3.15,-65.3,153.14,98.41,302.87,311.05,153.54,98.71,303.17,310.79,0.0
2018-08-23 12:18:00,89.53437,5.91614,926.674,272.71,89.5,623.3,2.23,3.25,-64.57,153.14,98.41,303.16,310.74,153.27,98.77,303.19,310.75,0.0
2018-08-23 12:18:00,89.53437,5.9161,926.685,272.71,89.5,623.2,2.54,3.36,-63.7,152.42,98.34,303.07,310.9,152.97,98.8,303.19,310.73,0.0
2018-08-23 12:18:00,89.53437,5.91607,926.703,272.71,89.5,623.1,2.68,3.36,-62.66,153.8,98.28,303.16,310.88,152.66,98.8,303.19,310.71,0.0
2018-08-23 12:18:00,89.53437,5.91603,926.701,272.72,89.5,623.1,2.64,3.26,-61.51,152.62,98.48,303.07,310.68,152.37,98.78,303.17,310.7,0.0
2018-08-23 12:18:00,89.53437,5.916,926.707,272.72,89.6,623.0,2.91,3.4,-60.4,153.01,98.21,303.07,310.87,152.1,98.74,303.14,310.69,0.0
2018-08-23 12:18:00,89.53437,5.91596,926.666,272.72,89.6,623.4,3.05,3.41,-59.36,152.75,98.55,303.25,310.86,151.86,98.68,303.1,310.68,0.0
2018-08-23 12:18:00,89.53437,5.91593,926.684,272.72,89.6,623.2,3.19,3.39,-58.41,152.75,98.41,302.97,310.95,151.65,98.6,303.05,310.67,0.0
2018-08-23 12:18:00,89.53437,5.91589,926.707,272.72,89.6,623.0,3.46,3.42,-57.53,152.62,98.48,303.06,310.76,151.47,98.51,303.01,310.66,0.0
2018-08-23 12:18:00,89.53437,5.91586,926.694,272.72,89.6,623.2,3.73,3.46,-56.77,153.14,98.41,303.16,310.67,151.31,98.4,302.97,310.64,0.0
2018-08-23 12:18:00,89.53437,5.91582,926.698,272.72,89.6,623.1,3.64,3.34,-56.28,153.21,98.41,303.18,310.77,151.17,98.29,302.94,310.63,0.0
2018-08-23 12:18:00,89.53437,5.91579,926.715,272.72,89.6,623.0,3.69,3.19,-55.51,152.03,98.48,303.27,310.77,151.07,98.17,302.93,310.61,0.0
2018-08-23 12:18:00,89.53437,5.91575,926.698,272.73,89.6,623.1,3.57,3.36,-54.76,152.62,98.41,303.26,310.68,151.02,98.05,302.95,310.6,0.0
2018-08-23 12:18:00,89.53437,5.91572,926.688,272.73,89.6,623.2,3.45,3.38,-54.24,152.49,98.41,303.07,310.87,151.02,97.95,302.99,310.6,0.0
2018-08-23 12:18:00,89.53437,5.91568,926.692,272.72,89.6,623.2,3.36,3.29,-53.87,153.66,98.34,303.16,310.96,151.1,97.87,303.05,310.6,0.0
2018-08-23 12:18:00,89.53437,5.91565,926.689,272.72,89.6,623.2,3.31,3.25,-53.48,152.03,98.41,303.25,310.77,151.26,97.82,303.12,310.61,0.0
2018-08-23 12:18:00,89.53436,5.91561,926.692,272.72,89.6,623.2,3.38,3.14,-53.24,152.75,98.41,303.16,310.77,151.51,97.81,303.19,310.63,0.0
2018-08-23 12:18:00,89.53436,5.91558,926.698,272.72,89.6,623.1,3.6,3.03,-53.22,152.75,98.48,303.16,310.58,151.84,97.84,303.26,310.65,0.0
2018-08-23 12:18:00,89.53436,5.91553,926.712,272.72,89.6,623.0,3.74,2.91,-53.58,152.55,98.21,303.35,310.59,152.23,97.92,303.32,310.68,0.0
2018-08-23 12:18:00,89.53436,5.91546,926.729,272.72,89.6,622.9,3.82,2.74,-53.98,152.29,98.07,303.07,310.58,152.64,98.03,303.32,310.71,0.0
2018-08-23 12:18:00,89.53436,5.9154,926.738,272.72,89.6,622.8,3.85,2.53,-54.15,150.59,98.48,302.87,310.48,153.04,98.18,303.27,310.73,0.0
2018-08-23 12:18:00,89.53436,5.91534,926.724,272.72,89.5,622.9,3.7,2.4,-54.12,153.34,98.28,303.15,310.57,153.4,98.35,303.23,310.76,0.0
2018-08-23 12:18:00,89.53436,5.91527,926.731,272.72,89.6,622.8,3.75,2.41,-54.76,152.36,98.28,302.88,310.87,153.69,98.52,303.16,310.78,0.0
2018-08-23 12:18:00,89.53436,5.91521,926.728,272.72,89.6,622.9,3.6,2.1,-55.44,151.96,98.28,302.94,310.85,153.88,98.67,303.09,310.8,0.0
2018-08-23 12:18:00,89.53436,5.91515,926.743,272.72,89.6,622.7,3.55,1.93,-56.21,153.73,98.41,302.92,310.67,153.98,98.81,303.01,310.83,0.0
2018-08-23 12:18:00,89.53436,5.91508,926.778,272.72,89.5,622.4,3.61,1.85,-57.06,153.21,98.34,302.64,310.68,153.98,98.91,302.96,310.87,0.0
2018-08-23 12:18:00,89.53436,5.91502,926.78,272.72,89.5,622.4,3.59,1.47,-57.9,152.75,98.21,302.88,310.48,153.93,98.97,302.93,310.91,0.0
2018-08-23 12:18:00,89.53436,5.91496,926.789,272.71,89.5,622.3,3.41,1.42,-58.41,152.29,98.34,302.97,310.65,153.85,98.99,302.94,310.95,0.0
2018-08-23 12:18:00,89.53436,5.91489,926.76,272.71,89.5,622.6,3.61,1.48,-59.38,152.03,98.34,303.17,310.87,153.77,98.98,302.98,310.99,0.0
2018-08-23 12:18:00,89.53436,5.91482,926.752,272.71,89.5,622.7,3.61,1.36,-60.1,153.4,98.41,303.18,310.77,153.74,98.95,303.06,311.04,0.0
2018-08-23 12:18:00,89.53436,5.91476,926.76,272.72,89.5,622.6,3.48,1.18,-60.84,152.62,98.55,303.17,310.86,153.77,98.91,303.18,311.07,0.0
2018-08-23 12:18:00,89.53436,5.91469,926.748,272.71,89.5,622.7,3.42,1.11,-61.89,153.01,98.41,303.35,310.67,153.86,98.86,303.32,311.09,0.0
2018-08-23 12:18:00,89.53436,5.91462,926.764,272.71,89.5,622.6,3.62,1.27,-62.74,151.96,98.62,303.25,310.77,154.02,98.82,303.41,311.1,0.0
2018-08-23 12:18:00,89.53436,5.91455,926.78,272.71,89.5,622.4,3.48,1.11,-63.86,152.81,98.34,303.35,310.95,154.21,98.78,303.48,311.08,0.0
2018-08-23 12:18:00,89.53436,5.91449,926.779,272.71,89.5,622.4,3.45,1.1,-64.92,153.14,98.48,303.16,310.86,154.4,98.74,303.51,311.05,0.0
2018-08-23 12:18:00,89.53436,5.91442,926.791,272.71,89.5,622.3,3.44,1.12,-65.98,153.14,98.41,303.17,310.86,154.57,98.7,303.5,311.0,0.0
2018-08-23 12:18:00,89.53436,5.91435,926.815,272.71,89.5,622.1,3.35,1.13,-67.07,153.14,98.55,303.17,310.67,154.66,98.65,303.45,310.94,0.0
2018-08-23 12:18:00,89.53436,5.91428,926.784,272.7,89.5,622.4,3.18,1.15,-68.08,152.94,98.41,303.17,310.87,154.67,98.57,303.37,310.88,0.0
2018-08-23 12:18:00,89.53436,5.91422,926.793,272.7,89.5,622.3,3.17,1.17,-69.14,152.81,98.34,303.26,310.76,154.57,98.47,303.28,310.83,0.0
2018-08-23 12:18:00,89.53436,5.91415,926.801,272.7,89.5,622.3,3.2,1.32,-70.19,153.47,98.55,302.9,310.96,154.38,98.33,303.17,310.79,0.0
2018-08-23 12:18:00,89.53436,5.91411,926.801,272.7,89.5,622.2,3.26,1.37,-71.33,153.14,98.41,303.09,310.86,154.11,98.16,303.07,310.77,0.0
2018-08-23 12:18:00,89.53436,5.91408,926.798,272.7,89.5,622.3,3.27,1.25,-72.57,152.75,98.55,303.18,310.95,153.81,97.98,302.99,310.76,0.0
2018-08-23 12:18:00,89.53436,5.91404,926.8,272.7,89.5,622.3,3.19,1.12,-73.81,153.01,98.48,303.37,310.77,153.52,97.8,302.94,310.76,0.0
2018-08-23 12:18:00,89.53436,5.91401,926.794,272.7,89.5,622.3,3.48,1.57,-75.03,152.62,98.55,303.35,310.68,153.28,97.63,302.9,310.77,0.0
2018-08-23 12:18:00,89.53436,5.91397,926.79,272.7,89.5,622.3,3.59,1.6,-76.08,154.12,98.48,303.17,310.76,153.13,97.51,302.88,310.78,0.0
2018-08-23 12:18:00,89.53436,5.91394,926.794,272.7,89.5,622.3,3.4,1.41,-77.08,153.53,98.55,303.18,310.76,153.09,97.44,302.88,310.78,0.0
2018-08-23 12:18:00,89.53436,5.9139,926.804,272.7,89.5,622.2,3.26,1.5,-78.0,153.21,98.41,303.09,311.05,153.17,97.43,302.88,310.77,0.0
2018-08-23 12:18:00,89.53436,5.91387,926.812,272.7,89.5,622.2,3.34,1.91,-78.92,153.86,98.21,303.27,310.76,153.36,97.49,302.89,310.75,0.0
2018-08-23 12:18:00,89.53436,5.91384,926.81,272.7,89.5,622.2,3.34,1.92,-79.96,152.42,98.34,303.18,310.96,153.63,97.6,302.89,310.71,0.0
2018-08-23 12:18:00,89.53436,5.9138,926.828,272.7,89.5,622.0,3.25,2.12,-81.09,152.62,98.14,302.98,310.57,153.97,97.75,302.9,310.67,0.0
2018-08-23 12:18:00,89.53436,5.91377,926.84,272.7,89.5,621.9,3.37,2.34,-81.58,152.88,98.07,302.99,310.57,154.32,97.91,302.91,310.6,0.0
2018-08-23 12:18:00,89.53436,5.91373,926.853,272.7,89.5,621.8,3.51,2.42,-82.03,153.01,98.28,303.26,310.75,154.66,98.07,302.92,310.56,0.0
2018-08-23 12:18:00,89.53436,5.91369,926.863,272.7,89.5,621.7,3.56,2.39,-82.63,153.27,98.28,303.07,310.75,154.94,98.19,302.93,310.54,0.0
2018-08-23 12:18:00,89.53435,5.91365,926.827,272.7,89.5,622.0,3.51,2.38,-83.11,153.53,98.34,303.37,310.67,155.15,98.27,302.96,310.54,0.0
2018-08-23 12:18:00,89.53435,5.91361,926.847,272.7,89.5,621.9,3.56,2.46,-83.43,153.21,98.34,303.07,310.85,155.28,98.3,302.99,310.56,0.0
2018-08-23 12:18:00,89.53435,5.91357,926.854,272.69,89.5,621.8,3.4,2.44,-83.87,153.73,98.21,303.09,310.76,155.31,98.27,303.02,310.59,0.0
2018-08-23 12:18:00,89.53435,5.91353,926.853,272.69,89.5,621.8,3.31,2.39,-84.16,153.4,98.28,303.09,310.4,155.26,98.19,303.05,310.63,0.0
2018-08-23 12:18:00,89.53435,5.91349,926.857,272.68,89.5,621.8,3.27,2.32,-84.23,153.8,98.41,302.9,310.77,155.13,98.08,303.07,310.66,0.0
2018-08-23 12:18:00,89.53435,5.91345,926.879,272.68,89.5,621.6,3.23,2.25,-84.15,153.66,98.28,303.0,310.66,154.93,97.96,303.07,310.67,0.0
2018-08-23 12:18:00,89.53435,5.91342,926.867,272.68,89.5,621.7,3.32,2.17,-83.92,153.6,98.34,303.09,310.87,154.67,97.84,303.06,310.67,0.0
2018-08-23 12:18:00,89.53435,5.91338,926.895,272.68,89.5,621.5,3.26,2.14,-84.1,153.73,98.28,303.08,310.76,154.36,97.73,303.03,310.64,0.0
2018-08-23 12:18:00,89.53435,5.91334,926.886,272.68,89.5,621.5,3.32,2.23,-84.03,153.21,98.34,303.07,310.96,154.02,97.66,302.99,310.62,0.0
2018-08-23 12:18:00,89.53435,5.9133,926.87,272.68,89.5,621.7,3.42,2.28,-83.6,152.88,98.14,303.16,310.86,153.64,97.61,302.96,310.57,0.0
2018-08-23 12:18:00,89.53435,5.91326,926.874,272.68,89.5,621.6,3.45,2.24,-82.93,153.8,98.14,303.07,310.66,153.24,97.58,302.93,310.5,0.0
2018-08-23 12:18:00,89.53435,5.91322,926.891,272.67,89.5,621.5,3.29,2.15,-82.32,154.32,98.0,302.8,310.77,152.84,97.57,302.93,310.44,0.0
2018-08-23 12:18:00,89.53435,5.91318,926.908,272.67,89.5,621.3,3.4,2.05,-81.74,153.93,98.28,303.07,310.47,152.47,97.57,302.96,310.4,0.0
2018-08-23 12:18:00,89.53435,5.91314,926.92,272.67,89.5,621.2,3.35,2.25,-80.98,153.6,98.21,303.08,310.66,152.14,97.57,303.03,310.4,0.0
2018-08-23 12:18:00,89.53435,5.9131,926.939,272.67,89.5,621.1,3.34,2.29,-80.02,153.86,98.21,303.18,310.86,151.89,97.57,303.12,310.43,0.0
2018-08-23 12:18:00,89.53435,5.91307,926.946,272.67,89.5,621.0,3.35,2.16,-78.88,153.08,98.14,303.18,310.96,151.75,97.55,303.24,310.49,0.0
2018-08-23 12:18:00,89.53435,5.91303,926.911,272.67,89.5,621.3,3.31,2.04,-77.53,152.88,98.0,303.18,310.56,151.75,97.54,303.32,310.57,0.0
2018-08-23 12:18:00,89.53435,5.91299,926.906,272.67,89.6,621.4,3.28,1.92,-75.83,154.45,98.07,303.17,310.85,151.89,97.53,303.28,310.61,0.0
2018-08-23 12:18:00,89.53435,5.91295,926.907,272.67,89.6,621.4,3.06,2.09,-74.64,152.81,98.21,303.18,310.66,152.19,97.54,303.32,310.69,0.0
2018-08-23 12:18:00,89.53435,5.91292,926.925,272.68,89.6,621.2,2.9,2.1,-73.51,153.14,98.21,303.17,310.76,152.63,97.57,303.35,310.78,0.0
2018-08-23 12:18:00,89.53435,5.91288,926.928,272.68,89.6,621.2,2.78,2.07,-72.28,153.08,98.14,303.07,310.76,153.16,97.62,303.34,310.87,0.0
2018-08-23 12:18:00,89.53435,5.91284,926.903,272.67,89.6,621.4,2.69,2.08,-70.94,153.93,98.14,302.71,310.51,153.74,97.71,303.29,310.93,0.0
2018-08-23 12:18:00,89.53435,5.9128,926.94,272.67,89.6,621.1,2.74,2.11,-69.76,152.42,97.93,301.49,309.94,154.31,97.82,303.23,310.96,0.0
2018-08-23 12:18:00,89.53435,5.91276,926.946,272.67,89.6,621.0,2.8,1.97,-68.08,153.34,97.72,302.58,309.83,154.81,97.94,303.16,310.97,0.0
2018-08-23 12:18:00,89.53435,5.91273,926.957,272.67,89.6,620.9,2.71,1.99,-66.73,153.73,98.0,302.75,310.48,155.17,98.08,303.09,310.96,0.0
2018-08-23 12:18:00,89.53435,5.91269,926.969,272.67,89.6,620.8,2.87,2.15,-65.37,152.94,98.0,303.12,310.8,155.35,98.2,303.05,310.95,0.0
2018-08-23 12:18:00,89.53435,5.91264,926.974,272.67,89.6,620.8,3.15,2.2,-63.94,152.81,98.0,303.03,310.66,155.33,98.3,303.04,310.93,0.0
2018-08-23 12:18:00,89.53435,5.91257,926.969,272.67,89.6,620.8,3.08,1.95,-62.5,154.58,98.14,303.09,310.38,155.1,98.39,303.09,310.94,0.0
2018-08-23 12:18:00,89.53435,5.9125,926.948,272.67,89.6,621.0,2.82,2.13,-60.85,153.8,98.14,303.17,310.66,154.7,98.44,303.28,310.96,0.0
2018-08-23 12:18:00,89.53435,5.91243,926.947,272.68,89.6,621.0,2.8,2.18,-59.61,152.81,98.0,303.17,310.85,154.16,98.47,303.37,311.02,0.0
2018-08-23 12:18:00,89.53435,5.91236,926.963,272.68,89.6,620.9,2.63,2.05,-58.42,154.25,98.21,303.45,310.85,153.56,98.48,303.45,311.07,0.0
2018-08-23 12:18:00,89.53435,5.91229,926.976,272.68,89.6,620.8,2.57,1.99,-57.14,154.19,98.14,303.26,311.05,152.97,98.48,303.51,311.11,0.0
2018-08-23 12:18:00,89.53435,5.91222,926.968,272.68,89.6,620.8,2.82,2.18,-55.8,153.66,98.14,303.44,310.74,152.46,98.47,303.54,311.16,0.0
2018-08-23 12:18:00,89.53435,5.91216,926.975,272.68,89.6,620.8,2.91,2.34,-54.56,153.8,98.14,303.13,310.32,152.11,98.47,303.52,311.19,0.0
2018-08-23 12:18:00,89.53435,5.91209,926.989,272.68,89.6,620.7,3.09,2.07,-53.65,152.75,98.0,303.16,310.75,151.94,98.47,303.47,311.22,0.0
2018-08-23 12:18:00,89.53435,5.91202,926.978,272.68,89.6,620.8,3.09,2.03,-52.62,153.99,98.07,303.17,310.86,151.98,98.47,303.4,311.22,0.0
2018-08-23 12:18:00,89.53435,5.91196,926.98,272.68,89.6,620.7,3.12,2.12,-51.74,153.73,98.0,303.17,310.96,152.21,98.47,303.32,311.21,0.0
2018-08-23 12:18:00,89.53435,5.9119,927.013,272.68,89.6,620.5,3.24,2.2,-51.0,152.03,98.21,303.26,310.96,152.61,98.46,303.24,311.18,0.0
2018-08-23 12:18:00,89.53435,5.91183,927.018,272.67,89.6,620.4,3.29,2.14,-50.21,153.93,98.07,303.06,311.05,153.12,98.45,303.19,311.15,0.0
2018-08-23 12:18:00,89.53434,5.91177,926.986,272.68,89.6,620.7,3.23,2.17,-49.74,153.53,98.21,303.35,310.66,153.65,98.41,303.17,311.15,0.0
2018-08-23 12:18:00,89.53434,5.91171,926.985,272.68,89.6,620.7,3.35,2.06,-49.33,152.81,98.34,303.35,311.14,154.15,98.36,303.18,311.1,0.0
2018-08-23 12:18:00,89.53434,5.91164,927.006,272.68,89.6,620.5,3.29,1.78,-48.93,153.34,98.14,303.17,310.85,154.54,98.3,303.23,311.04,0.0
2018-08-23 12:18:00,89.53434,5.91158,927.018,272.68,89.6,620.4,3.23,1.61,-48.6,153.21,98.21,303.17,310.95,154.78,98.24,303.3,310.97,0.0
2018-08-23 12:18:00,89.53434,5.91152,926.992,272.66,89.6,620.6,3.42,1.78,-48.41,154.32,98.21,303.44,311.14,154.84,98.19,303.37,310.91,0.0
2018-08-23 12:18:00,89.53434,5.91146,927.009,272.68,89.6,620.5,3.48,1.62,-48.36,153.53,98.21,303.44,310.85,154.71,98.16,303.44,310.85,0.0
2018-08-23 12:18:00,89.53434,5.91139,927.01,272.67,89.6,620.5,3.33,1.65,-48.5,153.53,98.21,303.35,310.67,154.42,98.16,303.48,310.8,0.0
2018-08-23 12:18:00,89.53434,5.91133,927.011,272.67,89.6,620.5,3.48,1.66,-48.72,153.6,98.07,303.17,310.86,154.02,98.18,303.48,310.75,0.0
2018-08-23 12:18:00,89.53434,5.91126,927.019,272.68,89.6,620.4,3.57,1.55,-49.04,152.62,98.21,302.98,311.14,153.57,98.25,303.45,310.72,0.0
2018-08-23 12:18:00,89.53434,5.9112,927.037,272.67,89.6,620.2,3.44,1.38,-49.46,154.06,98.0,302.88,310.85,153.13,98.33,303.39,310.71,0.0
2018-08-23 12:18:00,89.53434,5.91112,927.08,272.67,89.6,619.9,3.44,1.4,-49.99,153.93,98.21,303.07,310.65,152.75,98.44,303.31,310.71,0.0
2018-08-23 12:18:00,89.53434,5.91106,927.074,272.67,89.6,619.9,3.51,1.41,-50.66,153.8,98.21,303.16,310.56,152.5,98.54,303.24,310.73,0.0
2018-08-23 12:18:00,89.53434,5.91098,927.057,272.67,89.6,620.1,3.32,1.32,-51.37,153.4,98.21,303.15,310.85,152.4,98.63,303.18,310.77,0.0
2018-08-23 12:18:00,89.53434,5.91092,927.055,272.67,89.6,620.1,3.16,1.29,-52.07,154.78,98.14,303.34,310.85,152.46,98.7,303.16,310.81,0.0
2018-08-23 12:18:00,89.53434,5.91084,927.065,272.67,89.6,620.0,3.13,1.27,-52.89,152.75,98.21,303.35,310.94,152.68,98.74,303.17,310.86,0.0
2018-08-23 12:18:00,89.53434,5.91078,927.056,272.67,89.6,620.1,3.17,1.22,-54.0,153.01,98.21,303.17,311.14,153.02,98.74,303.21,310.9,0.0
2018-08-23 12:18:00,89.53434,5.9107,927.066,272.66,89.6,620.0,3.22,1.37,-55.06,152.55,98.28,303.35,310.76,153.44,98.71,303.28,310.92,0.0
2018-08-23 12:18:00,89.53434,5.91064,927.061,272.66,89.6,620.0,3.23,1.27,-55.93,153.34,98.34,303.35,311.05,153.89,98.66,303.37,310.93,0.0
2018-08-23 12:18:00,89.53434,5.91056,927.062,272.66,89.6,620.0,3.23,1.3,-57.12,153.6,98.28,303.34,310.74,154.33,98.58,303.45,310.91,0.0
2018-08-23 12:18:00,89.53434,5.9105,927.078,272.66,89.6,619.9,3.27,1.36,-58.45,153.4,98.34,303.34,310.93,154.71,98.5,303.51,310.87,0.0
2018-08-23 12:18:00,89.53434,5.91042,927.109,272.66,89.6,619.6,3.34,1.35,-59.72,154.12,98.21,303.34,310.65,155.01,98.42,303.54,310.82,0.0
2018-08-23 12:18:00,89.53434,5.91036,927.139,272.66,89.6,619.4,3.17,1.31,-60.97,153.34,98.34,303.35,310.64,155.19,98.35,303.54,310.77,0.0
2018-08-23 12:18:00,89.53434,5.9103,927.131,272.66,89.6,619.5,3.05,1.39,-62.22,153.4,98.21,303.17,310.95,155.27,98.28,303.51,310.72,0.0
2018-08-23 12:18:00,89.53434,5.91024,927.116,272.65,89.6,619.6,3.08,1.51,-63.51,153.8,98.34,303.26,310.84,155.24,98.23,303.45,310.69,0.0
2018-08-23 12:18:00,89.53434,5.91018,927.107,272.65,89.6,619.7,2.94,1.49,-64.89,153.47,98.34,303.17,310.85,155.12,98.17,303.38,310.7,0.0
2018-08-23 12:18:00,89.53434,5.91012,927.115,272.65,89.6,619.6,2.68,1.44,-66.33,153.14,98.21,303.36,310.95,154.93,98.11,303.32,310.73,0.0
2018-08-23 12:18:00,89.53434,5.91005,927.157,272.65,89.6,619.2,2.72,1.68,-67.73,154.38,98.21,303.18,311.14,154.7,98.05,303.28,310.79,0.0
2018-08-23 12:18:00,89.53434,5.90999,927.167,272.65,89.6,619.1,2.9,1.82,-68.92,154.38,98.28,303.46,310.95,154.44,97.98,303.25,310.88,0.0
2018-08-23 12:18:00,89.53434,5.90993,927.165,272.65,89.6,619.2,2.68,1.85,-70.15,153.4,98.34,303.26,310.85,154.18,97.91,303.26,310.96,0.0
2018-08-23 12:18:00,89.53434,5.90987,927.144,272.65,89.6,619.3,2.72,1.86,-71.51,153.8,98.21,303.36,310.85,153.92,97.84,303.28,311.03,0.0
2018-08-23 12:18:00,89.53434,5.90981,927.126,272.65,89.6,619.5,2.89,2.0,-72.88,153.93,98.34,303.18,310.85,153.69,97.78,303.31,311.07,0.0
2018-08-23 12:18:00,89.53434,5.90975,927.143,272.65,89.6,619.4,2.85,2.23,-74.1,153.4,98.21,303.36,310.85,153.49,97.74,303.33,311.08,0.0
2018-08-23 12:18:00,89.53434,5.90968,927.16,272.65,89.6,619.2,2.45,2.04,-75.19,153.86,98.34,303.18,310.85,153.32,97.73,303.34,311.08,0.0
2018-08-23 12:18:00,89.53434,5.90963,927.187,272.65,89.6,619.0,2.26,2.21,-76.53,153.53,98.21,303.27,310.85,153.21,97.74,303.33,311.0,0.0
2018-08-23 12:18:00,89.53434,5.90958,927.185,272.65,89.6,619.0,2.05,2.3,-77.8,154.12,98.14,303.45,310.66,153.14,97.79,303.3,310.88,0.0
2018-08-23 12:18:00,89.53434,5.90954,927.175,272.64,89.6,619.1,1.87,2.36,-78.98,153.86,98.21,303.36,311.14,153.12,97.86,303.25,310.74,0.0
2018-08-23 12:18:00,89.53434,5.90949,927.19,272.65,89.6,619.0,1.82,2.46,-80.05,153.53,98.0,303.15,310.58,153.16,97.95,303.19,310.61,0.0
2018-08-23 12:18:00,89.53434,5.90945,927.18,272.64,89.6,619.0,2.08,2.56,-80.68,153.34,98.14,303.05,311.06,153.25,98.03,303.14,310.51,0.0
2018-08-23 12:18:00,89.53434,5.9094,927.215,272.65,89.6,618.7,2.36,2.72,-81.32,154.32,98.21,303.24,310.92,153.39,98.09,303.1,310.46,0.0
2018-08-23 12:18:00,89.53434,5.90936,927.229,272.65,89.6,618.6,2.43,2.67,-81.78,153.34,98.14,303.07,310.85,153.55,98.12,303.1,310.45,0.0
2018-08-23 12:18:00,89.53434,5.90932,927.224,272.65,89.6,618.7,2.52,2.64,-82.3,154.32,98.07,303.44,311.04,153.73,98.12,303.12,310.5,0.0
2018-08-23 12:18:00,89.53434,5.90927,927.209,272.64,89.6,618.8,2.65,2.59,-82.75,153.08,98.28,303.35,311.04,153.9,98.07,303.16,310.59,0.0
2018-08-23 12:18:00,89.53434,5.90923,927.194,272.64,89.6,618.9,2.65,2.4,-82.81,153.66,98.21,303.43,311.05,154.05,97.98,303.23,310.7,0.0
2018-08-23 12:18:00,89.53434,5.90918,927.206,272.63,89.6,618.8,2.4,2.43,-82.98,153.47,98.21,303.35,310.95,154.14,97.87,303.32,310.78,0.0
2018-08-23 12:18:00,89.53434,5.90914,927.222,272.63,89.6,618.7,2.33,2.51,-83.17,153.6,98.07,303.35,310.94,154.18,97.75,303.3,310.78,0.0
2018-08-23 12:18:00,89.53434,5.90909,927.233,272.63,89.6,618.6,2.18,2.57,-83.27,153.34,98.34,303.34,310.65,154.14,97.63,303.3,310.86,0.0
2018-08-23 12:18:00,89.53434,5.90905,927.229,272.63,89.6,618.6,2.07,2.51,-83.34,153.8,98.07,303.16,311.04,154.04,97.52,303.31,310.94,0.0
2018-08-23 12:18:00,89.53434,5.90901,927.21,272.63,89.6,618.8,2.09,2.32,-83.38,154.38,98.14,303.35,310.55,153.88,97.45,303.28,310.92,0.0
2018-08-23 12:18:00,89.53434,5.90896,927.216,272.63,89.6,618.7,2.1,2.2,-83.07,153.66,98.34,303.35,311.05,153.69,97.41,303.22,310.86,0.0
2018-08-23 12:18:00,89.53434,5.90891,927.228,272.62,89.6,618.6,2.19,2.06,-82.58,154.25,98.0,302.39,309.48,153.48,97.41,303.13,310.76,0.0
2018-08-23 12:18:00,89.53434,5.90885,927.24,272.62,89.6,618.5,2.28,1.94,-81.73,153.6,97.79,302.45,310.6,153.28,97.45,303.04,310.66,0.0
2018-08-23 12:18:00,89.53433,5.90879,927.251,272.62,89.6,618.4,2.34,1.88,-80.96,153.93,97.93,303.05,311.05,153.11,97.5,302.97,310.57,0.0
2018-08-23 12:18:00,89.53433,5.90873,927.256,272.62,89.6,618.4,2.36,1.94,-80.37,153.73,97.93,303.08,310.74,152.99,97.57,302.93,310.51,0.0
2018-08-23 12:18:00,89.53433,5.90867,927.238,272.62,89.6,618.5,2.39,2.13,-79.65,153.14,98.14,303.35,310.84,152.92,97.64,302.95,310.5,0.0
2018-08-23 12:18:00,89.53433,5.90861,927.27,272.62,89.6,618.3,2.12,2.03,-78.61,153.4,98.14,303.33,310.95,152.92,97.71,302.97,310.52,0.0
2018-08-23 12:18:00,89.53433,5.90855,927.281,272.62,89.6,618.2,2.03,1.96,-77.71,153.6,98.14,303.43,310.86,152.96,97.75,303.11,310.69,0.0
2018-08-23 12:18:00,89.53433,5.90849,927.286,272.62,89.6,618.1,2.04,1.99,-76.59,153.86,98.0,303.44,310.95,153.05,97.78,303.24,310.78,0.0
2018-08-23 12:18:00,89.53433,5.90842,927.298,272.62,89.6,618.0,2.11,2.05,-75.37,153.99,97.93,303.66,310.46,153.16,97.8,303.34,310.87,0.0
2018-08-23 12:18:00,89.53433,5.90836,927.328,272.62,89.6,617.8,2.18,2.06,-74.31,153.6,97.79,303.49,310.91,153.27,97.81,303.43,311.0,0.0
2018-08-23 12:18:00,89.53433,5.9083,927.303,272.62,89.6,618.0,2.25,1.99,-72.83,152.88,98.0,303.16,311.06,153.39,97.83,303.5,311.12,0.0
2018-08-23 12:18:00,89.53433,5.90825,927.296,272.62,89.6,618.1,2.49,2.14,-71.0,153.93,98.14,303.15,310.94,153.49,97.85,303.55,311.22,0.0
2018-08-23 12:18:00,89.53433,5.90819,927.278,272.62,89.6,618.2,2.67,2.22,-69.25,153.86,98.0,303.24,310.85,153.57,97.89,303.56,311.28,0.0
2018-08-23 12:18:00,89.53433,5.90813,927.273,272.62,89.7,618.3,2.82,2.2,-67.66,153.21,97.93,303.24,310.95,153.65,97.94,303.55,311.31,0.0
2018-08-23 12:18:00,89.53433,5.90807,927.306,272.61,89.7,618.0,2.92,2.15,-66.2,154.25,97.72,303.07,310.66,153.73,98.01,303.5,311.31,0.0
2018-08-23 12:18:00,89.53433,5.90801,927.305,272.62,89.7,618.0,2.79,2.29,-64.99,153.4,98.14,303.25,310.56,153.82,98.09,303.42,311.27,0.0
2018-08-23 12:18:00,89.53433,5.90795,927.311,272.62,89.7,617.9,2.69,2.07,-63.32,153.14,98.21,303.15,310.86,153.94,98.17,303.38,311.23,0.0
2018-08-23 12:18:00,89.53433,5.90789,927.321,272.62,89.7,617.8,2.61,1.97,-62.0,153.99,97.79,303.43,310.79,154.09,98.25,303.35,311.19,0.0
2018-08-23 12:18:00,89.53433,5.90783,927.33,272.62,89.7,617.8,2.63,1.95,-60.54,152.75,97.93,303.44,310.9,154.28,98.31,303.33,311.15,0.0
2018-08-23 12:18:00,89.53433,5.90777,927.334,272.63,89.7,617.7,2.7,2.03,-58.65,153.99,97.93,303.34,310.95,154.48,98.36,303.34,311.12,0.0
2018-08-23 12:18:00,89.53433,5.90771,927.327,272.63,89.7,617.8,2.68,2.24,-56.5,153.93,98.0,303.15,310.95,154.7,98.38,303.36,311.1,0.0
2018-08-23 12:18:00,89.53433,5.90764,927.317,272.63,89.7,617.9,2.69,2.1,-55.05,153.66,98.0,303.25,310.67,154.9,98.39,303.39,311.1,0.0
2018-08-23 12:18:00,89.53433,5.90758,927.337,272.62,89.7,617.7,2.55,1.63,-53.75,153.93,98.14,303.14,310.86,155.06,98.38,303.42,311.1,0.0
2018-08-23 12:18:00,89.53433,5.90751,927.337,272.62,89.7,617.7,2.4,1.55,-52.4,153.14,98.07,303.32,310.96,155.16,98.37,303.43,311.11,0.0
2018-08-23 12:18:00,89.53433,5.90745,927.335,272.62,89.7,617.7,2.37,1.68,-51.13,154.06,98.14,303.33,310.85,155.17,98.35,303.42,311.12,0.0
2018-08-23 12:18:00,89.53433,5.90738,927.376,272.62,89.7,617.4,2.44,1.71,-49.97,153.53,98.0,303.25,311.23,155.06,98.33,303.39,311.12,0.0
2018-08-23 12:18:00,89.53433,5.90732,927.403,272.62,89.7,617.1,2.11,1.51,-48.74,153.86,98.0,303.34,310.86,154.84,98.31,303.34,311.11,0.0
2018-08-23 12:18:00,89.53433,5.90725,927.367,272.62,89.7,617.5,2.17,1.52,-48.07,154.58,98.0,303.43,310.85,154.51,98.3,303.28,311.09,0.0
2018-08-23 12:18:00,89.53433,5.90719,927.357,272.62,89.7,617.5,2.29,1.25,-47.64,153.6,98.07,303.44,311.14,154.08,98.28,303.22,311.06,0.0
2018-08-23 12:18:00,89.53433,5.90712,927.364,272.62,89.7,617.5,2.33,1.07,-47.28,153.4,98.21,303.43,310.95,153.58,98.26,303.17,311.03,0.0
2018-08-23 12:18:00,89.53433,5.90706,927.365,272.62,89.7,617.5,2.37,1.13,-46.92,154.71,98.07,303.15,311.13,153.05,98.23,303.14,310.99,0.0
2018-08-23 12:18:00,89.53433,5.90699,927.359,272.62,89.7,617.5,2.62,1.18,-46.67,154.12,98.07,303.43,310.84,152.53,98.2,303.13,310.96,0.0
2018-08-23 12:18:00,89.53432,5.90692,927.37,272.62,89.7,617.4,2.49,1.04,-46.48,153.73,98.14,303.14,310.84,152.07,98.15,303.15,310.92,0.0
2018-08-23 12:18:00,89.53432,5.90686,927.373,272.62,89.7,617.4,2.44,0.63,-46.61,153.73,97.93,303.33,310.95,151.72,98.09,303.19,310.9,0.0
2018-08-23 12:18:00,89.53432,5.90681,927.378,272.62,89.7,617.4,2.35,0.71,-46.86,153.14,98.07,303.42,311.05,151.5,98.04,303.25,310.88,0.0
2018-08-23 12:18:00,89.53432,5.90676,927.38,272.62,89.7,617.3,2.15,0.99,-46.98,154.32,98.14,303.33,310.85,151.44,98.0,303.31,310.87,0.0
2018-08-23 12:18:00,89.53432,5.9067,927.356,272.61,89.7,617.5,1.84,0.88,-46.86,154.12,98.21,303.24,310.93,151.55,97.98,303.36,310.86,0.0
2018-08-23 12:18:00,89.53432,5.90665,927.376,272.61,89.7,617.4,1.56,0.9,-47.32,152.75,98.14,303.42,311.13,151.81,97.98,303.39,310.85,0.0
2018-08-23 12:18:00,89.53432,5.90659,927.36,272.62,89.7,617.5,1.62,0.81,-47.8,153.47,98.14,303.23,310.84,152.21,98.02,303.39,310.84,0.0
2018-08-23 12:18:00,89.53432,5.90654,927.353,272.62,89.7,617.6,1.53,0.73,-48.35,154.19,98.14,303.24,310.85,152.7,98.1,303.38,310.83,0.0
2018-08-23 12:18:00,89.53432,5.90648,927.364,272.61,89.7,617.5,1.49,0.69,-49.09,153.21,97.93,303.06,310.85,153.23,98.2,303.34,310.81,0.0
2018-08-23 12:18:00,89.53432,5.90643,927.379,272.61,89.7,617.4,1.65,0.73,-50.02,153.34,97.79,303.07,310.94,153.75,98.32,303.29,310.79,0.0
2018-08-23 12:18:00,89.53432,5.90637,927.354,272.61,89.7,617.6,1.66,0.86,-50.95,152.81,98.14,303.34,310.84,154.22,98.45,303.24,310.76,0.0
2018-08-23 12:18:00,89.53432,5.90632,927.402,272.61,89.7,617.2,1.67,0.53,-52.1,152.22,98.21,303.14,310.95,154.59,98.57,303.21,310.68,0.0
2018-08-23 12:18:00,89.53432,5.90626,927.411,272.61,89.7,617.1,1.62,0.71,-53.38,154.45,98.14,303.24,310.67,154.83,98.67,303.19,310.62,0.0
2018-08-23 12:18:00,89.53432,5.90621,927.406,272.61,89.7,617.1,1.71,0.88,-54.7,153.99,98.07,303.15,310.96,154.93,98.74,303.21,310.59,0.0
2018-08-23 12:18:00,89.53432,5.90615,927.418,272.6,89.7,617.0,1.84,0.82,-56.01,153.8,97.93,303.34,310.96,154.9,98.76,303.25,310.58,0.0
2018-08-23 12:18:00,89.53432,5.90609,927.437,272.6,89.7,616.9,1.65,0.65,-57.14,153.53,98.34,303.35,310.97,154.76,98.75,303.31,310.59,0.0
2018-08-23 12:18:00,89.53432,5.90603,927.421,272.6,89.7,617.0,1.75,0.78,-58.35,153.8,98.14,303.44,310.37,154.53,98.69,303.38,310.59,0.0
2018-08-23 12:18:00,89.53432,5.90597,927.441,272.6,89.7,616.8,1.82,0.94,-59.66,153.86,98.21,303.16,310.17,154.26,98.61,303.45,310.61,0.0
2018-08-23 12:18:00,89.53432,5.90591,927.444,272.6,89.7,616.8,1.85,0.86,-61.15,153.47,98.28,303.33,310.75,153.97,98.5,303.52,310.62,0.0
2018-08-23 12:18:00,89.53432,5.90585,927.436,272.6,89.7,616.9,1.87,0.77,-62.67,154.38,98.21,303.7,310.96,153.7,98.38,303.56,310.63,0.0
2018-08-23 12:18:00,89.53432,5.90579,927.463,272.6,89.7,616.6,1.87,0.9,-64.05,153.08,98.28,303.14,311.05,153.46,98.26,303.58,310.64,0.0
2018-08-23 12:18:00,89.53432,5.90573,927.514,272.6,89.7,616.2,1.94,0.8,-65.69,153.34,98.21,303.35,310.74,153.28,98.14,303.6,310.65,0.0
2018-08-23 12:18:00,89.53432,5.90567,927.483,272.59,89.7,616.5,2.11,0.91,-66.88,153.27,98.21,303.33,310.94,153.14,98.04,303.58,310.7,0.0
2018-08-23 12:18:00,89.53432,5.90561,927.469,272.59,89.7,616.6,2.1,0.9,-68.08,154.38,98.21,303.42,310.94,153.04,97.95,303.53,310.74,0.0
2018-08-23 12:18:00,89.53432,5.90555,927.461,272.6,89.7,616.7,2.04,0.88,-69.44,153.8,98.21,303.23,310.66,152.97,97.88,303.49,310.75,0.0
2018-08-23 12:18:00,89.53432,5.90548,927.442,272.59,89.7,616.8,1.97,0.9,-70.87,154.38,98.14,303.33,310.96,152.93,97.82,303.45,310.75,0.0
2018-08-23 12:18:00,89.53432,5.90542,927.461,272.59,89.7,616.7,1.81,0.87,-72.16,153.21,98.21,303.72,311.05,152.9,97.77,303.44,310.76,0.0
2018-08-23 12:18:00,89.53432,5.90536,927.475,272.59,89.7,616.5,1.63,0.94,-73.28,153.01,98.07,303.38,310.85,152.88,97.73,303.44,310.79,0.0
2018-08-23 12:18:00,89.53432,5.9053,927.481,272.59,89.7,616.5,1.52,1.14,-74.39,153.53,98.21,303.33,310.56,152.9,97.7,303.46,310.83,0.0
2018-08-23 12:18:00,89.53432,5.90523,927.485,272.59,89.7,616.5,1.48,1.34,-75.44,153.66,98.14,303.33,310.94,152.97,97.68,303.51,310.88,0.0
2018-08-23 12:18:00,89.53432,5.90512,927.491,272.59,89.7,616.4,1.48,1.41,-76.38,153.34,98.14,303.23,310.65,153.1,97.68,303.56,310.95,0.0
2018-08-23 12:18:00,89.53432,5.90502,927.495,272.59,89.7,616.4,1.45,1.27,-77.1,153.08,98.21,303.32,310.84,153.32,97.69,303.59,311.02,0.0
2018-08-23 12:18:00,89.53432,5.90491,927.481,272.59,89.7,616.5,1.54,1.32,-77.96,154.91,98.14,303.52,310.93,153.64,97.72,303.59,311.1,0.0
2018-08-23 12:18:00,89.53432,5.9048,927.52,272.59,89.7,616.2,1.53,1.11,-78.95,153.34,98.21,303.33,310.84,154.06,97.76,303.61,311.17,0.0
2018-08-23 12:18:00,89.53432,5.9047,927.536,272.59,89.7,616.0,1.42,0.97,-79.63,153.34,98.0,303.42,310.94,154.56,97.81,303.6,311.23,0.0
2018-08-23 12:18:00,89.53432,5.90459,927.529,272.58,89.7,616.1,1.36,1.0,-80.2,153.6,97.93,303.15,310.55,155.11,97.87,303.58,311.28,0.0
2018-08-23 12:18:00,89.53431,5.90449,927.54,272.58,89.7,616.0,1.48,1.1,-80.87,153.21,98.0,303.15,310.84,155.68,97.92,303.54,311.31,0.0
2018-08-23 12:18:00,89.53431,5.90438,927.536,272.58,89.7,616.0,1.52,0.94,-81.4,153.08,98.14,303.32,310.84,156.21,97.96,303.5,311.33,0.0
2018-08-23 12:18:00,89.53431,5.9043,927.55,272.57,89.7,615.9,1.76,0.79,-81.8,153.4,98.14,303.44,310.84,156.65,97.97,303.45,311.34,0.0
2018-08-23 12:18:00,89.53431,5.90423,927.551,272.57,89.7,615.9,1.82,0.51,-82.07,153.4,98.0,303.33,310.84,156.95,97.97,303.42,311.33,0.0
2018-08-23 12:18:00,89.53431,5.90415,927.548,272.57,89.7,615.9,1.72,0.34,-81.71,154.45,98.0,303.42,310.85,157.09,97.95,303.4,311.32,0.0
2018-08-23 12:18:00,89.53431,5.90408,927.551,272.57,89.7,615.9,1.6,0.39,-81.02,154.06,98.14,303.33,310.95,157.06,97.91,303.4,311.3,0.0
