Date/Time,Latitude,Longitude,PPPP [hPa],TTT grad [K],RH [%],Height [m],Pitch [deg],Roll [deg],Yaw [deg],SWD [W/m**2] (raw),SWU [W/m**2] (raw),LWD [W/m**2] (raw),LWU [W/m**2] (raw),SWD [W/m**2] (corrected),SWU [W/m**2] (corrected),LWD [W/m**2] (corrected),LWU [W/m**2] (corrected),Flag
2018-08-23 12:04:00,89.5335,5.57,1002.495,273.52,94.3,0.2,1.24,-17.29,-88.84,133.31,73.84,317.27,324.16,131.97,76.41,313.01,320.65,
2018-08-23 12:04:00,89.5335,5.57,1002.498,273.52,94.3,0.2,1.61,-15.87,-88.15,133.97,73.84,317.27,323.82,131.47,75.83,312.68,320.21,
2018-08-23 12:04:00,89.5335,5.57001,1002.505,273.52,94.3,0.1,1.8,-14.05,-87.09,133.57,73.91,317.2,324.21,130.89,75.11,312.33,319.89,
2018-08-23 12:04:00,89.5335,5.57001,1002.506,273.52,94.3,0.1,1.9,-12.11,-85.76,133.38,73.91,317.01,324.62,130.23,74.27,312.04,319.68,
2018-08-23 12:04:00,89.5335,5.57002,1002.482,273.52,94.3,0.3,2.08,-10.29,-84.25,134.03,73.98,317.11,324.18,129.55,73.34,311.81,319.51,
2018-08-23 12:04:00,89.5335,5.57002,1002.503,273.53,94.3,0.1,2.47,-7.94,-82.74,133.18,74.05,316.91,323.96,128.88,72.36,311.61,319.39,
2018-08-23 12:04:00,89.5335,5.57003,1002.478,273.52,94.3,0.3,2.44,-6.14,-81.25,133.51,73.71,316.06,321.52,128.28,71.37,311.41,319.38,
2018-08-23 12:04:00,89.5335,5.57003,1002.472,273.53,94.3,0.4,1.69,-4.98,-79.22,132.85,73.84,316.38,322.32,127.75,70.41,311.26,319.35,
2018-08-23 12:04:00,89.5335,5.57004,1002.494,273.53,94.3,0.2,0.31,-4.45,-77.54,133.84,73.78,316.53,323.14,127.29,69.52,311.15,319.28,
2018-08-23 12:04:00,89.5335,5.57004,1002.521,273.53,94.3,0.0,-0.16,-4.26,-76.37,132.72,73.71,316.43,323.0,126.87,68.74,311.1,319.18,
2018-08-23 12:04:00,89.5335,5.57005,1002.49,273.53,94.3,0.3,2.96,-4.07,-75.21,132.72,73.57,316.38,322.97,126.43,68.08,311.05,319.09,
2018-08-23 12:04:00,89.5335,5.57005,1002.484,273.53,94.3,0.3,5.52,-4.18,-75.31,132.59,73.22,315.6,323.46,125.9,67.58,311.02,319.02,
2018-08-23 12:04:00,89.5335,5.57006,1002.478,273.53,94.3,0.3,5.97,-3.7,-75.02,131.54,73.22,315.45,322.53,125.21,67.22,311.04,319.12,
2018-08-23 12:04:00,89.5335,5.57006,1002.464,273.53,94.3,0.5,5.33,-3.53,-74.75,132.2,73.15,315.32,322.05,124.29,67.0,311.01,319.15,
2018-08-23 12:04:00,89.5335,5.57006,1002.46,273.52,94.3,0.5,4.75,-3.35,-74.3,131.94,72.95,315.44,322.03,123.1,66.91,310.92,319.1,
2018-08-23 12:04:00,89.5335,5.57007,1002.497,273.53,94.3,0.2,5.04,-2.71,-73.42,131.81,72.46,315.06,321.53,121.65,66.91,310.79,319.04,
2018-08-23 12:04:00,89.5335,5.57007,1002.497,273.53,94.3,0.2,5.92,-2.47,-72.66,131.61,72.46,314.96,321.31,119.96,66.99,310.62,318.96,
2018-08-23 12:04:00,89.5335,5.57008,1002.505,273.53,94.3,0.1,6.07,-1.91,-72.17,132.13,72.05,315.02,321.43,118.1,67.1,310.48,318.81,
2018-08-23 12:04:00,89.5335,5.57008,1002.504,273.53,94.3,0.1,5.93,-1.35,-71.68,131.81,72.26,315.02,321.31,116.17,67.21,310.36,318.74,
2018-08-23 12:04:00,89.5335,5.57009,1002.504,273.53,94.3,0.1,5.61,-0.95,-71.03,131.68,72.19,315.23,321.9,114.28,67.3,310.24,318.72,
2018-08-23 12:04:00,89.5335,5.5701,1002.516,273.53,94.3,0.0,5.37,-0.74,-70.22,130.3,71.98,315.03,321.87,112.54,67.36,310.15,318.73,
2018-08-23 12:04:00,89.5335,5.5701,1002.502,273.53,94.3,0.2,5.5,-0.67,-69.43,129.19,71.98,314.85,322.25,111.06,67.37,310.1,318.8,
2018-08-23 12:04:00,89.5335,5.57011,1002.512,273.54,94.3,0.1,6.32,-0.66,-68.81,129.71,71.91,314.94,321.85,109.9,67.34,310.09,318.91,
2018-08-23 12:04:00,89.5335,5.57011,1002.51,273.54,94.3,0.1,6.7,-0.75,-68.45,128.66,71.84,314.84,321.95,109.11,67.27,310.12,319.03,
2018-08-23 12:04:00,89.5335,5.57012,1002.499,273.54,94.3,0.2,6.78,-0.79,-68.04,127.22,71.57,314.74,321.85,108.68,67.19,310.18,319.18,
2018-08-23 12:04:00,89.5335,5.57012,1002.487,273.54,94.3,0.3,6.56,-0.81,-67.69,128.01,71.5,314.64,321.8,108.57,67.11,310.25,319.32,
2018-08-23 12:04:00,89.5335,5.57013,1002.485,273.54,94.3,0.3,6.06,-0.87,-67.66,127.62,71.29,314.54,321.52,108.69,67.04,310.29,319.38,
2018-08-23 12:04:00,89.5335,5.57013,1002.509,273.54,94.3,0.1,5.96,-0.86,-67.48,126.31,71.29,314.26,321.37,108.93,67.0,310.23,319.33,
2018-08-23 12:04:00,89.5335,5.57014,1002.476,273.53,94.3,0.4,5.97,-0.86,-67.21,127.09,71.15,314.27,321.57,109.17,67.0,310.18,319.23,
2018-08-23 12:04:00,89.5335,5.57014,1002.466,273.53,94.3,0.4,6.04,-0.9,-67.0,125.26,71.01,314.19,321.75,109.27,67.04,310.14,319.11,
2018-08-23 12:04:00,89.5335,5.57015,1002.485,273.53,94.3,0.3,6.08,-0.92,-66.7,125.65,70.81,314.0,321.9,109.13,67.11,310.07,319.04,
2018-08-23 12:04:00,89.5335,5.57015,1002.496,273.53,94.3,0.2,6.07,-0.9,-66.27,125.39,70.94,313.66,321.23,108.66,67.2,309.97,318.99,
2018-08-23 12:04:00,89.5335,5.57015,1002.49,273.53,94.3,0.3,6.13,-0.87,-66.07,125.06,70.81,312.35,320.51,107.81,67.29,309.84,318.92,
2018-08-23 12:04:00,89.5335,5.57016,1002.484,273.53,94.3,0.3,6.18,-0.85,-65.81,124.02,70.53,312.77,320.26,106.57,67.38,309.71,318.83,
2018-08-23 12:04:00,89.5335,5.57016,1002.479,273.53,94.3,0.3,6.35,-0.83,-65.32,123.5,70.6,313.39,320.47,104.98,67.44,309.58,318.76,
2018-08-23 12:04:00,89.5335,5.57016,1002.468,273.53,94.3,0.4,6.36,-0.83,-64.71,123.82,70.53,313.52,321.53,103.11,67.48,309.47,318.68,
2018-08-23 12:04:00,89.5335,5.57016,1002.457,273.54,94.3,0.5,6.21,-0.85,-64.1,124.28,70.46,313.32,322.2,101.08,67.48,309.38,318.63,
2018-08-23 12:04:00,89.5335,5.57016,1002.491,273.54,94.3,0.2,6.26,-0.89,-63.59,123.63,70.39,313.45,321.83,99.01,67.46,309.36,318.65,
2018-08-23 12:04:00,89.5335,5.57017,1002.485,273.53,94.3,0.3,6.52,-0.95,-63.11,122.38,70.46,313.05,321.55,97.04,67.42,309.45,318.76,
2018-08-23 12:04:00,89.5335,5.57017,1002.472,273.53,94.3,0.4,6.92,-0.99,-62.33,120.68,70.19,313.06,321.38,95.28,67.38,309.41,318.89,
2018-08-23 12:04:00,89.5335,5.57017,1002.477,273.53,94.3,0.4,7.26,-1.02,-61.55,119.31,70.19,313.34,321.13,93.84,67.34,309.3,318.97,
2018-08-23 12:04:00,89.5335,5.57017,1002.493,273.53,94.3,0.2,7.62,-1.07,-60.83,120.09,70.05,313.06,321.15,92.76,67.32,309.2,318.94,
2018-08-23 12:04:00,89.5335,5.57018,1002.488,273.54,94.3,0.3,8.11,-1.14,-60.21,120.03,69.98,312.87,320.6,92.05,67.31,309.1,318.83,
2018-08-23 12:04:00,89.5335,5.57018,1002.469,273.54,94.3,0.4,8.33,-1.09,-59.86,118.19,69.98,312.87,320.7,91.7,67.33,309.01,318.7,
2018-08-23 12:04:00,89.5335,5.57018,1002.485,273.54,94.3,0.3,8.7,-1.09,-59.83,119.04,69.98,311.82,320.42,91.63,67.35,308.95,318.54,
2018-08-23 12:04:00,89.5335,5.57018,1002.484,273.54,94.3,0.3,8.93,-1.01,-59.95,117.28,69.84,311.03,320.29,91.76,67.38,308.88,318.38,
2018-08-23 12:04:00,89.5335,5.57019,1002.47,273.54,94.3,0.4,8.89,-0.91,-60.23,116.75,69.63,311.32,320.29,92.01,67.4,308.8,318.23,
2018-08-23 12:04:00,89.5335,5.5702,1002.47,273.54,94.3,0.4,8.57,-0.87,-60.66,114.99,69.56,311.52,320.32,92.3,67.4,308.72,318.11,
2018-08-23 12:04:00,89.5335,5.5702,1002.482,273.54,94.3,0.3,8.13,-0.86,-61.16,114.86,69.7,311.51,320.5,92.58,67.37,308.63,318.03,
2018-08-23 12:04:00,89.5335,5.5702,1002.507,273.55,94.3,0.1,7.55,-0.82,-61.47,114.79,69.7,311.83,320.03,92.84,67.3,308.55,318.0,
2018-08-23 12:04:00,89.5335,5.57021,1002.492,273.55,94.3,0.2,6.82,-0.85,-61.86,114.07,69.7,312.22,320.36,93.1,67.21,308.59,318.02,
2018-08-23 12:04:00,89.5335,5.57022,1002.477,273.55,94.3,0.4,6.05,-0.92,-62.07,113.94,69.5,312.48,320.13,93.39,67.1,308.66,318.07,
2018-08-23 12:04:00,89.5335,5.57022,1002.482,273.55,94.3,0.3,5.46,-0.99,-62.12,113.09,69.43,312.21,320.04,93.75,66.99,308.72,318.15,
2018-08-23 12:04:00,89.5335,5.57022,1002.493,273.55,94.3,0.2,5.34,-1.02,-62.19,113.02,69.29,311.93,320.11,94.22,66.9,308.79,318.25,
2018-08-23 12:04:00,89.5335,5.57023,1002.484,273.55,94.3,0.3,5.6,-1.0,-61.74,113.68,69.36,311.96,320.23,94.78,66.84,308.93,318.38,
2018-08-23 12:04:00,89.5335,5.57024,1002.499,273.55,94.3,0.2,6.29,-0.96,-61.06,111.13,69.29,311.75,319.84,95.4,66.83,308.97,318.47,
2018-08-23 12:04:00,89.5335,5.57024,1002.512,273.55,94.3,0.1,6.93,-0.98,-60.23,110.93,69.22,311.83,319.84,95.96,66.87,308.96,318.53,
2018-08-23 12:04:00,89.5335,5.57025,1002.515,273.55,94.3,0.1,7.24,-0.96,-59.36,111.52,69.08,311.83,320.04,96.33,66.96,308.93,318.55,
2018-08-23 12:04:00,89.5335,5.57025,1002.512,273.56,94.3,0.1,7.19,-0.84,-58.54,110.73,69.08,311.83,319.72,96.33,67.09,308.89,318.54,
2018-08-23 12:04:00,89.5335,5.57026,1002.494,273.55,94.3,0.2,7.05,-0.8,-57.88,110.6,68.88,312.32,319.98,95.8,67.25,308.85,318.5,
2018-08-23 12:04:00,89.5335,5.57026,1002.485,273.55,94.3,0.3,7.01,-0.64,-57.44,109.69,69.08,311.81,319.62,94.57,67.4,308.8,318.45,
2018-08-23 12:04:00,89.5335,5.57027,1002.504,273.55,94.3,0.1,6.92,-0.56,-57.21,109.49,68.81,311.48,319.75,92.58,67.54,308.75,318.4,
2018-08-23 12:04:00,89.5335,5.57027,1002.514,273.55,94.3,0.1,6.73,-0.46,-57.23,109.56,68.88,311.45,320.13,89.82,67.65,308.7,318.37,
2018-08-23 12:04:00,89.5335,5.57028,1002.487,273.54,94.3,0.3,6.49,-0.35,-57.48,108.18,68.81,311.36,319.56,86.37,67.7,308.64,318.36,
2018-08-23 12:04:00,89.5335,5.57028,1002.457,273.55,94.3,0.5,6.26,-0.31,-57.9,109.16,68.88,311.18,319.64,82.42,67.7,308.56,318.39,
2018-08-23 12:04:00,89.5335,5.57029,1002.468,273.54,94.3,0.4,6.0,-0.21,-58.26,107.66,68.88,311.36,319.46,78.22,67.64,308.42,318.51,
2018-08-23 12:04:00,89.5335,5.57029,1002.477,273.55,94.3,0.4,5.69,-0.1,-58.71,109.1,68.81,310.99,319.55,74.08,67.54,308.32,318.62,
2018-08-23 12:04:00,89.5335,5.5703,1002.479,273.55,94.3,0.3,5.35,0.03,-59.12,108.25,69.01,311.08,319.56,70.29,67.41,308.25,318.74,
2018-08-23 12:04:00,89.5335,5.5703,1002.476,273.55,94.3,0.4,5.66,0.23,-59.47,106.35,68.67,310.9,319.85,67.13,67.26,308.2,318.85,
2018-08-23 12:04:00,89.5335,5.5703,1002.476,273.55,94.3,0.4,7.1,0.56,-59.76,105.37,68.67,310.81,319.72,64.81,67.1,308.15,318.92,
2018-08-23 12:04:00,89.5335,5.5703,1002.493,273.55,94.3,0.2,7.33,0.9,-59.95,103.53,68.74,310.8,320.61,63.46,66.95,308.11,318.95,
2018-08-23 12:04:00,89.5335,5.57031,1002.506,273.55,94.3,0.1,7.1,1.59,-59.86,101.24,68.6,310.72,320.07,63.11,66.81,308.07,318.94,
2018-08-23 12:04:00,89.5335,5.57031,1002.502,273.55,94.3,0.2,6.7,2.01,-59.82,100.85,68.6,310.81,320.04,63.68,66.7,307.95,318.89,
2018-08-23 12:04:00,89.5335,5.57032,1002.49,273.55,94.3,0.3,6.07,2.16,-59.9,97.78,68.46,310.8,320.12,65.07,66.6,307.82,318.76,
2018-08-23 12:04:00,89.5335,5.57032,1002.484,273.55,94.3,0.3,5.55,2.02,-60.17,97.64,68.39,310.7,319.52,67.1,66.51,307.72,318.59,
2018-08-23 12:04:00,89.5335,5.57032,1002.488,273.55,94.3,0.3,6.08,1.43,-60.66,98.17,68.46,310.32,319.56,69.61,66.45,307.59,318.49,
2018-08-23 12:04:00,89.5335,5.57032,1002.49,273.56,94.3,0.3,6.88,1.4,-60.35,97.97,68.53,310.51,319.37,72.47,66.4,307.48,318.31,
2018-08-23 12:04:00,89.5335,5.57033,1002.486,273.56,94.3,0.3,6.81,1.25,-60.39,97.06,68.46,309.43,319.21,75.57,66.36,307.38,318.2,
2018-08-23 12:04:00,89.5335,5.57033,1002.481,273.56,94.3,0.3,7.68,1.31,-60.49,98.17,68.18,309.14,318.62,78.9,66.34,307.3,318.12,
2018-08-23 12:04:00,89.5335,5.57033,1002.479,273.55,94.3,0.3,8.31,1.61,-60.04,97.45,68.05,309.2,318.57,82.45,66.34,307.22,318.06,
2018-08-23 12:04:00,89.5335,5.57034,1002.483,273.56,94.3,0.3,6.27,1.94,-58.46,96.27,68.18,308.88,319.27,86.26,66.35,307.12,318.02,
2018-08-23 12:04:00,89.5335,5.57034,1002.494,273.56,94.3,0.2,9.06,1.93,-58.47,95.03,68.25,308.9,319.46,90.4,66.38,307.08,318.11,
2018-08-23 12:04:00,89.5335,5.57034,1002.498,273.56,94.3,0.2,7.98,1.69,-58.54,94.31,68.05,309.25,319.17,94.88,66.42,307.05,318.16,
2018-08-23 12:04:00,89.53349,5.57035,1002.477,273.56,94.3,0.4,5.59,1.11,-58.87,93.78,68.18,309.66,319.37,99.69,66.48,307.14,318.2,
2018-08-23 12:04:00,89.53349,5.57035,1002.457,273.56,94.3,0.5,3.91,0.42,-59.52,94.57,67.98,309.48,319.09,104.75,66.54,307.25,318.29,
2018-08-23 12:04:00,89.53349,5.57036,1002.484,273.56,94.3,0.3,4.03,-0.22,-60.49,94.18,67.91,309.36,318.64,109.94,66.61,307.33,318.35,
2018-08-23 12:04:00,89.53349,5.57036,1002.484,273.56,94.3,0.3,4.56,-1.3,-61.69,95.42,67.77,309.73,319.68,115.05,66.68,307.4,318.19,
2018-08-23 12:04:00,89.53349,5.57036,1002.501,273.56,94.3,0.2,3.79,-2.32,-62.54,96.66,67.91,309.66,319.19,119.88,66.74,307.51,318.09,
2018-08-23 12:04:00,89.53349,5.57037,1002.482,273.56,94.3,0.3,3.23,-3.5,-63.12,96.66,68.12,309.77,318.9,124.21,66.79,307.61,318.0,
2018-08-23 12:04:00,89.53349,5.57037,1002.461,273.56,94.3,0.5,2.88,-4.62,-63.36,98.36,67.77,309.77,319.1,127.87,66.82,307.67,317.93,
2018-08-23 12:04:00,89.53349,5.57037,1002.469,273.56,94.3,0.4,2.83,-5.54,-63.33,99.08,67.84,309.47,318.72,130.72,66.81,307.71,317.86,
2018-08-23 12:04:00,89.53349,5.57038,1002.468,273.56,94.3,0.4,3.4,-6.31,-63.32,99.02,67.7,308.62,317.63,132.72,66.73,307.73,317.82,
2018-08-23 12:04:00,89.53349,5.57038,1002.472,273.56,94.4,0.4,3.21,-6.55,-63.33,100.98,67.98,309.38,318.17,133.89,66.54,307.66,317.7,
2018-08-23 12:04:00,89.53349,5.57038,1002.468,273.56,94.3,0.4,3.06,-6.73,-62.95,101.05,67.7,309.58,318.81,134.33,66.17,307.57,317.64,
2018-08-23 12:04:00,89.53349,5.57038,1002.469,273.56,94.3,0.4,2.94,-6.64,-62.05,102.16,67.77,309.48,318.9,134.22,65.55,307.45,317.62,
2018-08-23 12:04:00,89.53349,5.57039,1002.478,273.56,94.4,0.3,2.92,-6.38,-60.76,102.94,67.56,309.39,319.29,133.73,64.62,307.33,317.62,
2018-08-23 12:04:00,89.53349,5.57039,1002.486,273.56,94.3,0.3,2.97,-6.11,-59.47,103.53,67.63,309.38,318.79,133.08,63.3,307.23,317.7,
2018-08-23 12:04:00,89.53349,5.57039,1002.483,273.56,94.4,0.3,2.61,-5.58,-59.14,104.65,67.7,309.47,319.0,132.44,61.55,307.2,317.99,
2018-08-23 12:04:00,89.53349,5.57039,1002.47,273.56,94.3,0.4,2.52,-5.07,-58.17,106.15,67.7,309.37,319.1,131.95,59.34,307.14,318.19,
2018-08-23 12:04:00,89.53349,5.5704,1002.454,273.56,94.3,0.5,2.38,-4.67,-57.95,105.37,67.7,309.38,318.8,131.68,56.71,307.11,318.33,
2018-08-23 12:04:00,89.53349,5.5704,1002.451,273.56,94.4,0.6,2.21,-4.35,-57.75,106.74,67.29,309.11,318.99,131.66,53.74,307.11,318.4,
2018-08-23 12:04:00,89.53349,5.5704,1002.469,273.57,94.3,0.4,2.04,-4.1,-57.19,106.54,67.01,309.2,319.19,131.85,50.54,307.11,318.4,
2018-08-23 12:04:00,89.53349,5.5704,1002.478,273.57,94.4,0.3,1.87,-4.04,-57.28,106.74,66.81,309.11,320.34,132.2,47.3,307.06,318.35,
2018-08-23 12:04:00,89.53349,5.57041,1002.483,273.57,94.4,0.3,1.53,-4.0,-57.19,108.77,66.32,309.11,319.61,132.62,44.21,307.08,318.39,
2018-08-23 12:04:00,89.53349,5.57041,1002.479,273.56,94.4,0.3,1.22,-3.99,-57.36,108.51,65.7,309.11,319.65,133.0,41.49,307.12,318.34,
2018-08-23 12:04:00,89.53349,5.57041,1002.476,273.56,94.4,0.4,0.77,-3.9,-57.57,109.36,64.94,309.2,319.01,133.28,39.33,307.01,318.16,
2018-08-23 12:04:00,89.53349,5.57042,1002.481,273.56,94.4,0.3,0.12,-3.73,-57.84,110.47,64.18,308.56,318.57,133.41,37.89,306.85,317.94,
2018-08-23 12:04:00,89.53349,5.57042,1002.504,273.57,94.4,0.1,-0.64,-3.55,-58.36,111.13,63.42,307.5,317.72,133.35,37.26,306.78,317.82,
2018-08-23 12:04:00,89.53349,5.57043,1002.481,273.57,94.4,0.3,-1.44,-3.49,-58.84,110.08,62.6,308.3,319.13,133.13,37.45,306.55,317.66,
2018-08-23 12:04:00,89.53349,5.57043,1002.463,273.57,94.4,0.5,-2.07,-3.5,-59.23,112.17,61.84,308.59,318.26,132.77,38.39,306.33,317.54,
2018-08-23 12:04:00,89.53349,5.57044,1002.464,273.57,94.4,0.5,-2.21,-3.86,-59.7,112.56,61.22,307.19,316.76,132.35,39.97,306.23,317.51,
2018-08-23 12:04:00,89.53349,5.57045,1002.475,273.56,94.4,0.4,-1.49,-4.4,-59.72,112.3,60.39,307.19,316.88,131.93,41.97,306.15,317.54,
2018-08-23 12:04:00,89.53349,5.57045,1002.472,273.56,94.3,0.4,-0.44,-4.85,-58.99,112.5,59.49,308.63,317.85,131.58,44.18,306.08,317.63,
2018-08-23 12:04:00,89.53349,5.57046,1002.468,273.57,94.4,0.4,-2.35,-5.1,-58.59,114.14,59.28,306.91,318.45,131.36,46.36,306.14,317.79,
2018-08-23 12:04:00,89.53349,5.57046,1002.482,273.56,94.4,0.3,-2.11,-5.05,-57.16,114.72,59.08,307.56,318.76,131.32,48.33,306.22,317.88,
2018-08-23 12:04:00,89.53349,5.57047,1002.486,273.56,94.4,0.3,-1.45,-4.85,-56.39,114.92,59.01,308.66,318.86,131.46,49.92,306.32,318.04,
2018-08-23 12:04:00,89.53349,5.57047,1002.485,273.56,94.4,0.3,-0.94,-4.74,-55.72,114.79,59.01,308.62,318.81,131.8,51.07,306.57,318.33,
2018-08-23 12:04:00,89.53349,5.57048,1002.486,273.57,94.3,0.3,-0.67,-4.77,-55.04,115.58,58.94,307.76,318.37,132.3,51.75,306.89,318.61,
2018-08-23 12:04:00,89.53349,5.57048,1002.468,273.57,94.4,0.4,-0.29,-4.75,-54.83,114.2,59.08,308.06,318.63,132.92,52.03,307.14,318.68,
2018-08-23 12:04:00,89.53349,5.57048,1002.466,273.57,94.4,0.4,-0.34,-4.6,-54.64,116.23,59.01,308.48,318.56,133.6,52.01,307.48,318.66,
2018-08-23 12:04:00,89.53349,5.57049,1002.471,273.57,94.4,0.4,-0.24,-4.56,-54.51,116.88,59.21,308.27,318.55,134.27,51.82,307.73,318.56,
2018-08-23 12:04:00,89.53349,5.57049,1002.489,273.57,94.4,0.3,-0.76,-4.61,-54.57,117.02,58.94,308.27,318.64,134.88,51.6,307.78,318.41,
2018-08-23 12:04:00,89.53349,5.57049,1002.504,273.57,94.4,0.1,-1.89,-4.71,-54.83,116.88,58.45,308.78,318.34,135.36,51.47,307.72,318.25,
2018-08-23 12:04:00,89.53349,5.5705,1002.477,273.57,94.4,0.4,-2.75,-4.79,-55.16,117.28,57.97,309.43,317.77,135.68,51.5,307.61,318.09,
2018-08-23 12:04:00,89.53349,5.5705,1002.472,273.57,94.4,0.4,-0.42,-4.66,-54.72,118.85,57.42,309.59,317.62,135.83,51.73,307.49,317.93,
2018-08-23 12:04:00,89.53349,5.5705,1002.46,273.57,94.4,0.5,0.04,-4.47,-54.34,118.78,57.14,309.38,317.42,135.81,52.16,307.27,317.76,
2018-08-23 12:04:00,89.53349,5.5705,1002.467,273.57,94.4,0.4,0.19,-4.33,-53.98,119.11,56.8,309.4,317.87,135.63,52.75,307.06,317.61,
2018-08-23 12:04:00,89.53349,5.57051,1002.485,273.57,94.4,0.3,0.3,-4.33,-53.63,119.83,57.07,308.85,318.2,135.34,53.43,306.89,317.49,
2018-08-23 12:04:00,89.53349,5.57051,1002.492,273.57,94.4,0.2,0.34,-4.45,-53.26,120.81,57.0,308.5,318.36,134.99,54.15,306.74,317.44,
2018-08-23 12:04:00,89.53349,5.57051,1002.495,273.57,94.4,0.2,0.15,-4.54,-52.61,120.42,57.35,308.4,318.83,134.62,54.84,306.57,317.49,
2018-08-23 12:04:00,89.53349,5.57052,1002.491,273.56,94.4,0.2,0.21,-4.47,-51.65,120.62,57.49,308.33,318.84,134.26,55.47,306.47,317.57,
2018-08-23 12:04:00,89.53349,5.57052,1002.482,273.56,94.3,0.3,0.72,-4.43,-50.66,121.34,57.63,308.06,318.45,133.95,56.05,306.42,317.71,
2018-08-23 12:04:00,89.53349,5.57052,1002.484,273.56,94.3,0.3,2.25,-4.46,-49.76,121.14,57.49,308.06,318.83,133.68,56.59,306.46,317.81,
2018-08-23 12:04:00,89.53349,5.57052,1002.498,273.57,94.3,0.2,3.99,-4.67,-48.88,121.34,57.28,308.15,318.73,133.46,57.15,306.57,317.87,
2018-08-23 12:04:00,89.53349,5.57052,1002.49,273.57,94.3,0.3,4.33,-5.18,-47.78,121.4,57.0,308.05,318.64,133.25,57.75,306.62,317.93,
2018-08-23 12:04:00,89.53349,5.57052,1002.484,273.57,94.3,0.3,5.27,-4.95,-47.51,122.19,56.87,307.78,318.53,133.04,58.45,306.63,317.91,
2018-08-23 12:04:00,89.53349,5.57053,1002.488,273.57,94.4,0.3,5.81,-5.0,-47.09,122.45,56.94,307.6,318.81,132.8,59.28,306.6,317.87,
2018-08-23 12:04:00,89.53349,5.57053,1002.482,273.57,94.4,0.3,5.85,-4.93,-46.89,123.23,56.87,308.56,318.36,132.51,60.22,306.57,317.77,
2018-08-23 12:04:00,89.53349,5.57053,1002.468,273.57,94.3,0.4,5.78,-4.76,-46.8,123.04,56.8,308.27,318.06,132.18,61.26,306.5,317.63,
2018-08-23 12:04:00,89.53349,5.57053,1002.459,273.56,94.3,0.5,6.05,-4.59,-46.6,123.43,57.14,307.5,318.46,131.82,62.34,306.39,317.54,
2018-08-23 12:04:00,89.53349,5.57053,1002.471,273.57,94.4,0.4,6.64,-4.45,-46.29,123.56,57.28,307.75,318.08,131.46,63.41,306.37,317.55,
2018-08-23 12:04:00,89.53349,5.57054,1002.488,273.57,94.3,0.3,6.83,-4.52,-46.23,124.35,57.63,307.07,318.0,131.14,64.41,306.36,317.57,
2018-08-23 12:04:00,89.53349,5.57054,1002.486,273.57,94.3,0.3,6.94,-4.77,-46.05,123.63,57.83,307.85,317.76,130.9,65.28,306.43,317.56,
2018-08-23 12:04:00,89.53349,5.57054,1002.491,273.57,94.3,0.2,7.06,-4.99,-45.86,123.56,58.18,307.45,317.54,130.77,65.99,306.52,317.58,
2018-08-23 12:04:00,89.53349,5.57054,1002.512,273.57,94.3,0.1,7.3,-5.11,-45.65,124.35,58.32,307.13,317.7,130.76,66.53,306.65,317.68,
2018-08-23 12:04:00,89.53349,5.57054,1002.493,273.57,94.3,0.2,7.7,-5.22,-45.21,123.82,58.52,308.12,318.64,130.86,66.91,306.88,317.87,
2018-08-23 12:04:00,89.53349,5.57055,1002.49,273.56,94.3,0.3,8.04,-5.27,-44.63,124.35,58.59,307.76,318.26,131.05,67.15,307.1,318.14,
2018-08-23 12:04:00,89.53349,5.57055,1002.48,273.56,94.3,0.3,8.6,-5.09,-43.92,123.89,58.94,307.91,317.84,131.27,67.31,307.29,318.32,
2018-08-23 12:04:00,89.53349,5.57055,1002.477,273.56,94.3,0.4,8.9,-4.69,-42.98,125.46,59.01,308.3,317.26,131.48,67.43,307.41,318.48,
2018-08-23 12:04:00,89.53349,5.57055,1002.489,273.56,94.3,0.3,8.98,-4.21,-41.81,125.06,59.35,308.42,317.74,131.62,67.54,307.48,318.56,
2018-08-23 12:04:00,89.53349,5.57056,1002.513,273.56,94.3,0.1,9.11,-3.79,-40.57,125.13,59.28,308.18,318.92,131.65,67.66,307.49,318.48,
2018-08-23 12:04:00,89.53349,5.57056,1002.509,273.56,94.3,0.1,9.76,-3.27,-39.58,125.33,59.49,308.18,319.49,131.56,67.81,307.45,318.31,
2018-08-23 12:04:00,89.53349,5.57056,1002.481,273.56,94.3,0.3,9.7,-2.81,-38.7,125.72,59.83,307.09,318.74,131.33,67.98,307.48,318.18,
2018-08-23 12:04:00,89.53349,5.57056,1002.472,273.56,94.3,0.4,9.59,-2.63,-37.73,124.67,60.04,307.36,318.13,131.0,68.14,307.46,318.11,
2018-08-23 12:04:00,89.53349,5.57057,1002.474,273.57,94.3,0.4,9.8,-2.61,-36.98,125.98,60.39,307.04,317.77,130.62,68.27,307.42,318.11,
2018-08-23 12:04:00,89.53349,5.57057,1002.464,273.56,94.3,0.5,10.38,-2.69,-36.47,126.11,60.46,306.69,317.04,130.24,68.35,307.39,318.11,
2018-08-23 12:04:00,89.53349,5.57057,1002.466,273.57,94.3,0.4,10.81,-2.99,-35.76,126.57,60.73,307.35,317.28,129.91,68.37,307.38,318.07,
2018-08-23 12:04:00,89.53349,5.57058,1002.492,273.57,94.3,0.2,10.79,-3.41,-35.16,126.18,60.87,308.32,317.35,129.68,68.33,307.37,318.0,
2018-08-23 12:04:00,89.53349,5.57058,1002.485,273.57,94.3,0.3,10.85,-3.74,-34.51,125.72,61.15,308.1,317.43,129.58,68.23,307.36,317.99,
2018-08-23 12:04:00,89.53349,5.57058,1002.467,273.57,94.3,0.4,10.93,-3.97,-34.01,126.7,61.28,308.45,317.94,129.6,68.1,307.4,318.07,
2018-08-23 12:04:00,89.53349,5.57059,1002.464,273.57,94.3,0.5,11.03,-4.1,-33.75,125.72,61.49,308.66,318.03,129.71,67.96,307.48,318.22,
2018-08-23 12:04:00,89.53349,5.57059,1002.494,273.57,94.3,0.2,11.18,-4.09,-33.69,126.18,61.63,308.05,318.63,129.88,67.84,307.54,318.38,
2018-08-23 12:04:00,89.53349,5.5706,1002.499,273.58,94.3,0.2,11.18,-3.94,-33.7,125.98,61.7,308.05,318.46,130.07,67.76,307.52,318.48,
2018-08-23 12:04:00,89.53349,5.5706,1002.475,273.57,94.3,0.4,11.36,-3.78,-33.95,126.57,61.97,307.27,318.37,130.23,67.74,307.32,318.42,
2018-08-23 12:04:00,89.53349,5.5706,1002.459,273.57,94.3,0.5,11.5,-3.65,-34.3,126.7,61.77,307.35,318.5,130.32,67.77,307.13,318.37,
2018-08-23 12:04:00,89.53349,5.57061,1002.467,273.57,94.3,0.4,11.58,-3.57,-34.7,126.96,61.9,307.42,318.49,130.33,67.84,306.95,318.32,
2018-08-23 12:04:00,89.53349,5.57061,1002.5,273.57,94.3,0.2,11.67,-3.55,-35.06,127.16,62.18,307.21,318.36,130.27,67.94,306.75,318.22,
2018-08-23 12:04:00,89.53349,5.57061,1002.503,273.58,94.3,0.1,11.89,-3.53,-35.3,126.57,62.53,307.24,318.37,130.17,68.04,306.58,318.11,
2018-08-23 12:04:00,89.53349,5.57062,1002.496,273.57,94.3,0.2,12.29,-3.49,-35.53,127.16,62.6,306.46,317.3,130.04,68.13,306.47,318.0,
2018-08-23 12:04:00,89.53349,5.57062,1002.49,273.57,94.3,0.3,12.21,-3.54,-35.68,127.03,62.87,306.49,317.54,129.92,68.18,306.45,317.94,
2018-08-23 12:04:00,89.53349,5.57063,1002.494,273.57,94.3,0.2,11.9,-3.6,-35.77,127.94,62.87,307.12,318.56,129.85,68.18,306.44,317.87,
2018-08-23 12:04:00,89.53349,5.57063,1002.496,273.58,94.3,0.2,11.72,-3.65,-35.83,126.77,63.01,307.31,318.47,129.83,68.13,306.45,317.8,
2018-08-23 12:04:00,89.53349,5.57064,1002.46,273.58,94.3,0.5,11.89,-3.68,-35.84,126.96,63.08,307.21,318.36,129.85,68.04,306.49,317.81,
2018-08-23 12:04:00,89.53349,5.57064,1002.484,273.58,94.3,0.3,12.06,-3.66,-35.56,127.09,63.08,307.31,318.54,129.88,67.91,306.55,317.84,
2018-08-23 12:04:00,89.53349,5.57065,1002.477,273.58,94.3,0.4,11.88,-3.64,-35.45,127.09,63.42,307.03,318.26,129.89,67.75,306.56,317.98,
2018-08-23 12:04:00,89.53349,5.57065,1002.469,273.58,94.3,0.4,11.66,-3.6,-35.46,127.22,63.42,307.03,318.37,129.84,67.57,306.56,318.08,
2018-08-23 12:04:00,89.53349,5.57066,1002.48,273.58,94.3,0.3,11.56,-3.54,-35.57,128.34,63.63,307.09,318.49,129.7,67.37,306.51,318.12,
2018-08-23 12:04:00,89.53349,5.57066,1002.515,273.58,94.3,0.1,11.61,-3.49,-35.82,127.55,63.56,307.05,318.41,129.44,67.17,306.39,318.17,
2018-08-23 12:04:00,89.53349,5.57067,1002.504,273.58,94.3,0.1,11.43,-3.56,-36.34,127.16,63.7,306.84,318.19,129.07,66.96,306.25,318.21,
2018-08-23 12:04:00,89.53349,5.57067,1002.48,273.58,94.3,0.3,11.21,-3.69,-36.64,128.34,63.91,305.57,318.46,128.63,66.75,306.14,318.19,
2018-08-23 12:04:00,89.53349,5.57068,1002.484,273.58,94.3,0.3,11.08,-3.8,-36.99,127.16,63.98,306.59,318.18,128.17,66.52,306.04,318.21,
2018-08-23 12:04:00,89.53349,5.57068,1002.491,273.58,94.3,0.3,11.12,-3.83,-37.27,127.81,63.91,306.59,318.48,127.75,66.3,305.97,318.25,
2018-08-23 12:04:00,89.53349,5.57068,1002.476,273.58,94.3,0.4,11.14,-3.77,-37.43,128.34,64.04,306.15,318.38,127.44,66.07,305.93,318.24,
2018-08-23 12:04:00,89.53349,5.57069,1002.481,273.58,94.3,0.3,10.75,-3.64,-37.54,127.22,64.11,306.24,318.42,127.29,65.85,305.96,318.1,
2018-08-23 12:04:00,89.53349,5.57069,1002.476,273.58,94.3,0.4,10.55,-3.59,-37.61,128.14,64.04,306.6,317.7,127.33,65.64,306.09,317.96,
2018-08-23 12:04:00,89.53349,5.5707,1002.487,273.58,94.3,0.3,10.56,-3.55,-37.86,128.01,64.32,306.75,317.76,127.57,65.44,306.35,317.87,
2018-08-23 12:04:00,89.53349,5.5707,1002.504,273.58,94.3,0.1,10.38,-3.51,-38.12,127.36,64.11,306.77,318.47,127.98,65.25,306.51,317.75,
2018-08-23 12:04:00,89.53349,5.57071,1002.511,273.59,94.3,0.1,10.06,-3.44,-38.35,127.16,64.25,306.82,317.65,128.49,65.06,306.66,317.63,
2018-08-23 12:04:00,89.53349,5.57071,1002.492,273.58,94.3,0.2,9.85,-3.28,-38.66,127.16,64.25,307.16,316.46,129.04,64.86,306.89,317.54,
2018-08-23 12:04:00,89.53349,5.57072,1002.507,273.58,94.3,0.1,9.99,-3.14,-39.08,127.03,64.11,307.97,316.23,129.55,64.64,307.07,317.48,
2018-08-23 12:04:00,89.53349,5.57072,1002.506,273.58,94.3,0.1,9.82,-2.96,-39.55,127.94,64.11,307.89,317.26,129.93,64.4,307.19,317.5,
2018-08-23 12:04:00,89.53349,5.57072,1002.509,273.58,94.3,0.1,9.67,-2.77,-40.09,128.14,64.11,307.19,316.95,130.13,64.11,307.25,317.56,
2018-08-23 12:04:00,89.53349,5.57072,1002.508,273.58,94.3,0.1,9.52,-2.62,-40.56,127.81,64.46,306.93,316.9,130.13,63.78,307.25,317.63,
2018-08-23 12:04:00,89.53349,5.57072,1002.487,273.58,94.3,0.3,9.28,-2.53,-40.86,128.14,64.32,307.92,317.61,129.92,63.41,307.17,317.77,
2018-08-23 12:04:00,89.53349,5.57073,1002.469,273.58,94.3,0.4,8.96,-2.5,-41.15,128.14,64.25,307.7,317.46,129.56,63.01,307.04,317.99,
2018-08-23 12:04:00,89.53349,5.57073,1002.509,273.58,94.3,0.1,9.29,-2.49,-41.26,128.14,64.32,307.82,318.14,129.1,62.6,306.88,318.28,
2018-08-23 12:04:00,89.53349,5.57073,1002.518,273.58,94.3,0.0,9.51,-2.49,-41.43,128.53,64.25,307.36,318.19,128.62,62.2,306.68,318.48,
2018-08-23 12:04:00,89.53349,5.57073,1002.511,273.58,94.3,0.1,9.36,-2.5,-41.64,128.14,64.25,307.11,318.58,128.21,61.84,306.56,318.67,
2018-08-23 12:04:00,89.53349,5.57074,1002.508,273.58,94.3,0.1,9.01,-2.51,-41.86,128.01,64.11,306.71,318.11,127.93,61.53,306.51,318.86,
2018-08-23 12:04:00,89.53349,5.57074,1002.5,273.58,94.3,0.2,8.82,-2.46,-42.07,127.62,63.91,306.37,318.1,127.83,61.28,306.42,318.98,
2018-08-23 12:04:00,89.53349,5.57074,1002.486,273.58,94.3,0.3,8.69,-2.47,-42.47,127.68,63.7,306.9,318.13,127.92,61.09,306.34,319.04,
2018-08-23 12:04:00,89.53349,5.57074,1002.474,273.57,94.3,0.4,8.5,-2.46,-43.12,128.8,63.84,306.41,318.15,128.21,60.96,306.28,319.04,
2018-08-23 12:04:00,89.53349,5.57074,1002.481,273.57,94.3,0.3,8.32,-2.41,-43.76,127.62,63.7,306.65,318.23,128.64,60.86,306.24,318.98,
2018-08-23 12:04:00,89.53349,5.57074,1002.509,273.58,94.3,0.1,8.02,-2.3,-44.3,127.81,63.7,306.85,318.49,129.18,60.78,306.23,318.91,
2018-08-23 12:04:00,89.53349,5.57074,1002.534,273.58,94.3,-0.1,7.57,-2.13,-44.79,128.21,63.49,307.04,318.94,129.74,60.7,306.25,318.86,
2018-08-23 12:04:00,89.53349,5.57075,1002.474,273.58,94.3,0.4,7.57,-1.85,-45.38,127.49,63.7,306.82,318.48,130.27,60.6,306.28,318.88,
2018-08-23 12:04:00,89.53349,5.57075,1002.456,273.58,94.3,0.5,7.28,-1.64,-45.51,128.47,63.49,306.73,318.68,130.71,60.46,306.27,318.9,
2018-08-23 12:04:00,89.53349,5.57075,1002.483,273.57,94.3,0.3,6.86,-1.41,-45.38,128.93,63.49,306.73,318.57,131.03,60.28,306.28,318.96,
2018-08-23 12:04:00,89.53349,5.57075,1002.515,273.57,94.3,0.1,6.7,-1.25,-45.23,127.75,63.42,306.64,318.65,131.2,60.08,306.24,319.04,
2018-08-23 12:04:00,89.53349,5.57075,1002.511,273.58,94.3,0.1,6.79,-1.21,-45.18,128.4,63.08,306.82,318.75,131.24,59.85,306.12,319.1,
2018-08-23 12:04:00,89.53349,5.57075,1002.485,273.58,94.3,0.3,6.59,-1.24,-45.23,127.81,63.28,306.73,318.58,131.18,59.63,305.98,319.16,
2018-08-23 12:04:00,89.53349,5.57075,1002.49,273.58,94.3,0.3,5.94,-1.31,-45.32,128.66,63.08,306.63,318.63,131.05,59.42,305.82,319.29,
2018-08-23 12:04:00,89.53349,5.57075,1002.491,273.58,94.3,0.3,5.75,-1.35,-45.49,128.53,63.01,306.7,318.51,130.89,59.24,305.74,319.24,
2018-08-23 12:04:00,89.53349,5.57075,1002.485,273.58,94.3,0.3,5.88,-1.39,-45.79,128.99,62.87,306.06,318.78,130.74,59.09,305.67,319.15,
2018-08-23 12:04:00,89.53349,5.57076,1002.483,273.57,94.3,0.3,5.96,-1.43,-46.16,129.38,62.8,305.76,318.58,130.65,58.99,305.58,319.08,
2018-08-23 12:04:00,89.53349,5.57076,1002.508,273.57,94.3,0.1,5.65,-1.46,-46.45,129.32,62.73,305.35,318.92,130.63,58.91,305.52,318.97,
2018-08-23 12:04:00,89.53349,5.57076,1002.5,273.57,94.3,0.2,5.34,-1.53,-46.77,129.12,62.6,305.43,319.58,130.69,58.86,305.47,318.84,
2018-08-23 12:04:00,89.53349,5.57077,1002.471,273.57,94.3,0.4,5.38,-1.6,-46.93,127.55,62.46,306.26,317.81,130.82,58.81,305.43,318.72,
2018-08-23 12:04:00,89.53349,5.57077,1002.472,273.57,94.3,0.4,5.53,-1.66,-46.88,128.53,62.32,306.45,318.0,131.02,58.75,305.44,318.53,
2018-08-23 12:04:00,89.53349,5.57078,1002.495,273.57,94.3,0.2,5.51,-1.69,-46.7,128.47,62.39,306.38,318.68,131.25,58.69,305.53,318.33,
2018-08-23 12:04:00,89.53349,5.57078,1002.483,273.58,94.3,0.3,5.28,-1.68,-46.47,128.99,62.25,306.56,318.87,131.48,58.6,305.7,318.19,
2018-08-23 12:04:00,89.53349,5.57078,1002.507,273.57,94.3,0.1,5.11,-1.65,-46.29,129.58,62.18,306.54,318.76,131.7,58.5,305.91,318.09,
2018-08-23 12:04:00,89.53349,5.57079,1002.504,273.57,94.3,0.1,5.23,-1.56,-46.24,129.19,62.11,306.45,318.78,131.86,58.38,306.14,317.96,
2018-08-23 12:04:00,89.53349,5.57079,1002.506,273.57,94.3,0.1,5.12,-1.6,-46.18,128.8,61.97,306.91,317.71,131.96,58.27,306.24,318.07,
2018-08-23 12:04:00,89.53349,5.57079,1002.507,273.57,94.3,0.1,4.8,-1.64,-46.22,129.58,61.77,307.16,317.41,131.99,58.16,306.36,318.31,
2018-08-23 12:04:00,89.53349,5.5708,1002.499,273.57,94.2,0.2,4.49,-1.65,-46.4,129.45,61.9,307.62,317.21,131.93,58.08,306.47,318.53,
2018-08-23 12:04:00,89.53349,5.5708,1002.49,273.57,94.2,0.3,4.55,-1.7,-46.66,129.58,61.77,307.35,317.67,131.78,58.01,306.46,318.62,
2018-08-23 12:04:00,89.53349,5.57081,1002.486,273.57,94.2,0.3,4.51,-1.59,-46.9,130.43,61.7,307.29,317.59,131.56,57.97,306.47,318.67,
2018-08-23 12:04:00,89.53349,5.57081,1002.505,273.57,94.2,0.1,4.6,-1.45,-47.03,128.73,61.63,306.75,318.27,131.28,57.96,306.45,318.64,
2018-08-23 12:04:00,89.53349,5.57081,1002.502,273.57,94.2,0.2,4.72,-1.41,-47.06,129.12,61.28,306.99,319.93,130.94,57.95,306.37,318.65,
2018-08-23 12:04:00,89.53349,5.57083,1002.479,273.58,94.2,0.3,5.04,-1.45,-46.99,129.06,61.01,306.79,320.14,130.56,57.96,306.25,318.69,
2018-08-23 12:04:00,89.53349,5.57084,1002.492,273.57,94.2,0.2,5.81,-1.46,-46.77,129.71,61.22,305.88,318.89,130.15,57.98,306.13,318.75,
2018-08-23 12:04:00,89.53349,5.57086,1002.494,273.57,94.2,0.2,6.46,-1.47,-46.38,130.24,61.15,306.31,319.1,129.74,58.0,306.08,318.93,
2018-08-23 12:05:00,89.53349,5.57087,1002.488,273.57,94.2,0.3,6.81,-1.49,-46.03,129.45,61.28,306.47,318.68,129.33,58.04,305.98,319.11,
2018-08-23 12:05:00,89.53349,5.57089,1002.493,273.57,94.2,0.2,7.13,-1.48,-45.54,129.97,61.08,306.44,318.86,128.95,58.09,305.95,319.24,
2018-08-23 12:05:00,89.53349,5.57091,1002.509,273.57,94.2,0.1,7.46,-1.48,-44.85,129.58,61.08,306.34,318.56,128.6,58.18,305.93,319.27,
2018-08-23 12:05:00,89.53349,5.57092,1002.522,273.57,94.2,0.0,7.72,-1.5,-44.03,130.56,60.87,306.48,319.27,128.29,58.32,305.94,319.27,
2018-08-23 12:05:00,89.53349,5.57094,1002.5,273.57,94.2,0.2,7.67,-1.57,-43.22,128.99,60.8,307.17,320.44,128.02,58.51,306.06,319.39,
2018-08-23 12:05:00,89.53349,5.57095,1002.46,273.57,94.2,0.5,8.11,-1.66,-42.82,129.32,60.59,306.48,320.38,127.78,58.77,306.25,319.53,
2018-08-23 12:05:00,89.53349,5.57096,1002.464,273.57,94.2,0.5,8.41,-1.8,-42.59,129.58,60.73,306.25,319.91,127.56,59.1,306.44,319.68,
2018-08-23 12:05:00,89.53349,5.57097,1002.465,273.57,94.2,0.5,8.33,-1.96,-42.46,129.58,60.59,306.25,320.03,127.33,59.49,306.58,319.78,
2018-08-23 12:05:00,89.53349,5.57097,1002.461,273.57,94.2,0.5,8.2,-2.11,-42.39,128.8,60.52,306.35,319.9,127.06,59.92,306.65,319.83,
2018-08-23 12:05:00,89.53349,5.57098,1002.524,273.57,94.2,-0.0,8.53,-2.23,-42.42,129.25,60.59,306.69,319.72,126.71,60.37,306.65,319.81,
2018-08-23 12:05:00,89.53349,5.57099,1002.499,273.57,94.2,0.2,9.02,-2.31,-42.36,128.86,60.39,307.38,319.74,126.24,60.82,306.56,319.63,
2018-08-23 12:05:00,89.53349,5.571,1002.49,273.57,94.2,0.3,9.37,-2.37,-42.29,129.52,60.46,307.08,319.26,125.63,61.24,306.56,319.43,
2018-08-23 12:05:00,89.53349,5.571,1002.509,273.57,94.2,0.1,9.77,-2.39,-41.97,129.12,60.73,306.56,318.77,124.83,61.6,306.51,319.27,
2018-08-23 12:05:00,89.53349,5.57101,1002.519,273.56,94.2,0.0,10.34,-2.37,-41.53,129.71,60.73,306.46,318.54,123.85,61.88,306.41,319.09,
2018-08-23 12:05:00,89.53349,5.57102,1002.48,273.56,94.2,0.3,10.95,-2.35,-41.1,128.86,60.66,306.34,318.48,122.69,62.07,306.33,318.89,
2018-08-23 12:05:00,89.53349,5.57102,1002.503,273.57,94.2,0.2,10.93,-2.38,-40.48,129.58,60.59,306.36,318.87,121.38,62.17,306.24,318.71,
2018-08-23 12:05:00,89.53349,5.57103,1002.481,273.57,94.2,0.3,11.0,-2.28,-40.01,128.86,60.94,306.99,318.79,119.97,62.18,306.09,318.55,
2018-08-23 12:05:00,89.53349,5.57104,1002.475,273.57,94.2,0.4,11.31,-2.19,-39.63,127.88,60.8,306.54,319.44,118.53,62.12,305.99,318.43,
2018-08-23 12:05:00,89.53349,5.57104,1002.479,273.57,94.2,0.3,11.83,-2.0,-39.22,128.08,60.87,306.05,318.68,117.15,62.01,305.94,318.42,
2018-08-23 12:05:00,89.53349,5.57104,1002.479,273.57,94.2,0.3,12.38,-1.74,-38.83,127.16,60.94,306.26,318.77,115.9,61.87,305.95,318.46,
2018-08-23 12:05:00,89.53349,5.57104,1002.468,273.57,94.2,0.4,12.74,-1.55,-38.63,128.14,60.94,306.35,318.68,114.88,61.74,306.03,318.47,
2018-08-23 12:05:00,89.53349,5.57104,1002.486,273.57,94.2,0.3,12.91,-1.21,-38.58,127.22,60.94,306.15,318.68,114.16,61.63,306.11,318.5,
2018-08-23 12:05:00,89.53349,5.57104,1002.473,273.57,94.2,0.4,13.33,-0.9,-38.36,127.36,60.8,306.43,318.79,113.8,61.57,306.13,318.5,
2018-08-23 12:05:00,89.53349,5.57105,1002.479,273.57,94.2,0.3,13.46,-0.49,-38.09,126.96,61.08,306.12,319.23,113.81,61.56,306.21,318.51,
2018-08-23 12:05:00,89.53349,5.57105,1002.502,273.57,94.2,0.2,13.47,-0.04,-37.82,126.24,60.8,305.95,318.64,114.19,61.62,306.33,318.55,
2018-08-23 12:05:00,89.53349,5.57105,1002.486,273.57,94.2,0.3,13.66,0.32,-37.59,125.78,61.15,306.06,318.88,114.91,61.74,306.38,318.57,
2018-08-23 12:05:00,89.53349,5.57105,1002.474,273.57,94.2,0.4,13.23,0.8,-37.4,125.0,60.94,306.24,318.69,115.91,61.91,306.4,318.53,
2018-08-23 12:05:00,89.53349,5.57105,1002.49,273.57,94.2,0.3,12.57,1.19,-37.44,125.26,61.08,306.16,318.3,117.09,62.11,306.37,318.5,
2018-08-23 12:05:00,89.53349,5.57106,1002.49,273.57,94.2,0.3,12.05,1.64,-37.59,124.74,61.01,306.7,319.29,118.37,62.33,306.29,318.46,
2018-08-23 12:05:00,89.53349,5.57106,1002.485,273.57,94.2,0.3,11.67,2.1,-37.86,124.28,60.87,306.76,319.3,119.66,62.55,306.23,318.4,
2018-08-23 12:05:00,89.53349,5.57106,1002.497,273.57,94.2,0.2,11.43,2.51,-38.24,124.08,61.01,306.87,318.75,120.87,62.75,306.18,318.35,
2018-08-23 12:05:00,89.53349,5.57106,1002.495,273.57,94.2,0.2,11.37,2.9,-38.77,125.13,61.08,306.78,318.2,121.94,62.91,306.12,318.35,
2018-08-23 12:05:00,89.53349,5.57106,1002.488,273.57,94.2,0.3,11.52,3.26,-39.21,124.8,61.28,306.71,318.62,122.82,63.04,305.99,318.36,
2018-08-23 12:05:00,89.53349,5.57106,1002.482,273.56,94.2,0.3,11.74,3.52,-39.61,125.06,61.15,306.5,318.33,123.52,63.14,305.99,318.53,
2018-08-23 12:05:00,89.53349,5.57106,1002.481,273.56,94.2,0.3,11.99,3.76,-39.9,124.67,61.42,306.41,318.6,124.03,63.2,305.99,318.67,
2018-08-23 12:05:00,89.53349,5.57107,1002.485,273.57,94.2,0.3,12.25,3.93,-40.12,125.33,61.49,306.4,318.9,124.41,63.24,306.03,318.78,
2018-08-23 12:05:00,89.53349,5.57107,1002.493,273.57,94.2,0.2,12.52,3.94,-40.38,124.22,61.42,306.04,318.62,124.69,63.26,306.12,318.9,
2018-08-23 12:05:00,89.53349,5.57107,1002.474,273.57,94.2,0.4,12.14,4.0,-40.62,124.08,61.22,305.15,318.32,124.92,63.27,306.18,319.04,
2018-08-23 12:05:00,89.53349,5.57107,1002.463,273.57,94.2,0.5,12.17,3.89,-40.93,124.54,61.49,305.76,319.34,125.16,63.28,306.24,319.15,
2018-08-23 12:05:00,89.53349,5.57107,1002.474,273.57,94.1,0.4,12.11,3.78,-41.44,125.06,61.63,306.14,320.09,125.43,63.29,306.31,319.23,
2018-08-23 12:05:00,89.53349,5.57107,1002.487,273.57,94.2,0.3,11.8,3.63,-42.11,124.48,61.56,306.42,319.8,125.75,63.31,306.36,319.27,
2018-08-23 12:05:00,89.53349,5.57107,1002.476,273.57,94.2,0.4,11.36,3.36,-42.88,124.35,61.63,306.75,319.35,126.12,63.33,306.37,319.27,
2018-08-23 12:05:00,89.53349,5.57108,1002.469,273.57,94.2,0.4,10.95,3.3,-43.78,125.06,61.49,306.24,319.38,126.52,63.34,306.36,319.24,
2018-08-23 12:05:00,89.53349,5.57108,1002.455,273.57,94.2,0.5,10.48,3.04,-44.94,124.61,61.77,306.15,319.18,126.93,63.35,306.4,319.22,
2018-08-23 12:05:00,89.53349,5.57108,1002.492,273.56,94.1,0.2,10.14,2.91,-46.14,124.87,61.7,305.97,319.05,127.3,63.33,306.34,319.07,
2018-08-23 12:05:00,89.53349,5.57108,1002.514,273.56,94.1,0.1,9.74,2.73,-47.39,124.94,61.7,305.97,318.75,127.62,63.3,306.23,318.89,
2018-08-23 12:05:00,89.53349,5.57108,1002.481,273.57,94.1,0.3,9.37,2.51,-48.62,124.94,61.97,306.06,318.73,127.86,63.23,306.09,318.75,
2018-08-23 12:05:00,89.53349,5.57109,1002.49,273.57,94.1,0.3,9.4,2.45,-49.74,125.13,61.84,306.15,318.69,128.01,63.14,305.92,318.63,
2018-08-23 12:05:00,89.53349,5.57109,1002.46,273.57,94.1,0.5,9.57,2.29,-50.81,125.06,61.84,305.96,318.69,128.08,63.03,305.87,318.54,
2018-08-23 12:05:00,89.53349,5.57109,1002.458,273.56,94.1,0.5,9.62,2.26,-52.07,125.2,61.9,306.14,318.69,128.09,62.9,305.8,318.46,
2018-08-23 12:05:00,89.53349,5.57109,1002.462,273.56,94.1,0.5,9.51,2.19,-53.43,124.87,62.11,306.24,318.69,128.07,62.75,305.73,318.41,
2018-08-23 12:05:00,89.53349,5.57109,1002.469,273.57,94.1,0.4,9.33,2.12,-54.84,125.33,61.9,306.35,318.6,128.05,62.6,305.7,318.38,
2018-08-23 12:05:00,89.53349,5.5711,1002.493,273.57,94.1,0.2,9.25,2.13,-56.29,125.39,62.11,306.45,318.6,128.05,62.45,305.71,318.38,
2018-08-23 12:05:00,89.53349,5.5711,1002.493,273.57,94.1,0.2,9.45,2.11,-57.57,126.24,61.9,306.94,318.6,128.1,62.31,305.82,318.39,
2018-08-23 12:05:00,89.53349,5.5711,1002.482,273.57,94.1,0.3,9.82,1.76,-58.02,125.65,61.9,306.34,318.31,128.21,62.18,305.89,318.4,
2018-08-23 12:05:00,89.53349,5.5711,1002.47,273.57,94.1,0.4,6.04,1.19,-58.6,125.06,62.11,306.24,318.69,128.36,62.07,305.97,318.41,
2018-08-23 12:05:00,89.53349,5.5711,1002.471,273.57,94.1,0.4,4.38,0.86,-59.02,126.57,61.9,306.14,318.6,128.55,61.99,306.09,318.49,
2018-08-23 12:05:00,89.53349,5.57111,1002.49,273.57,94.1,0.3,8.28,0.86,-59.11,125.0,62.04,306.32,318.42,128.73,61.93,306.21,318.62,
2018-08-23 12:05:00,89.53349,5.57111,1002.484,273.57,94.1,0.3,11.61,0.34,-59.39,124.67,61.9,306.97,318.31,128.88,61.9,306.2,318.66,
2018-08-23 12:05:00,89.53349,5.57111,1002.466,273.56,94.1,0.4,11.27,0.9,-59.13,126.96,62.04,306.28,318.5,128.97,61.9,306.06,318.65,
2018-08-23 12:05:00,89.53349,5.57111,1002.471,273.57,94.1,0.4,11.43,0.55,-59.35,125.98,62.04,306.06,318.51,129.0,61.93,306.04,318.63,
2018-08-23 12:05:00,89.53349,5.57111,1002.466,273.57,94.1,0.4,12.8,0.67,-59.85,125.39,62.04,306.51,319.33,128.95,61.98,306.05,318.61,
2018-08-23 12:05:00,89.53349,5.57112,1002.448,273.56,94.1,0.6,14.62,1.03,-60.5,126.18,61.97,306.45,319.87,128.85,62.06,306.02,318.59,
2018-08-23 12:05:00,89.53349,5.57112,1002.472,273.56,94.1,0.4,15.2,0.31,-61.35,126.44,61.9,305.25,318.88,128.73,62.15,305.93,318.57,
2018-08-23 12:05:00,89.53349,5.57112,1002.48,273.56,94.1,0.3,12.47,1.04,-61.95,126.44,61.9,304.68,318.33,128.61,62.26,305.77,318.55,
2018-08-23 12:05:00,89.53349,5.57112,1002.474,273.56,94.1,0.4,12.14,0.48,-62.68,126.37,61.97,305.7,318.03,128.55,62.36,305.67,318.55,
2018-08-23 12:05:00,89.53349,5.57112,1002.475,273.56,94.1,0.4,12.71,0.6,-63.41,126.57,61.97,306.38,318.64,128.58,62.45,305.61,318.66,
2018-08-23 12:05:00,89.53349,5.57112,1002.479,273.57,94.1,0.3,12.82,0.7,-64.06,126.96,62.04,306.31,318.53,128.73,62.53,305.55,318.76,
2018-08-23 12:05:00,89.53349,5.57112,1002.47,273.56,94.1,0.4,11.74,0.05,-64.56,126.37,62.11,306.13,318.52,129.01,62.59,305.51,318.82,
2018-08-23 12:05:00,89.53349,5.57112,1002.474,273.56,94.1,0.4,10.15,0.6,-64.84,126.05,61.9,305.96,318.32,129.41,62.63,305.62,318.98,
2018-08-23 12:05:00,89.53349,5.57111,1002.495,273.56,94.1,0.2,10.26,0.33,-64.99,126.44,62.11,305.96,318.6,129.91,62.65,305.79,319.17,
2018-08-23 12:05:00,89.53349,5.57111,1002.493,273.56,94.1,0.2,10.3,0.57,-65.06,126.37,61.97,305.88,319.63,130.47,62.64,305.88,319.35,
2018-08-23 12:05:00,89.53349,5.57111,1002.478,273.56,94.1,0.4,9.71,0.69,-65.1,125.92,62.04,306.15,320.02,131.03,62.62,305.98,319.48,
2018-08-23 12:05:00,89.53349,5.57111,1002.469,273.56,94.1,0.4,8.72,0.58,-65.14,126.9,62.25,306.13,320.07,131.54,62.59,306.09,319.55,
2018-08-23 12:05:00,89.53349,5.57111,1002.472,273.56,94.1,0.4,8.22,0.96,-65.15,127.16,62.11,306.15,319.93,131.96,62.55,306.12,319.55,
2018-08-23 12:05:00,89.53349,5.57111,1002.472,273.56,94.1,0.4,8.83,0.88,-65.02,127.36,62.25,305.96,319.85,132.26,62.51,306.12,319.52,
2018-08-23 12:05:00,89.53349,5.5711,1002.46,273.57,94.1,0.5,8.96,0.74,-64.89,127.36,62.18,306.15,319.68,132.4,62.46,306.08,319.46,
2018-08-23 12:05:00,89.53349,5.5711,1002.451,273.57,94.1,0.6,8.63,0.7,-64.68,127.49,62.11,306.58,319.2,132.4,62.41,306.0,319.29,
2018-08-23 12:05:00,89.53349,5.5711,1002.461,273.57,94.1,0.5,8.23,0.65,-64.4,128.08,62.11,306.84,318.74,132.28,62.36,305.89,319.06,
2018-08-23 12:05:00,89.53349,5.5711,1002.506,273.57,94.1,0.1,8.16,0.41,-64.04,127.42,62.04,305.77,318.57,132.05,62.3,305.77,318.85,
2018-08-23 12:05:00,89.53349,5.5711,1002.475,273.56,94.1,0.4,7.52,0.99,-63.72,127.94,62.04,305.67,318.5,131.77,62.23,305.66,318.66,
2018-08-23 12:05:00,89.53349,5.57111,1002.466,273.56,94.1,0.5,7.22,0.72,-63.16,127.94,62.25,306.14,318.32,131.47,62.17,305.56,318.52,
2018-08-23 12:05:00,89.53349,5.57111,1002.481,273.56,94.1,0.3,6.92,0.96,-62.52,127.09,62.18,305.68,318.71,131.18,62.1,305.5,318.4,
2018-08-23 12:05:00,89.53349,5.57112,1002.494,273.56,94.1,0.2,6.79,1.02,-61.92,127.81,62.11,305.96,318.52,130.94,62.03,305.45,318.36,
2018-08-23 12:05:00,89.53349,5.57112,1002.478,273.56,94.1,0.4,6.93,0.63,-61.36,127.75,62.32,305.96,318.52,130.76,61.98,305.43,318.37,
2018-08-23 12:05:00,89.53349,5.57112,1002.472,273.56,94.1,0.4,7.13,1.18,-60.66,128.73,62.11,306.15,318.71,130.64,61.95,305.52,318.4,
2018-08-23 12:05:00,89.53349,5.57113,1002.464,273.56,94.1,0.5,7.46,0.6,-59.88,128.53,62.25,306.06,318.71,130.58,61.94,305.67,318.45,
2018-08-23 12:05:00,89.53349,5.57113,1002.482,273.56,94.1,0.3,7.61,0.74,-59.07,128.86,62.25,306.16,318.52,130.56,61.97,305.78,318.49,
2018-08-23 12:05:00,89.53349,5.57114,1002.482,273.56,94.1,0.3,7.65,0.73,-58.34,128.4,62.18,305.88,318.52,130.56,62.03,305.86,318.52,
2018-08-23 12:05:00,89.53349,5.57114,1002.438,273.56,94.1,0.7,7.61,0.3,-57.73,128.53,61.97,305.69,318.62,130.58,62.11,305.91,318.52,
2018-08-23 12:05:00,89.53349,5.57114,1002.473,273.55,94.1,0.4,7.42,0.78,-57.14,127.62,61.9,305.92,318.04,130.6,62.21,305.96,318.5,
2018-08-23 12:05:00,89.53349,5.57115,1002.489,273.56,94.1,0.3,7.09,0.66,-56.41,127.29,61.9,306.47,318.21,130.64,62.32,306.04,318.41,
2018-08-23 12:05:00,89.53349,5.57115,1002.483,273.56,94.1,0.3,6.61,0.92,-55.89,129.06,62.25,305.91,318.43,130.69,62.42,306.1,318.34,
2018-08-23 12:05:00,89.53349,5.57115,1002.467,273.56,94.1,0.4,6.22,1.0,-55.38,128.6,62.25,305.68,318.53,130.78,62.51,306.13,318.31,
2018-08-23 12:05:00,89.53349,5.57115,1002.455,273.55,94.1,0.5,5.86,0.9,-54.83,129.52,62.18,305.96,318.53,130.92,62.57,306.15,318.3,
2018-08-23 12:05:00,89.53349,5.57116,1002.462,273.56,94.1,0.5,5.52,0.8,-54.28,128.93,62.25,306.01,318.38,131.12,62.61,306.16,318.31,
2018-08-23 12:05:00,89.53349,5.57116,1002.446,273.56,94.1,0.6,5.6,0.85,-53.76,128.66,62.11,306.78,317.91,131.38,62.61,306.14,318.36,
2018-08-23 12:05:00,89.53349,5.57116,1002.454,273.56,94.1,0.5,6.0,0.7,-53.03,128.34,62.18,306.67,317.94,131.69,62.59,306.15,318.4,
2018-08-23 12:05:00,89.53349,5.57116,1002.451,273.56,94.1,0.6,5.9,0.87,-52.56,128.34,62.18,306.47,318.23,132.03,62.54,306.18,318.43,
2018-08-23 12:05:00,89.53349,5.57117,1002.439,273.56,94.1,0.7,5.87,0.92,-52.24,128.8,62.25,306.66,318.35,132.36,62.49,306.22,318.48,
2018-08-23 12:05:00,89.53349,5.57117,1002.435,273.56,94.1,0.7,6.17,0.81,-52.01,129.32,62.25,306.3,318.54,132.65,62.42,306.27,318.58,
2018-08-23 12:05:00,89.53349,5.57117,1002.467,273.56,94.1,0.4,6.5,1.14,-51.91,129.06,62.18,306.16,318.53,132.85,62.35,306.28,318.67,
2018-08-23 12:05:00,89.53349,5.57117,1002.493,273.56,94.1,0.2,6.7,0.68,-52.13,129.19,62.25,306.67,318.34,132.93,62.29,306.21,318.78,
2018-08-23 12:05:00,89.53349,5.57118,1002.486,273.56,94.1,0.3,6.48,0.89,-52.3,130.24,62.18,306.25,318.67,132.88,62.23,306.11,318.84,
2018-08-23 12:05:00,89.53349,5.57118,1002.474,273.56,94.1,0.4,6.2,0.96,-52.51,128.86,62.32,305.97,319.21,132.67,62.16,306.0,318.84,
2018-08-23 12:05:00,89.53349,5.57119,1002.481,273.55,94.1,0.3,5.87,0.83,-52.85,128.93,62.18,306.0,319.65,132.35,62.08,305.88,318.82,
2018-08-23 12:05:00,89.53349,5.5712,1002.505,273.56,94.1,0.1,5.31,1.2,-53.33,130.17,62.18,305.94,319.96,131.93,62.0,305.76,318.79,
2018-08-23 12:05:00,89.53349,5.5712,1002.486,273.56,94.1,0.3,5.08,0.86,-54.01,129.58,62.18,305.94,319.86,131.48,61.9,305.65,318.75,
2018-08-23 12:05:00,89.53349,5.57121,1002.473,273.56,94.1,0.4,4.48,1.16,-54.67,129.78,62.25,305.68,319.64,131.05,61.79,305.59,318.75,
2018-08-23 12:05:00,89.53349,5.57122,1002.476,273.56,94.1,0.4,4.19,1.15,-55.31,129.78,62.25,305.87,319.76,130.72,61.67,305.61,318.78,
2018-08-23 12:05:00,89.53349,5.57123,1002.477,273.56,94.1,0.4,4.07,1.15,-56.03,129.32,62.25,305.87,319.18,130.52,61.54,305.6,318.8,
2018-08-23 12:05:00,89.53349,5.57123,1002.457,273.56,94.1,0.5,3.88,1.44,-56.95,130.17,62.11,305.59,318.99,130.5,61.43,305.5,318.8,
2018-08-23 12:05:00,89.53349,5.57124,1002.504,273.56,94.1,0.1,3.67,1.38,-57.9,130.1,62.18,305.89,318.22,130.67,61.33,305.46,318.78,
2018-08-23 12:05:00,89.53349,5.57125,1002.491,273.56,94.1,0.3,3.51,1.61,-58.93,130.17,62.25,306.66,318.61,131.01,61.26,305.47,318.72,
2018-08-23 12:05:00,89.53349,5.57126,1002.489,273.56,94.1,0.3,3.61,1.62,-59.95,129.58,62.11,307.03,318.62,131.5,61.23,305.51,318.54,
2018-08-23 12:05:00,89.53349,5.57126,1002.502,273.56,94.1,0.2,3.73,1.51,-60.94,129.71,62.04,305.91,318.39,132.08,61.25,305.56,318.38,
2018-08-23 12:05:00,89.53349,5.57127,1002.524,273.56,94.1,-0.0,3.78,1.36,-61.88,129.12,61.97,304.61,319.31,132.68,61.3,305.59,318.24,
2018-08-23 12:05:00,89.53349,5.57128,1002.502,273.56,94.1,0.2,3.72,1.27,-62.98,129.19,61.9,304.92,318.54,133.23,61.39,305.55,318.05,
2018-08-23 12:05:00,89.53349,5.57128,1002.511,273.56,94.1,0.1,3.8,1.03,-63.81,129.97,62.18,305.38,318.1,133.68,61.51,305.52,318.01,
2018-08-23 12:05:00,89.53349,5.57129,1002.536,273.56,94.1,-0.1,3.71,1.12,-64.48,130.37,62.04,305.48,317.53,133.98,61.65,305.42,317.98,
2018-08-23 12:05:00,89.53349,5.57131,1002.528,273.56,94.1,-0.0,3.68,1.1,-65.18,130.82,61.97,305.85,316.89,134.1,61.8,305.29,317.98,
2018-08-23 12:05:00,89.53349,5.57133,1002.478,273.56,94.1,0.4,3.78,1.02,-66.05,130.1,61.84,305.72,317.75,134.05,61.93,305.24,317.98,
2018-08-23 12:05:00,89.53349,5.57134,1002.478,273.56,94.1,0.4,3.9,1.19,-67.05,130.3,61.84,305.28,316.96,133.83,62.05,305.32,317.98,
2018-08-23 12:05:00,89.53349,5.57136,1002.49,273.55,94.1,0.3,3.94,0.89,-67.5,130.76,62.04,305.68,318.4,133.49,62.14,305.38,318.02,
2018-08-23 12:05:00,89.53349,5.57138,1002.487,273.56,94.1,0.3,3.62,1.15,-68.25,131.22,62.11,305.89,318.67,133.06,62.2,305.44,318.1,
2018-08-23 12:05:00,89.53349,5.57139,1002.493,273.56,94.1,0.2,3.52,1.07,-68.92,130.56,62.04,305.8,318.5,132.61,62.22,305.48,318.29,
2018-08-23 12:05:00,89.53349,5.57141,1002.498,273.56,94.1,0.2,3.4,1.07,-69.54,130.96,62.11,305.7,318.33,132.17,62.21,305.52,318.45,
2018-08-23 12:05:00,89.53349,5.57143,1002.488,273.56,94.1,0.3,3.04,1.27,-70.13,131.02,61.97,305.88,318.42,131.78,62.17,305.57,318.56,
2018-08-23 12:05:00,89.53349,5.57143,1002.482,273.55,94.1,0.3,2.5,1.0,-70.63,130.24,61.97,305.8,318.24,131.49,62.11,305.67,318.71,
2018-08-23 12:05:00,89.53349,5.57144,1002.503,273.56,94.1,0.2,2.32,1.28,-71.04,130.69,62.04,305.61,318.32,131.29,62.03,305.7,318.73,
2018-08-23 12:05:00,89.53349,5.57144,1002.493,273.56,94.1,0.2,2.17,1.21,-71.34,130.37,62.11,305.7,318.52,131.19,61.96,305.71,318.73,
2018-08-23 12:05:00,89.53349,5.57144,1002.483,273.56,94.1,0.3,2.02,1.26,-71.61,130.96,61.9,305.79,318.53,131.2,61.89,305.69,318.72,
2018-08-23 12:05:00,89.53349,5.57145,1002.492,273.55,94.1,0.2,1.95,1.41,-71.8,130.89,62.11,305.88,318.43,131.27,61.83,305.63,318.69,
2018-08-23 12:05:00,89.53349,5.57145,1002.503,273.56,94.1,0.2,2.15,1.37,-71.87,130.69,61.9,305.7,318.52,131.41,61.8,305.54,318.65,
2018-08-23 12:05:00,89.53349,5.57146,1002.474,273.56,94.1,0.4,2.62,1.4,-72.01,130.89,62.11,305.68,318.43,131.57,61.79,305.43,318.62,
2018-08-23 12:05:00,89.53349,5.57146,1002.491,273.56,94.1,0.3,2.47,1.46,-72.11,131.54,61.97,305.7,318.52,131.74,61.8,305.32,318.58,
2018-08-23 12:05:00,89.53349,5.57146,1002.497,273.56,94.1,0.2,2.43,1.43,-72.06,129.97,62.11,305.61,318.62,131.88,61.84,305.21,318.61,
2018-08-23 12:05:00,89.53349,5.57146,1002.49,273.56,94.1,0.3,2.52,1.42,-71.65,131.15,61.9,305.61,318.62,131.99,61.9,305.07,318.59,
2018-08-23 12:05:00,89.53349,5.57147,1002.497,273.56,94.1,0.2,2.59,1.46,-70.79,131.54,62.04,305.7,318.51,132.05,61.96,304.92,318.49,
2018-08-23 12:05:00,89.53349,5.57147,1002.491,273.56,94.1,0.2,2.42,1.32,-69.79,130.96,61.97,305.4,318.52,132.05,62.03,304.89,318.49,
2018-08-23 12:05:00,89.53349,5.57148,1002.492,273.56,94.1,0.2,2.21,1.62,-68.8,130.69,61.77,305.89,318.34,131.99,62.1,304.89,318.47,
2018-08-23 12:05:00,89.53349,5.57148,1002.498,273.56,94.1,0.2,2.39,1.59,-67.65,130.37,62.18,305.7,319.22,131.89,62.15,304.92,318.44,
2018-08-23 12:05:00,89.53349,5.57148,1002.504,273.56,94.1,0.2,2.59,1.67,-66.38,131.02,61.97,305.26,318.82,131.75,62.19,304.98,318.39,
2018-08-23 12:05:00,89.53349,5.57148,1002.495,273.56,94.1,0.2,2.62,1.88,-65.14,130.69,61.97,304.5,317.81,131.62,62.21,305.04,318.35,
2018-08-23 12:05:00,89.53349,5.57148,1002.432,273.55,94.1,0.7,2.56,1.65,-64.15,130.69,61.9,305.6,318.95,131.5,62.21,305.09,318.33,
2018-08-23 12:05:00,89.53349,5.57149,1002.449,273.56,94.1,0.6,2.86,1.98,-62.85,132.33,61.97,305.6,319.07,131.43,62.21,305.01,318.33,
2018-08-23 12:05:00,89.53349,5.57149,1002.485,273.56,94.1,0.3,2.89,1.78,-61.96,131.48,62.18,305.51,318.9,131.43,62.2,304.97,318.42,
2018-08-23 12:05:00,89.53349,5.57149,1002.495,273.56,94.1,0.2,2.74,1.75,-61.16,131.61,61.97,305.61,318.48,131.5,62.2,304.97,318.43,
2018-08-23 12:05:00,89.53349,5.57149,1002.48,273.55,94.1,0.3,2.67,1.76,-60.36,130.37,62.18,305.33,318.71,131.64,62.21,305.01,318.45,
2018-08-23 12:05:00,89.53349,5.5715,1002.484,273.56,94.1,0.3,2.89,1.5,-59.48,131.09,61.97,305.36,318.33,131.84,62.24,304.99,318.56,
2018-08-23 12:05:00,89.53349,5.5715,1002.489,273.56,94.1,0.3,2.88,1.66,-58.48,130.96,62.18,303.88,318.5,132.05,62.29,304.89,318.55,
2018-08-23 12:05:00,89.53349,5.5715,1002.476,273.56,94.1,0.4,2.62,1.59,-57.7,130.56,61.9,304.45,319.04,132.25,62.36,304.82,318.53,
2018-08-23 12:05:00,89.53349,5.5715,1002.472,273.56,94.1,0.4,2.66,1.49,-56.9,131.02,61.97,305.08,318.74,132.37,62.44,304.76,318.51,
2018-08-23 12:05:00,89.53349,5.57151,1002.475,273.56,94.1,0.4,2.98,1.42,-56.12,131.02,61.9,305.2,318.17,132.38,62.52,304.73,318.49,
2018-08-23 12:05:00,89.53349,5.57151,1002.468,273.55,94.1,0.4,3.53,1.42,-55.42,131.61,62.11,304.35,318.24,132.24,62.58,304.74,318.47,
2018-08-23 12:05:00,89.53349,5.57152,1002.458,273.56,94.1,0.5,3.96,1.28,-54.79,131.54,62.11,304.57,318.05,131.95,62.62,304.79,318.45,
2018-08-23 12:05:00,89.53349,5.57153,1002.46,273.56,94.1,0.5,4.26,1.35,-54.23,131.22,62.18,304.89,318.53,131.51,62.63,304.98,318.43,
2018-08-23 12:05:00,89.53349,5.57153,1002.459,273.55,94.1,0.5,4.52,1.23,-53.74,131.61,62.11,305.05,318.35,130.96,62.6,305.13,318.36,
2018-08-23 12:05:00,89.53349,5.57154,1002.471,273.55,94.1,0.4,4.76,1.27,-53.36,130.96,62.04,305.49,318.64,130.35,62.55,305.23,318.34,
2018-08-23 12:05:00,89.53349,5.57154,1002.489,273.55,94.1,0.3,4.97,1.36,-52.89,131.35,62.18,305.61,318.34,129.75,62.46,305.27,318.37,
2018-08-23 12:05:00,89.53349,5.57155,1002.47,273.56,94.1,0.4,5.16,1.19,-51.97,132.2,62.11,305.62,318.36,129.23,62.36,305.32,318.38,
2018-08-23 12:05:00,89.53349,5.57156,1002.467,273.55,94.1,0.4,5.42,1.46,-51.12,131.09,62.25,305.42,318.56,128.86,62.27,305.46,318.46,
2018-08-23 12:05:00,89.53349,5.57156,1002.454,273.56,94.1,0.5,5.85,1.27,-50.52,130.89,62.18,305.61,318.34,128.66,62.19,305.56,318.54,
2018-08-23 12:05:00,89.53349,5.57157,1002.457,273.56,94.1,0.5,5.92,1.28,-50.16,131.48,62.25,305.42,318.44,128.67,62.13,305.54,318.6,
2018-08-23 12:05:00,89.53349,5.57158,1002.469,273.56,94.1,0.4,5.97,1.31,-49.95,130.82,62.11,305.15,318.1,128.87,62.11,305.49,318.61,
2018-08-23 12:05:00,89.53349,5.57158,1002.466,273.55,94.1,0.5,6.36,1.07,-49.78,130.24,62.11,304.43,317.8,129.22,62.13,305.49,318.61,
2018-08-23 12:05:00,89.53349,5.57158,1002.461,273.55,94.1,0.5,6.21,1.14,-49.98,130.17,62.25,305.69,318.64,129.66,62.19,305.44,318.6,
2018-08-23 12:05:00,89.53349,5.57159,1002.485,273.55,94.1,0.3,6.07,1.0,-50.01,131.35,62.11,305.85,318.56,130.13,62.28,305.39,318.55,
2018-08-23 12:05:00,89.53349,5.57159,1002.481,273.55,94.1,0.3,6.0,0.99,-50.45,130.82,62.18,304.78,318.34,130.55,62.39,305.33,318.49,
2018-08-23 12:05:00,89.53349,5.57159,1002.468,273.55,94.1,0.4,6.01,0.98,-51.07,130.69,61.9,305.23,317.9,130.88,62.51,305.29,318.42,
2018-08-23 12:05:00,89.53349,5.5716,1002.471,273.55,94.1,0.4,6.1,0.9,-51.71,130.5,61.97,305.86,317.77,131.09,62.65,305.3,318.4,
2018-08-23 12:05:00,89.53349,5.5716,1002.461,273.55,94.1,0.5,6.24,0.87,-52.25,131.54,62.18,305.59,318.53,131.15,62.79,305.39,318.5,
2018-08-23 12:05:00,89.53349,5.5716,1002.481,273.55,94.1,0.3,6.79,0.85,-52.76,130.69,62.25,305.61,318.55,131.11,62.93,305.37,318.53,
2018-08-23 12:05:00,89.53349,5.5716,1002.48,273.55,94.1,0.3,7.36,0.86,-53.18,131.02,62.39,305.42,318.55,130.99,63.09,305.37,318.54,
2018-08-23 12:05:00,89.53349,5.57161,1002.471,273.55,94.1,0.4,7.83,0.9,-53.43,130.5,62.25,305.61,318.54,130.84,63.26,305.44,318.6,
2018-08-23 12:05:00,89.53349,5.57161,1002.47,273.55,94.1,0.4,8.2,0.89,-53.6,131.02,62.39,305.42,319.06,130.71,63.47,305.49,318.67,
2018-08-23 12:05:00,89.53349,5.57161,1002.485,273.56,94.1,0.3,8.48,0.74,-53.88,131.02,62.11,305.6,319.45,130.64,63.72,305.42,318.73,
2018-08-23 12:05:00,89.53349,5.57162,1002.492,273.55,94.1,0.2,8.35,0.8,-54.63,131.35,62.39,305.61,319.19,130.64,64.01,305.43,318.75,
2018-08-23 12:05:00,89.53349,5.57162,1002.488,273.55,94.1,0.3,8.17,0.68,-55.24,131.22,62.18,305.71,318.81,130.72,64.34,305.41,318.76,
2018-08-23 12:05:00,89.53349,5.57162,1002.48,273.55,94.1,0.3,7.97,0.73,-55.66,129.78,62.39,305.43,318.69,130.86,64.71,305.28,318.75,
2018-08-23 12:05:00,89.53349,5.57163,1002.48,273.55,94.1,0.3,7.65,0.78,-56.05,130.82,62.39,305.32,318.65,131.02,65.1,305.1,318.7,
2018-08-23 12:05:00,89.53349,5.57163,1002.499,273.55,94.1,0.2,7.21,0.68,-56.59,130.76,62.25,305.1,318.34,131.14,65.49,304.94,318.61,
2018-08-23 12:05:00,89.53349,5.57163,1002.51,273.55,94.1,0.1,7.07,0.79,-57.21,130.5,62.6,305.32,318.54,131.21,65.87,304.8,318.44,
2018-08-23 12:05:00,89.53349,5.57163,1002.509,273.55,94.1,0.1,6.98,0.64,-57.78,130.56,62.66,305.41,318.25,131.18,66.2,304.67,318.29,
2018-08-23 12:05:00,89.53349,5.57163,1002.483,273.55,94.1,0.3,6.88,0.65,-58.32,131.35,62.8,304.36,318.54,131.04,66.46,304.57,318.19,
2018-08-23 12:05:00,89.53349,5.57164,1002.467,273.55,94.1,0.4,7.04,0.58,-58.85,131.35,62.87,304.0,318.55,130.81,66.65,304.51,318.11,
2018-08-23 12:05:00,89.53349,5.57164,1002.471,273.55,94.1,0.4,7.35,0.44,-59.34,130.89,63.08,304.45,318.35,130.53,66.75,304.5,318.06,
2018-08-23 12:05:00,89.53349,5.57164,1002.459,273.55,94.1,0.5,7.37,0.48,-59.7,131.35,62.94,304.65,318.35,130.22,66.77,304.57,318.05,
2018-08-23 12:05:00,89.53349,5.57164,1002.481,273.55,94.1,0.3,7.76,0.35,-60.15,131.22,63.28,304.56,318.73,129.95,66.71,304.63,318.07,
2018-08-23 12:05:00,89.53349,5.57164,1002.468,273.55,94.1,0.4,8.06,0.45,-60.43,130.3,63.28,304.98,318.56,129.76,66.6,304.7,318.1,
2018-08-23 12:05:00,89.53349,5.57165,1002.47,273.55,94.1,0.4,8.26,0.61,-60.54,130.17,63.22,304.93,318.27,129.69,66.45,304.81,318.1,
2018-08-23 12:05:00,89.53349,5.57165,1002.49,273.55,94.1,0.3,8.29,0.81,-60.45,131.41,63.49,305.11,318.55,129.74,66.28,304.96,318.1,
2018-08-23 12:05:00,89.53349,5.57165,1002.483,273.55,94.1,0.3,8.14,1.08,-60.17,130.76,63.49,305.24,318.07,129.91,66.13,305.12,318.12,
2018-08-23 12:05:00,89.53349,5.57166,1002.475,273.55,94.1,0.4,8.0,1.35,-59.67,130.3,63.63,305.61,318.47,130.18,66.01,305.24,318.12,
2018-08-23 12:05:00,89.53349,5.57166,1002.477,273.55,94.1,0.4,8.2,1.49,-58.94,130.76,63.63,305.52,318.55,130.52,65.94,305.32,318.09,
2018-08-23 12:05:00,89.53349,5.57166,1002.483,273.55,94.1,0.3,7.8,1.63,-58.49,130.37,63.63,304.7,318.0,130.88,65.91,305.36,318.02,
2018-08-23 12:05:00,89.53349,5.57167,1002.495,273.55,94.1,0.2,7.37,1.66,-58.19,130.43,63.49,304.62,317.72,131.22,65.92,305.3,317.92,
2018-08-23 12:05:00,89.53349,5.57167,1002.505,273.55,94.1,0.1,7.2,1.62,-57.91,130.69,63.84,305.42,318.47,131.52,65.97,305.17,317.79,
2018-08-23 12:05:00,89.53349,5.57167,1002.47,273.55,94.1,0.4,6.82,1.74,-57.64,131.22,63.84,305.42,318.27,131.75,66.04,305.06,317.69,
2018-08-23 12:05:00,89.53349,5.57168,1002.48,273.55,94.1,0.3,6.47,1.62,-57.32,131.35,63.98,305.41,318.18,131.93,66.12,304.94,317.6,
2018-08-23 12:05:00,89.53349,5.57168,1002.49,273.55,94.1,0.3,6.08,1.68,-57.11,130.63,64.04,305.63,318.56,132.05,66.18,304.83,317.53,
2018-08-23 12:05:00,89.53349,5.57168,1002.483,273.55,94.1,0.3,5.84,1.69,-56.96,130.17,63.91,305.1,318.14,132.16,66.22,304.82,317.53,
2018-08-23 12:05:00,89.53349,5.57169,1002.464,273.55,94.1,0.5,5.73,1.64,-56.81,131.41,63.84,304.7,317.94,132.26,66.24,304.83,317.56,
2018-08-23 12:05:00,89.53349,5.57169,1002.478,273.55,94.1,0.4,5.58,1.7,-56.62,130.5,63.98,305.42,318.36,132.39,66.23,304.82,317.6,
2018-08-23 12:05:00,89.53349,5.57169,1002.458,273.55,94.1,0.5,5.47,1.56,-56.35,130.82,64.25,305.52,318.27,132.56,66.21,304.85,317.74,
2018-08-23 12:05:00,89.53349,5.5717,1002.46,273.55,94.1,0.5,5.4,1.56,-56.34,130.76,64.18,305.69,318.27,132.76,66.19,304.91,317.88,
2018-08-23 12:05:00,89.53349,5.5717,1002.463,273.55,94.1,0.5,5.63,1.49,-56.3,130.89,64.25,305.51,318.37,132.99,66.18,304.97,317.99,
2018-08-23 12:05:00,89.53349,5.5717,1002.478,273.55,94.1,0.4,5.93,1.41,-56.23,131.87,64.39,305.61,318.27,133.21,66.2,305.13,318.11,
2018-08-23 12:05:00,89.53349,5.57171,1002.517,273.55,94.1,0.0,6.03,1.38,-56.16,130.69,64.32,305.52,318.3,133.4,66.27,305.35,318.22,
2018-08-23 12:05:00,89.53349,5.57171,1002.492,273.55,94.1,0.2,5.84,1.32,-55.94,131.15,64.53,305.43,319.58,133.51,66.39,305.48,318.28,
2018-08-23 12:05:00,89.53349,5.57172,1002.474,273.55,94.1,0.4,6.29,1.34,-55.53,131.35,64.53,305.42,319.18,133.54,66.57,305.45,318.33,
2018-08-23 12:05:00,89.53349,5.57172,1002.468,273.54,94.1,0.4,6.75,1.45,-55.09,131.22,64.46,305.43,318.96,133.45,66.81,305.44,318.32,
2018-08-23 12:05:00,89.53349,5.57172,1002.462,273.54,94.1,0.5,6.82,1.53,-54.65,131.35,64.32,305.71,318.72,133.25,67.09,305.35,318.29,
2018-08-23 12:05:00,89.53349,5.57173,1002.455,273.54,94.1,0.5,6.53,1.6,-54.26,131.15,64.53,305.96,318.62,132.95,67.4,305.18,318.26,
2018-08-23 12:05:00,89.53349,5.57173,1002.469,273.54,94.1,0.4,6.35,1.82,-54.01,131.41,64.53,305.83,318.33,132.59,67.72,305.01,318.22,
