Date/Time,Latitude,Longitude,PPPP [hPa],TTT grad [K],RH [%],Height [m],Pitch [deg],Roll [deg],Yaw [deg],SWD [W/m**2] (raw),SWU [W/m**2] (raw),LWD [W/m**2] (raw),LWU [W/m**2] (raw),SWD [W/m**2] (corrected),SWU [W/m**2] (corrected),LWD [W/m**2] (corrected),LWU [W/m**2] (corrected),Flag
2018-08-24 15:09:00,89.51657,15.86113,1007.055,273.22,98.5,2.6,-6.42,2.46,-51.39,40.58,30.89,312.91,319.31,39.48,30.22,312.83,319.72,0.0
2018-08-24 15:09:00,89.51657,15.86115,1007.033,273.23,98.5,2.8,-7.08,2.9,-50.7,40.18,30.82,312.29,319.19,39.66,30.3,312.83,319.75,0.0
2018-08-24 15:09:00,89.51657,15.86117,1007.053,273.22,98.5,2.7,-7.5,3.02,-50.37,41.16,30.82,312.69,319.97,39.98,30.43,312.88,319.82,0.0
2018-08-24 15:09:00,89.51657,15.8612,1007.077,273.22,98.5,2.5,-7.03,3.28,-50.38,41.56,30.89,312.64,318.7,40.41,30.6,312.89,319.77,0.0
2018-08-24 15:09:00,89.51657,15.86122,1007.069,273.22,98.5,2.5,-6.79,3.62,-50.88,41.36,30.68,313.14,321.06,40.91,30.81,312.91,319.82,0.0
2018-08-24 15:09:00,89.51657,15.86124,1007.057,273.22,98.5,2.6,-6.91,3.76,-51.6,39.27,30.75,312.55,320.6,41.42,31.05,312.92,319.79,0.0
2018-08-24 15:09:00,89.51657,15.86126,1007.045,273.22,98.5,2.7,-7.44,3.73,-52.46,41.62,30.68,312.38,319.02,41.91,31.3,312.95,319.75,0.0
2018-08-24 15:09:00,89.51657,15.86127,1007.019,273.22,98.5,2.9,-8.01,3.75,-53.46,41.16,30.68,312.45,319.25,42.33,31.55,312.98,319.69,0.0
2018-08-24 15:09:00,89.51657,15.86129,1007.044,273.22,98.5,2.7,-8.68,3.38,-55.07,40.97,30.96,312.14,318.74,42.66,31.78,312.97,319.5,0.0
2018-08-24 15:09:00,89.51657,15.86131,1007.067,273.23,98.5,2.5,-8.88,3.74,-53.8,41.1,30.96,312.8,319.12,42.87,31.99,312.97,319.46,0.0
2018-08-24 15:09:00,89.51657,15.86133,1007.05,273.22,98.5,2.7,-9.3,3.47,-56.38,40.64,30.89,313.02,318.47,42.96,32.16,312.94,319.11,0.0
2018-08-24 15:09:00,89.51657,15.86135,1007.026,273.22,98.5,2.9,-9.51,3.38,-57.97,40.97,30.82,313.23,318.36,42.92,32.29,312.97,318.83,0.0
2018-08-24 15:09:00,89.51657,15.86137,1007.027,273.22,98.5,2.9,-9.48,3.62,-56.76,41.62,31.1,313.06,318.18,42.76,32.39,313.08,318.78,0.0
2018-08-24 15:09:00,89.51657,15.86139,1007.029,273.22,98.5,2.8,-9.65,3.36,-55.53,40.77,31.03,313.14,317.16,42.51,32.47,313.14,318.65,0.0
2018-08-24 15:09:00,89.51657,15.86141,1007.032,273.22,98.5,2.8,-9.26,3.9,-54.31,41.75,31.1,313.36,318.53,42.17,32.53,313.26,318.62,0.0
2018-08-24 15:09:00,89.51657,15.86143,1007.017,273.22,98.5,2.9,-9.3,3.9,-53.07,41.16,31.03,313.45,317.39,41.79,32.59,313.35,318.47,0.0
2018-08-24 15:09:00,89.51657,15.86145,1007.006,273.22,98.5,3.0,-9.31,4.11,-54.61,41.23,31.03,313.7,317.94,41.37,32.66,313.45,318.38,0.0
2018-08-24 15:09:00,89.51657,15.86147,1007.016,273.22,98.5,2.9,-9.51,4.4,-57.17,41.03,31.24,313.87,319.11,40.94,32.74,313.53,318.31,0.0
2018-08-24 15:09:00,89.51657,15.86148,1007.055,273.21,98.5,2.6,-10.4,4.33,-57.19,41.95,31.24,313.53,318.63,40.52,32.85,313.59,318.23,0.0
2018-08-24 15:09:00,89.51657,15.8615,1007.016,273.21,98.5,2.9,-10.64,4.92,-58.06,41.3,31.24,313.88,319.27,40.13,32.97,313.66,318.26,0.0
2018-08-24 15:09:00,89.51657,15.86152,1006.994,273.21,98.5,3.1,-11.41,4.86,-58.12,42.02,31.17,313.83,318.74,39.78,33.11,313.66,318.14,0.0
2018-08-24 15:09:00,89.51657,15.86154,1006.989,273.21,98.5,3.2,-11.3,5.43,-57.05,41.03,31.31,314.02,319.01,39.49,33.25,313.66,318.2,0.0
2018-08-24 15:09:00,89.51657,15.86155,1006.959,273.21,98.5,3.4,-11.22,6.07,-55.61,40.44,31.38,314.05,319.2,39.27,33.38,313.61,318.25,0.0
2018-08-24 15:09:00,89.51657,15.86157,1006.888,273.2,98.5,4.0,-11.67,6.39,-54.42,40.71,31.51,313.89,318.79,39.14,33.5,313.54,318.26,0.0
2018-08-24 15:09:00,89.51657,15.86159,1006.962,273.2,98.5,3.4,-11.64,6.84,-53.44,41.49,31.44,313.81,319.19,39.11,33.6,313.51,318.39,0.0
2018-08-24 15:09:00,89.51657,15.8616,1006.911,273.2,98.5,3.8,-11.53,6.69,-52.73,40.77,31.58,313.66,318.09,39.19,33.67,313.43,318.46,0.0
2018-08-24 15:09:00,89.51657,15.86162,1006.893,273.2,98.5,3.9,-11.42,6.75,-51.92,41.16,31.65,313.56,319.09,39.37,33.72,313.35,318.6,0.0
2018-08-24 15:09:00,89.51657,15.86164,1006.896,273.2,98.5,3.9,-11.18,6.48,-51.27,40.77,31.51,313.3,319.34,39.64,33.76,313.23,318.65,0.0
2018-08-24 15:09:00,89.51657,15.86165,1006.901,273.21,98.5,3.9,-10.79,5.97,-52.0,41.03,31.72,313.29,319.37,39.98,33.78,313.1,318.66,0.0
2018-08-24 15:09:00,89.51657,15.86167,1006.913,273.21,98.5,3.8,-10.32,5.72,-55.59,40.97,31.72,313.31,319.93,40.37,33.8,313.02,318.75,0.0
2018-08-24 15:09:00,89.51657,15.86169,1006.878,273.2,98.5,4.0,-10.05,5.27,-57.28,41.1,31.93,313.06,319.64,40.76,33.82,312.9,318.72,0.0
2018-08-24 15:09:00,89.51657,15.86171,1006.852,273.2,98.5,4.2,-9.72,4.95,-59.99,40.25,31.86,312.82,319.74,41.13,33.86,312.78,318.76,0.0
2018-08-24 15:09:00,89.51657,15.86173,1006.849,273.2,98.5,4.3,-9.45,4.47,-62.66,40.38,31.79,312.48,318.84,41.43,33.91,312.64,318.63,0.0
2018-08-24 15:09:00,89.51657,15.86175,1006.869,273.21,98.4,4.1,-9.51,3.88,-65.25,40.9,32.07,312.12,318.52,41.63,33.99,312.54,318.47,0.0
2018-08-24 15:09:00,89.51657,15.86177,1006.896,273.2,98.5,3.9,-9.98,3.34,-67.87,41.23,31.93,312.79,319.59,41.7,34.09,312.5,318.35,0.0
2018-08-24 15:09:00,89.51657,15.86179,1006.884,273.21,98.5,4.0,-9.93,2.8,-70.29,41.1,32.14,312.46,319.18,41.64,34.2,312.43,318.14,0.0
2018-08-24 15:09:00,89.51657,15.86181,1006.856,273.21,98.5,4.2,-9.84,2.62,-72.55,40.9,32.14,312.05,319.18,41.46,34.33,312.41,318.05,0.0
2018-08-24 15:09:00,89.51657,15.86182,1006.828,273.2,98.5,4.4,-9.53,2.89,-71.36,40.77,32.2,312.04,318.35,41.17,34.46,312.42,317.92,0.0
2018-08-24 15:09:00,89.51657,15.86184,1006.821,273.2,98.5,4.5,-8.86,3.37,-68.39,40.9,32.07,312.04,318.54,40.82,34.59,312.49,317.87,0.0
2018-08-24 15:09:00,89.51657,15.86186,1006.829,273.2,98.5,4.4,-7.99,3.88,-65.16,40.51,32.14,312.32,318.81,40.46,34.71,312.56,317.82,0.0
2018-08-24 15:09:00,89.51657,15.86188,1006.793,273.2,98.5,4.7,-7.41,4.38,-61.98,41.43,32.27,312.48,318.44,40.14,34.82,312.58,317.64,0.0
2018-08-24 15:09:00,89.51657,15.8619,1006.808,273.2,98.5,4.6,-6.52,4.76,-58.81,41.36,32.55,312.6,319.0,39.91,34.92,312.62,317.55,0.0
2018-08-24 15:09:00,89.51657,15.86192,1006.799,273.2,98.5,4.7,-5.85,5.18,-55.64,41.36,32.55,312.73,318.53,39.82,34.99,312.66,317.39,0.0
2018-08-24 15:09:00,89.51657,15.86194,1006.779,273.2,98.5,4.8,-5.47,5.43,-52.51,40.9,32.62,313.09,318.11,39.88,35.04,312.7,317.29,0.0
2018-08-24 15:09:00,89.51657,15.86195,1006.776,273.2,98.5,4.8,-5.24,5.68,-49.39,40.97,32.48,313.04,318.1,40.12,35.07,312.7,317.16,0.0
2018-08-24 15:09:00,89.51657,15.86197,1006.82,273.2,98.5,4.5,-4.94,6.17,-46.41,40.44,32.69,313.04,317.21,40.5,35.07,312.67,316.93,0.0
2018-08-24 15:09:00,89.51657,15.86199,1006.786,273.2,98.5,4.8,-4.74,6.49,-43.65,39.72,32.76,312.84,318.17,41.0,35.06,312.69,316.85,0.0
2018-08-24 15:09:00,89.51657,15.862,1006.781,273.2,98.5,4.8,-4.63,6.88,-41.11,40.31,32.83,312.86,317.3,41.56,35.02,312.72,316.69,0.0
2018-08-24 15:09:00,89.51657,15.86202,1006.753,273.2,98.5,5.0,-4.19,7.25,-38.61,41.62,32.83,312.88,317.92,42.12,34.98,312.77,316.61,0.0
2018-08-24 15:09:00,89.51657,15.86204,1006.736,273.2,98.5,5.1,-3.48,7.5,-36.16,40.71,32.76,312.85,317.63,42.61,34.92,312.84,316.58,1.0
2018-08-24 15:09:00,89.51657,15.86205,1006.775,273.2,98.5,4.8,-2.74,7.52,-33.69,41.1,32.97,312.85,317.49,42.98,34.86,312.91,316.59,1.0
2018-08-24 15:09:00,89.51657,15.86207,1006.777,273.2,98.5,4.8,-2.23,7.15,-31.25,40.51,33.1,312.99,318.76,43.17,34.81,313.0,316.71,1.0
2018-08-24 15:09:00,89.51657,15.86209,1006.758,273.2,98.5,5.0,-1.47,7.23,-28.58,41.43,32.97,313.35,317.95,43.16,34.77,313.0,316.77,1.0
2018-08-24 15:09:00,89.51657,15.8621,1006.738,273.21,98.5,5.1,-1.34,6.95,-26.17,40.77,33.24,313.85,318.36,42.96,34.75,313.07,316.9,1.0
2018-08-24 15:09:00,89.51657,15.86212,1006.712,273.21,98.5,5.3,-1.45,6.83,-24.46,40.71,33.03,313.95,318.28,42.58,34.77,313.17,317.0,1.0
2018-08-24 15:09:00,89.51657,15.86214,1006.686,273.2,98.5,5.5,-1.72,6.85,-24.12,41.75,33.31,313.84,318.39,42.06,34.82,313.28,317.16,1.0
2018-08-24 15:09:00,89.51657,15.86215,1006.695,273.21,98.5,5.5,-2.38,6.58,-25.89,41.36,33.24,313.49,318.39,41.47,34.92,313.42,317.44,1.0
2018-08-24 15:09:00,89.51657,15.86217,1006.648,273.21,98.5,5.8,-3.64,6.68,-28.13,42.34,33.1,312.39,318.13,40.86,35.05,313.39,317.48,1.0
2018-08-24 15:09:00,89.51657,15.8622,1006.651,273.2,98.5,5.8,-4.58,6.41,-31.71,40.9,33.17,312.91,318.02,40.31,35.22,313.37,317.58,1.0
2018-08-24 15:09:00,89.51657,15.86222,1006.664,273.2,98.5,5.7,-5.8,6.15,-35.53,40.9,33.31,313.04,317.38,39.87,35.42,313.35,317.65,1.0
2018-08-24 15:09:00,89.51657,15.86225,1006.654,273.2,98.5,5.8,-7.04,5.93,-38.26,41.1,33.31,313.63,318.45,39.58,35.63,313.34,317.73,1.0
2018-08-24 15:09:00,89.51657,15.86227,1006.645,273.2,98.5,5.9,-7.84,5.64,-39.68,40.71,33.59,314.04,320.09,39.44,35.85,313.32,317.82,1.0
2018-08-24 15:09:00,89.51657,15.8623,1006.647,273.2,98.5,5.9,-8.22,5.73,-42.26,40.38,33.38,312.91,318.3,39.47,36.04,313.2,317.86,1.0
2018-08-24 15:09:00,89.51657,15.86232,1006.686,273.2,98.5,5.5,-8.09,5.59,-43.5,40.71,33.59,313.26,318.97,39.64,36.21,313.14,317.99,1.0
2018-08-24 15:09:00,89.51657,15.86234,1006.692,273.2,98.5,5.5,-7.89,5.78,-44.68,42.34,33.72,313.61,319.2,39.9,36.33,313.06,318.07,1.0
2018-08-24 15:09:00,89.51657,15.86237,1006.672,273.2,98.5,5.7,-7.87,5.84,-45.85,41.16,33.52,314.16,319.27,40.21,36.39,312.96,318.15,1.0
2018-08-24 15:09:00,89.51657,15.86239,1006.658,273.2,98.5,5.8,-8.0,5.63,-46.93,41.36,33.93,313.81,319.45,40.51,36.41,312.83,318.16,1.0
2018-08-24 15:09:00,89.51657,15.86241,1006.666,273.2,98.5,5.7,-7.58,5.84,-47.72,40.31,33.72,312.3,319.1,40.77,36.37,312.7,318.08,1.0
2018-08-24 15:09:00,89.51657,15.86244,1006.633,273.2,98.5,6.0,-7.8,5.52,-48.2,40.38,34.0,311.37,319.0,40.95,36.29,312.66,318.06,1.0
2018-08-24 15:09:00,89.51657,15.86246,1006.63,273.2,98.5,6.0,-8.5,5.63,-48.42,39.99,34.0,311.96,318.41,41.04,36.17,312.57,317.97,1.0
2018-08-24 15:09:00,89.51657,15.86248,1006.625,273.2,98.5,6.0,-8.3,5.61,-48.48,39.92,34.0,311.47,317.7,41.03,36.04,312.43,317.82,1.0
2018-08-24 15:09:00,89.51657,15.8625,1006.603,273.19,98.5,6.2,-7.74,5.53,-48.45,42.15,34.07,311.69,317.59,40.95,35.91,312.28,317.63,1.0
2018-08-24 15:09:00,89.51657,15.86252,1006.585,273.19,98.5,6.3,-8.08,5.68,-48.31,41.75,34.14,311.98,318.1,40.83,35.8,312.16,317.45,1.0
2018-08-24 15:09:00,89.51657,15.86254,1006.586,273.19,98.5,6.3,-8.57,5.46,-47.99,42.21,34.42,311.61,317.58,40.71,35.71,312.15,317.22,1.0
2018-08-24 15:09:00,89.51657,15.86257,1006.613,273.19,98.5,6.1,-8.76,5.27,-47.17,39.99,34.21,311.69,317.32,40.63,35.66,312.18,317.02,1.0
2018-08-24 15:09:00,89.51657,15.86259,1006.611,273.19,98.5,6.1,-8.97,5.06,-45.77,40.71,34.35,311.97,317.04,40.61,35.66,312.19,316.82,1.0
2018-08-24 15:09:00,89.51657,15.86261,1006.601,273.18,98.5,6.2,-8.67,5.07,-43.74,40.18,34.07,312.25,317.17,40.7,35.69,312.22,316.69,1.0
2018-08-24 15:09:00,89.51657,15.86263,1006.62,273.18,98.5,6.1,-7.74,5.38,-41.15,41.62,34.21,312.73,317.45,40.9,35.75,312.27,316.59,1.0
2018-08-24 15:09:00,89.51657,15.86265,1006.604,273.18,98.5,6.2,-7.25,5.7,-38.57,40.25,34.21,312.16,316.75,41.19,35.84,312.3,316.44,1.0
2018-08-24 15:09:00,89.51657,15.86268,1006.609,273.18,98.5,6.2,-7.26,6.51,-35.26,41.16,34.42,312.39,316.97,41.57,35.94,312.4,316.42,1.0
2018-08-24 15:09:00,89.51657,15.8627,1006.565,273.18,98.5,6.5,-7.77,7.34,-31.63,40.38,34.42,312.23,316.58,41.99,36.04,312.52,316.38,1.0
2018-08-24 15:09:00,89.51657,15.86272,1006.539,273.18,98.5,6.7,-7.58,8.32,-30.67,40.9,34.55,312.62,316.53,42.41,36.13,312.64,316.36,1.0
2018-08-24 15:09:00,89.51657,15.86274,1006.566,273.18,98.5,6.5,-6.48,9.43,-32.16,41.16,34.42,312.46,316.75,42.77,36.2,312.74,316.35,1.0
2018-08-24 15:09:00,89.51657,15.86276,1006.568,273.17,98.5,6.5,-5.23,10.49,-32.86,41.1,34.69,312.28,316.25,43.04,36.24,312.8,316.33,1.0
2018-08-24 15:09:00,89.51657,15.86279,1006.575,273.17,98.5,6.4,-4.1,11.57,-28.37,41.62,34.62,312.73,317.31,43.17,36.26,312.9,316.36,1.0
2018-08-24 15:09:00,89.51657,15.86281,1006.555,273.17,98.5,6.6,-3.29,12.55,-27.4,40.25,34.62,312.76,316.45,43.14,36.25,312.95,316.39,1.0
2018-08-24 15:09:00,89.51657,15.86283,1006.548,273.17,98.5,6.6,-2.63,13.4,-25.55,41.75,34.69,312.82,316.73,42.95,36.22,313.02,316.49,1.0
2018-08-24 15:09:00,89.51658,15.86285,1006.552,273.17,98.5,6.6,-2.17,14.04,-22.43,41.62,34.55,313.2,317.14,42.61,36.18,313.08,316.58,1.0
2018-08-24 15:09:00,89.51658,15.86288,1006.525,273.17,98.5,6.8,-1.92,14.46,-19.93,40.38,34.83,313.13,317.13,42.15,36.14,313.1,316.63,1.0
2018-08-24 15:09:00,89.51658,15.8629,1006.507,273.16,98.5,7.0,-1.43,14.9,-17.34,40.31,34.76,313.27,317.26,41.62,36.11,313.14,316.78,1.0
2018-08-24 15:09:00,89.51658,15.86292,1006.523,273.17,98.5,6.8,-2.19,14.85,-15.26,41.82,34.9,312.88,317.39,41.08,36.09,313.11,316.87,1.0
2018-08-24 15:09:00,89.51658,15.86294,1006.498,273.17,98.5,7.0,-1.66,14.98,-14.05,42.93,34.83,313.03,317.79,40.6,36.08,313.11,317.05,1.0
2018-08-24 15:09:00,89.51658,15.86295,1006.448,273.17,98.5,7.4,-0.89,14.93,-13.26,41.75,34.83,313.11,317.5,40.21,36.11,313.12,317.23,1.0
2018-08-24 15:09:00,89.51658,15.86296,1006.404,273.17,98.5,7.8,-0.5,14.54,-12.6,40.84,35.04,312.8,317.19,39.96,36.15,313.09,317.36,1.0
2018-08-24 15:09:00,89.51658,15.86297,1006.36,273.17,98.5,8.1,0.09,14.02,-12.24,41.1,34.9,312.98,317.78,39.89,36.21,313.04,317.46,1.0
2018-08-24 15:09:00,89.51658,15.86298,1006.382,273.17,98.5,7.9,0.83,13.22,-12.59,40.71,35.11,312.36,317.47,39.98,36.28,312.94,317.52,1.0
2018-08-24 15:09:00,89.51658,15.86299,1006.421,273.17,98.5,7.6,1.17,12.32,-13.52,41.75,34.9,312.71,318.2,40.22,36.35,312.86,317.56,1.0
2018-08-24 15:09:00,89.51658,15.863,1006.45,273.17,98.5,7.4,1.53,11.37,-14.92,39.86,35.04,312.76,317.91,40.57,36.41,312.76,317.57,1.0
2018-08-24 15:09:00,89.51658,15.86301,1006.448,273.17,98.5,7.4,1.77,10.31,-16.67,41.1,34.97,312.56,318.04,40.99,36.46,312.64,317.57,1.0
2018-08-24 15:09:00,89.51658,15.86302,1006.406,273.18,98.5,7.8,1.56,9.13,-18.61,41.1,35.11,312.22,317.68,41.41,36.47,312.51,317.56,1.0
2018-08-24 15:09:00,89.51658,15.86303,1006.402,273.17,98.5,7.8,1.46,8.02,-21.42,41.1,35.11,311.68,317.81,41.79,36.46,312.34,317.44,1.0
2018-08-24 15:09:00,89.51658,15.86304,1006.38,273.17,98.5,8.0,1.73,6.99,-24.62,41.1,35.24,312.25,318.1,42.08,36.41,312.22,317.36,1.0
2018-08-24 15:09:00,89.51658,15.86306,1006.371,273.17,98.5,8.0,1.91,6.05,-28.27,41.1,35.24,312.06,318.04,42.28,36.34,312.06,317.24,1.0
2018-08-24 15:09:00,89.51658,15.86304,1006.366,273.18,98.5,8.1,2.15,5.19,-32.64,42.08,35.24,312.1,317.84,42.36,36.24,311.93,317.13,1.0
2018-08-24 15:09:00,89.51658,15.86302,1006.341,273.18,98.5,8.3,2.56,4.5,-36.71,40.84,35.45,311.95,317.9,42.36,36.12,311.87,317.1,1.0
2018-08-24 15:09:00,89.51658,15.863,1006.366,273.18,98.5,8.1,2.59,4.18,-36.59,41.43,35.24,311.98,317.22,42.29,36.01,311.87,317.06,1.0
2018-08-24 15:09:00,89.51658,15.86298,1006.358,273.18,98.5,8.1,3.04,3.99,-36.14,40.71,35.38,312.09,317.62,42.19,35.9,311.9,316.97,1.0
2018-08-24 15:09:00,89.51658,15.86296,1006.371,273.18,98.5,8.0,3.57,3.95,-35.98,41.49,35.31,311.91,317.32,42.1,35.8,311.92,316.8,1.0
2018-08-24 15:09:00,89.51658,15.86294,1006.381,273.18,98.5,8.0,4.04,4.06,-36.17,40.9,35.45,312.16,317.26,42.04,35.74,311.97,316.65,1.0
2018-08-24 15:09:00,89.51658,15.86293,1006.364,273.17,98.5,8.1,4.43,4.27,-36.64,41.88,35.31,312.6,317.92,42.02,35.7,312.04,316.53,1.0
2018-08-24 15:09:00,89.51658,15.86291,1006.311,273.17,98.5,8.5,4.82,4.53,-37.3,41.82,35.18,312.7,317.19,42.03,35.69,312.12,316.44,1.0
2018-08-24 15:09:00,89.51658,15.86289,1006.322,273.17,98.5,8.4,4.9,4.83,-37.8,40.18,35.45,312.54,316.35,42.05,35.71,312.28,316.55,1.0
2018-08-24 15:09:00,89.51658,15.86287,1006.326,273.17,98.5,8.4,4.53,5.07,-38.44,42.15,35.31,312.33,316.06,42.06,35.75,312.37,316.51,1.0
2018-08-24 15:09:00,89.51658,15.86285,1006.302,273.17,98.5,8.6,4.52,5.31,-38.66,40.97,35.45,312.25,316.6,42.02,35.81,312.47,316.52,1.0
2018-08-24 15:09:00,89.51658,15.86283,1006.272,273.17,98.5,8.8,4.83,5.4,-38.6,41.95,35.24,312.83,316.76,41.89,35.87,312.55,316.53,1.0
2018-08-24 15:09:00,89.51658,15.86281,1006.277,273.17,98.5,8.8,5.19,5.29,-38.62,40.77,35.45,312.56,316.56,41.67,35.94,312.6,316.51,1.0
2018-08-24 15:09:00,89.51658,15.86279,1006.256,273.17,98.5,8.9,6.14,5.56,-38.98,41.49,35.66,312.83,318.5,41.36,36.0,312.68,316.56,1.0
2018-08-24 15:09:00,89.51658,15.86277,1006.237,273.17,98.5,9.1,6.48,5.52,-40.89,41.75,35.38,312.35,316.75,40.98,36.06,312.76,316.66,1.0
2018-08-24 15:09:00,89.51658,15.86276,1006.246,273.17,98.5,9.0,6.51,5.61,-41.67,41.3,35.45,312.6,317.0,40.58,36.11,312.84,316.77,1.0
2018-08-24 15:09:00,89.51658,15.86272,1006.281,273.17,98.5,8.7,6.87,5.68,-42.9,42.15,35.24,312.76,317.14,40.19,36.15,312.88,316.83,1.0
2018-08-24 15:09:00,89.51658,15.86267,1006.315,273.17,98.5,8.5,7.54,5.72,-45.11,40.84,35.66,312.44,317.11,39.87,36.19,312.91,316.87,1.0
2018-08-24 15:09:00,89.51658,15.86262,1006.278,273.18,98.5,8.8,7.18,6.1,-44.97,41.56,35.31,313.4,317.41,39.65,36.22,312.98,316.94,1.0
2018-08-24 15:09:00,89.51658,15.86258,1006.276,273.17,98.5,8.8,5.7,6.36,-44.24,41.75,35.73,313.23,317.19,39.57,36.25,312.94,316.82,1.0
2018-08-24 15:09:00,89.51659,15.86253,1006.265,273.18,98.5,8.9,4.74,6.9,-43.26,40.71,35.52,313.12,317.14,39.62,36.26,312.95,316.89,1.0
2018-08-24 15:09:00,89.51659,15.86248,1006.249,273.18,98.5,9.0,4.14,7.22,-42.22,41.36,35.59,312.91,316.5,39.79,36.26,312.96,316.94,1.0
2018-08-24 15:09:00,89.51659,15.86243,1006.238,273.17,98.5,9.1,3.98,7.35,-41.18,40.77,35.59,313.0,317.07,40.04,36.25,312.95,316.98,1.0
2018-08-24 15:09:00,89.51659,15.86238,1006.245,273.17,98.5,9.0,4.47,7.63,-40.11,41.36,35.52,313.47,317.17,40.33,36.22,312.96,317.07,1.0
2018-08-24 15:09:00,89.51659,15.86234,1006.238,273.17,98.5,9.1,5.51,7.56,-38.55,41.1,35.73,312.6,317.16,40.61,36.18,312.91,317.12,1.0
2018-08-24 15:09:00,89.51659,15.86231,1006.205,273.17,98.5,9.3,5.92,7.52,-37.9,40.31,35.52,312.86,317.73,40.85,36.13,312.94,317.34,1.0
2018-08-24 15:09:00,89.51659,15.86229,1006.193,273.17,98.5,9.4,6.65,7.32,-37.17,40.9,35.73,312.49,317.78,41.01,36.08,312.96,317.52,1.0
2018-08-24 15:09:00,89.51659,15.86227,1006.21,273.17,98.5,9.3,7.3,7.21,-36.29,42.08,35.73,312.55,317.75,41.09,36.04,312.91,317.62,1.0
2018-08-24 15:09:00,89.51659,15.86226,1006.233,273.17,98.5,9.1,7.42,7.28,-35.3,40.9,35.59,312.62,317.99,41.11,36.01,312.79,317.69,1.0
2018-08-24 15:09:00,89.51659,15.86224,1006.197,273.17,98.5,9.4,7.03,6.82,-33.84,41.23,35.66,312.42,317.64,41.08,36.0,312.68,317.75,1.0
2018-08-24 15:09:00,89.51659,15.86222,1006.186,273.17,98.5,9.5,7.04,6.9,-33.07,40.97,35.87,313.14,319.42,41.03,36.03,312.65,317.84,1.0
2018-08-24 15:09:00,89.51659,15.8622,1006.174,273.17,98.5,9.6,7.59,6.79,-32.0,40.71,35.66,312.72,318.2,41.0,36.09,312.59,317.81,1.0
2018-08-24 15:09:00,89.51659,15.86219,1006.148,273.17,98.5,9.8,7.92,6.54,-31.04,41.36,35.73,311.78,317.21,40.99,36.18,312.51,317.77,1.0
2018-08-24 15:09:00,89.51659,15.86217,1006.117,273.17,98.5,10.0,7.98,6.25,-30.78,41.49,35.73,311.43,317.24,41.0,36.29,312.39,317.7,1.0
2018-08-24 15:09:00,89.51659,15.86215,1006.145,273.17,98.5,9.8,8.53,5.97,-31.68,41.43,35.52,311.66,317.29,41.03,36.4,312.22,317.53,1.0
2018-08-24 15:09:00,89.51659,15.86213,1006.164,273.16,98.5,9.7,8.65,5.49,-32.16,40.12,35.66,312.23,317.76,41.05,36.51,312.16,317.43,1.0
2018-08-24 15:09:00,89.51659,15.86212,1006.156,273.16,98.5,9.7,8.32,5.31,-32.86,41.36,35.87,311.98,317.22,41.04,36.6,312.03,317.16,1.0
2018-08-24 15:09:00,89.51659,15.8621,1006.119,273.16,98.5,10.0,8.04,5.24,-32.84,41.23,35.87,311.93,317.57,40.98,36.66,311.96,316.98,1.0
2018-08-24 15:09:00,89.51659,15.86209,1006.08,273.17,98.5,10.3,8.13,5.26,-32.18,40.97,35.66,311.92,317.38,40.87,36.69,312.01,316.92,1.0
2018-08-24 15:09:00,89.51659,15.86208,1006.079,273.17,98.5,10.3,8.54,5.38,-31.67,40.97,35.87,311.89,316.87,40.73,36.68,312.13,316.9,1.0
2018-08-24 15:09:00,89.51659,15.86207,1006.085,273.17,98.5,10.3,8.31,5.18,-33.81,40.9,35.94,312.69,317.12,40.59,36.65,312.2,316.83,1.0
2018-08-24 15:09:00,89.51659,15.86206,1006.036,273.17,98.5,10.7,9.15,5.21,-34.92,40.51,36.01,312.61,316.57,40.5,36.6,312.24,316.72,1.0
2018-08-24 15:09:00,89.51659,15.86204,1006.029,273.17,98.5,10.7,9.41,5.27,-35.93,42.34,36.01,312.57,316.85,40.51,36.54,312.33,316.68,1.0
2018-08-24 15:09:00,89.51659,15.86203,1006.055,273.17,98.5,10.5,9.21,5.44,-37.16,40.58,35.8,313.26,316.94,40.66,36.49,312.47,316.7,1.0
2018-08-24 15:09:00,89.51659,15.86202,1006.073,273.17,98.5,10.4,8.8,5.71,-38.83,41.49,35.94,312.68,316.56,40.98,36.45,312.63,316.76,1.0
2018-08-24 15:09:00,89.51659,15.86201,1006.053,273.17,98.5,10.5,8.05,5.79,-40.99,41.1,35.87,312.55,316.3,41.45,36.43,312.81,316.83,1.0
2018-08-24 15:09:00,89.51659,15.862,1006.039,273.17,98.6,10.7,7.04,6.36,-42.66,41.1,36.14,312.51,316.23,42.03,36.42,312.87,316.79,1.0
2018-08-24 15:09:00,89.5166,15.86199,1006.0,273.17,98.5,11.0,6.29,6.53,-45.1,40.64,35.94,312.8,316.74,42.65,36.42,313.05,316.82,1.0
2018-08-24 15:09:00,89.5166,15.86197,1005.982,273.17,98.5,11.1,5.31,6.58,-48.49,40.12,35.87,313.1,317.55,43.21,36.42,313.16,316.84,1.0
2018-08-24 15:09:00,89.5166,15.86196,1006.008,273.17,98.6,10.9,4.22,6.59,-51.28,41.1,35.94,312.85,318.42,43.61,36.41,313.19,316.88,1.0
2018-08-24 15:09:00,89.5166,15.86193,1006.055,273.17,98.6,10.5,3.69,6.48,-50.9,40.44,36.08,313.11,317.66,43.76,36.39,313.27,316.98,1.0
2018-08-24 15:09:00,89.5166,15.86191,1005.995,273.17,98.6,11.0,4.1,6.79,-49.87,42.47,36.14,312.86,316.92,43.6,36.35,313.37,317.11,1.0
2018-08-24 15:09:00,89.5166,15.86189,1005.977,273.17,98.6,11.1,3.77,6.56,-49.15,40.97,36.08,314.22,317.36,43.12,36.29,313.38,317.25,1.0
2018-08-24 15:09:00,89.5166,15.86186,1006.002,273.17,98.6,10.9,3.73,6.65,-48.49,42.08,36.08,313.49,317.18,42.35,36.23,313.33,317.36,1.0
2018-08-24 15:09:00,89.5166,15.86184,1006.034,273.17,98.5,10.7,4.21,6.71,-47.96,40.38,35.8,313.23,317.13,41.36,36.17,313.26,317.41,1.0
2018-08-24 15:09:00,89.5166,15.86182,1006.022,273.17,98.5,10.8,4.88,6.4,-47.57,42.47,36.08,313.64,317.51,40.27,36.13,313.18,317.39,1.0
2018-08-24 15:09:00,89.5166,15.8618,1005.963,273.17,98.5,11.2,4.19,6.61,-47.09,41.82,36.08,313.32,317.14,39.22,36.1,313.03,317.37,1.0
2018-08-24 15:09:00,89.5166,15.86177,1005.948,273.17,98.5,11.4,4.36,6.37,-50.18,41.69,36.21,312.68,317.02,38.33,36.1,312.84,317.39,1.0
2018-08-24 15:09:00,89.5166,15.86175,1005.952,273.17,98.5,11.3,4.05,6.45,-50.76,40.51,36.08,312.36,317.14,37.72,36.12,312.54,317.28,1.0
2018-08-24 15:09:00,89.5166,15.86173,1005.955,273.17,98.5,11.3,3.9,6.48,-50.8,42.15,36.08,312.64,317.45,37.45,36.16,312.27,317.15,1.0
2018-08-24 15:09:00,89.5166,15.8617,1005.95,273.17,98.6,11.4,3.79,6.34,-51.12,42.15,36.14,312.9,317.84,37.54,36.18,312.05,317.0,1.0
2018-08-24 15:09:00,89.5166,15.86168,1005.944,273.17,98.6,11.4,2.63,6.38,-50.26,40.97,35.94,312.49,317.65,37.97,36.18,311.79,316.81,1.0
2018-08-24 15:09:00,89.5166,15.8617,1005.934,273.16,98.6,11.5,2.19,6.4,-49.71,39.4,36.08,312.26,318.0,38.66,36.15,311.62,316.71,1.0
2018-08-24 15:09:00,89.5166,15.86172,1005.903,273.16,98.6,11.7,1.72,6.26,-49.11,39.72,35.94,312.44,317.53,39.51,36.06,311.55,316.64,1.0
2018-08-24 15:09:00,89.5166,15.86174,1005.878,273.16,98.5,11.9,1.54,6.12,-48.74,40.44,36.14,312.74,317.79,40.41,35.91,311.52,316.59,1.0
2018-08-24 15:09:00,89.5166,15.86175,1005.877,273.17,98.6,11.9,1.61,6.0,-48.49,39.72,35.94,312.44,317.86,41.25,35.72,311.49,316.57,1.0
2018-08-24 15:09:00,89.51659,15.86177,1005.898,273.17,98.5,11.8,1.84,5.87,-48.27,42.08,36.08,312.37,317.5,41.94,35.5,311.5,316.58,1.0
2018-08-24 15:09:00,89.51659,15.86179,1005.884,273.16,98.6,11.9,2.77,5.71,-48.62,40.18,36.08,312.57,317.83,42.45,35.28,311.62,316.65,1.0
2018-08-24 15:09:00,89.51659,15.86181,1005.851,273.16,98.5,12.1,2.75,5.52,-48.86,42.15,36.28,312.5,317.7,42.75,35.08,311.63,316.72,1.0
2018-08-24 15:09:00,89.51659,15.86182,1005.842,273.16,98.5,12.2,2.85,5.71,-49.36,40.64,36.14,312.19,317.26,42.87,34.94,311.7,316.87,1.0
2018-08-24 15:09:00,89.51659,15.86184,1005.83,273.17,98.6,12.3,3.49,5.88,-49.82,41.3,36.21,311.92,317.06,42.84,34.88,311.81,316.95,1.0
2018-08-24 15:09:00,89.51659,15.86186,1005.796,273.17,98.6,12.6,4.41,5.81,-50.12,41.56,36.08,311.91,316.78,42.73,34.9,311.87,316.95,1.0
2018-08-24 15:09:00,89.51659,15.86188,1005.817,273.16,98.5,12.4,4.58,5.77,-50.52,40.44,35.73,312.4,316.35,42.56,35.01,311.82,317.04,1.0
2018-08-24 15:09:00,89.51659,15.8619,1005.818,273.16,98.6,12.4,4.81,5.71,-50.95,41.23,35.87,310.65,316.47,42.39,35.2,311.73,316.89,1.0
2018-08-24 15:09:00,89.51659,15.86192,1005.815,273.16,98.6,12.4,4.56,5.66,-51.59,41.43,35.87,311.72,317.02,42.22,35.44,311.69,316.75,1.0
2018-08-24 15:09:00,89.51659,15.86193,1005.798,273.16,98.6,12.6,4.16,5.6,-52.42,41.62,35.66,312.92,316.33,42.04,35.7,311.69,316.6,1.0
2018-08-24 15:09:00,89.51659,15.86195,1005.776,273.16,98.6,12.7,3.61,5.52,-53.32,39.14,35.45,312.62,316.12,41.85,35.95,311.79,316.5,1.0
2018-08-24 15:09:00,89.51659,15.86198,1005.8,273.16,98.6,12.5,2.8,5.47,-54.07,41.3,35.66,311.23,317.62,41.62,36.16,311.97,316.52,1.0
2018-08-24 15:09:00,89.51659,15.86204,1005.791,273.16,98.5,12.6,3.0,5.53,-54.49,41.49,36.08,312.06,316.56,41.33,36.3,312.16,316.57,1.0
2018-08-24 15:09:00,89.51659,15.8621,1005.77,273.16,98.6,12.8,3.63,5.91,-54.51,41.43,35.94,312.75,317.03,40.99,36.38,312.47,316.63,1.0
2018-08-24 15:09:00,89.51659,15.86216,1005.769,273.16,98.6,12.8,4.12,5.98,-54.1,41.62,36.21,312.89,316.65,40.6,36.39,312.78,316.68,1.0
2018-08-24 15:09:00,89.51659,15.86222,1005.766,273.17,98.6,12.8,4.76,6.04,-53.42,41.16,36.21,313.45,317.07,40.21,36.35,313.07,316.93,1.0
2018-08-24 15:09:00,89.51659,15.86229,1005.72,273.16,98.6,13.2,5.68,6.32,-52.68,42.67,36.08,313.86,317.74,39.85,36.28,313.38,317.35,1.0
2018-08-24 15:09:00,89.51659,15.86235,1005.729,273.16,98.6,13.1,5.88,6.19,-52.03,41.56,35.73,313.79,317.17,39.59,36.2,313.79,317.59,1.0
2018-08-24 15:09:00,89.51659,15.86241,1005.714,273.16,98.6,13.2,5.8,6.31,-50.85,40.51,36.01,312.9,316.88,39.47,36.13,314.06,317.95,1.0
2018-08-24 15:09:00,89.51659,15.86247,1005.732,273.16,98.6,13.1,5.6,6.37,-49.44,40.18,35.87,312.98,316.43,39.52,36.09,314.27,318.24,1.0
2018-08-24 15:09:00,89.51659,15.86252,1005.755,273.16,98.6,12.9,5.62,6.28,-47.39,40.71,36.08,313.54,318.01,39.75,36.1,314.36,318.5,1.0
2018-08-24 15:09:00,89.51659,15.86255,1005.736,273.16,98.6,13.0,5.92,6.1,-44.91,40.84,35.87,313.54,319.11,40.15,36.13,314.33,318.69,1.0
2018-08-24 15:09:00,89.51659,15.86258,1005.718,273.16,98.6,13.2,6.09,5.98,-43.15,40.84,35.66,313.65,318.13,40.67,36.2,314.22,318.75,1.0
2018-08-24 15:09:00,89.51659,15.8626,1005.706,273.16,98.6,13.3,6.24,5.54,-40.08,40.31,36.01,313.07,318.39,41.25,36.27,314.0,318.75,1.0
2018-08-24 15:09:00,89.51659,15.86263,1005.697,273.16,98.6,13.3,6.63,5.25,-40.28,41.56,35.94,313.68,318.31,41.81,36.35,313.9,318.85,1.0
2018-08-24 15:09:00,89.51659,15.86266,1005.676,273.16,98.6,13.5,6.95,4.91,-41.84,41.69,36.35,313.14,318.2,42.27,36.4,313.76,318.95,1.0
2018-08-24 15:09:00,89.51659,15.86268,1005.641,273.16,98.6,13.8,6.82,4.5,-43.06,41.88,35.94,313.02,318.67,42.58,36.42,313.6,318.95,1.0
2018-08-24 15:09:00,89.51659,15.86271,1005.604,273.16,98.6,14.1,6.11,4.1,-42.81,38.81,36.01,313.17,318.72,42.67,36.42,313.43,318.85,1.0
2018-08-24 15:09:00,89.51659,15.86274,1005.581,273.16,98.6,14.3,6.48,3.9,-43.6,41.56,36.08,312.42,318.42,42.54,36.39,313.12,318.86,1.0
2018-08-24 15:09:00,89.51659,15.86276,1005.598,273.16,98.6,14.1,6.3,3.81,-45.23,40.64,36.14,312.92,319.26,42.2,36.35,313.04,318.84,1.0
2018-08-24 15:09:00,89.51659,15.86279,1005.574,273.16,98.6,14.3,5.57,3.55,-47.0,41.49,36.08,312.69,319.1,41.69,36.32,312.97,318.83,1.0
2018-08-24 15:09:00,89.5166,15.86282,1005.543,273.16,98.6,14.6,4.89,3.36,-49.27,41.75,36.08,313.0,318.77,41.07,36.29,312.94,318.83,1.0
2018-08-24 15:09:00,89.5166,15.86284,1005.556,273.16,98.6,14.5,4.59,3.34,-52.4,41.62,36.08,312.41,318.87,40.42,36.29,312.93,318.82,1.0
2018-08-24 15:09:00,89.5166,15.86287,1005.582,273.16,98.6,14.3,4.32,3.1,-56.51,41.49,35.87,310.96,318.93,39.83,36.31,312.83,318.81,1.0
2018-08-24 15:09:00,89.5166,15.8629,1005.587,273.16,98.6,14.2,3.28,3.43,-60.94,41.62,36.14,312.5,318.35,39.37,36.36,312.85,318.8,1.0
2018-08-24 15:09:00,89.5166,15.86293,1005.565,273.16,98.6,14.4,2.53,3.43,-65.74,42.08,36.08,312.6,318.4,39.1,36.42,312.76,318.64,1.0
2018-08-24 15:09:00,89.5166,15.86296,1005.551,273.16,98.6,14.5,1.81,3.58,-68.4,40.12,36.14,312.57,318.13,39.06,36.48,312.71,318.51,1.0
2018-08-24 15:09:00,89.5166,15.86299,1005.56,273.16,98.6,14.4,1.0,3.88,-68.93,38.68,36.01,312.77,318.42,39.27,36.52,312.69,318.41,1.0
2018-08-24 15:09:00,89.5166,15.86302,1005.574,273.16,98.6,14.3,0.26,4.02,-69.21,41.16,36.14,312.32,318.55,39.72,36.53,312.68,318.27,1.0
2018-08-24 15:09:00,89.5166,15.86305,1005.553,273.16,98.6,14.5,-0.25,4.43,-69.9,41.36,36.08,312.96,318.41,40.37,36.5,312.9,318.13,1.0
2018-08-24 15:09:00,89.5166,15.86308,1005.554,273.16,98.6,14.5,-0.82,4.74,-70.94,40.38,36.21,312.55,317.77,41.17,36.42,312.92,318.07,1.0
2018-08-24 15:09:00,89.5166,15.86311,1005.545,273.16,98.6,14.5,-1.35,5.0,-72.22,41.62,36.14,312.7,318.17,42.04,36.3,312.97,318.03,1.0
2018-08-24 15:09:00,89.5166,15.86314,1005.537,273.17,98.6,14.6,-1.78,5.27,-73.68,42.34,36.35,313.18,317.97,42.9,36.15,313.02,318.0,1.0
2018-08-24 15:09:00,89.5166,15.86317,1005.556,273.16,98.6,14.5,-2.07,5.5,-75.17,40.25,36.28,312.96,317.88,43.68,35.98,313.04,317.97,1.0
2018-08-24 15:09:00,89.5166,15.8632,1005.524,273.16,98.6,14.7,-2.38,5.3,-76.34,39.46,36.14,313.53,317.88,44.31,35.82,313.08,317.95,1.0
2018-08-24 15:09:00,89.5166,15.86324,1005.524,273.16,98.6,14.7,-2.6,5.46,-77.25,41.69,36.08,312.86,317.83,44.74,35.66,313.08,318.01,1.0
2018-08-24 15:09:00,89.5166,15.86328,1005.53,273.16,98.6,14.7,-3.43,5.46,-78.09,41.36,36.21,313.14,318.0,44.95,35.55,313.16,318.1,1.0
2018-08-24 15:09:00,89.5166,15.86332,1005.529,273.16,98.6,14.7,-4.4,5.45,-78.77,40.97,36.14,313.24,317.8,44.94,35.47,313.2,318.13,1.0
2018-08-24 15:09:00,89.5166,15.86336,1005.519,273.16,98.6,14.8,-5.27,5.45,-79.14,41.56,35.94,312.72,317.83,44.73,35.44,313.2,318.15,1.0
2018-08-24 15:09:00,89.5166,15.8634,1005.523,273.16,98.6,14.7,-6.27,5.18,-78.92,40.18,36.01,312.41,317.87,44.37,35.45,313.26,318.25,1.0
2018-08-24 15:09:00,89.5166,15.86344,1005.519,273.16,98.6,14.8,-7.12,5.18,-78.2,41.75,36.08,312.64,318.68,43.91,35.5,313.24,318.31,1.0
2018-08-24 15:09:00,89.5166,15.86349,1005.517,273.15,98.6,14.8,-7.64,5.15,-77.34,42.15,36.21,313.57,318.23,43.4,35.58,313.3,318.35,1.0
2018-08-24 15:09:00,89.5166,15.86353,1005.516,273.15,98.6,14.8,-7.67,5.18,-76.49,42.67,36.21,313.45,318.06,42.9,35.68,313.3,318.4,1.0
2018-08-24 15:09:00,89.5166,15.86357,1005.514,273.15,98.6,14.8,-7.36,5.22,-75.55,43.13,35.94,313.52,318.34,42.44,35.78,313.29,318.48,1.0
2018-08-24 15:09:00,89.5166,15.86361,1005.512,273.14,98.6,14.8,-7.02,5.26,-74.2,41.88,36.08,313.91,318.82,42.03,35.86,313.34,318.58,1.0
2018-08-24 15:09:00,89.5166,15.86365,1005.516,273.14,98.6,14.8,-6.67,5.75,-71.21,41.43,35.87,313.34,318.38,41.68,35.93,313.37,318.67,1.0
2018-08-24 15:09:00,89.5166,15.86369,1005.479,273.14,98.6,15.1,-7.32,5.96,-71.36,40.58,36.08,313.76,318.57,41.34,35.97,313.39,318.7,1.0
2018-08-24 15:09:00,89.5166,15.86376,1005.454,273.14,98.6,15.3,-8.31,6.22,-71.77,40.12,35.94,313.38,318.39,40.99,35.97,313.3,318.73,1.0
2018-08-24 15:09:00,89.5166,15.86383,1005.451,273.14,98.6,15.3,-9.31,6.61,-70.93,42.74,36.01,313.18,318.73,40.59,35.94,313.21,318.78,1.0
2018-08-24 15:09:00,89.5166,15.8639,1005.459,273.14,98.6,15.2,-10.11,7.12,-68.35,41.3,36.14,313.36,318.76,40.11,35.87,313.12,318.77,1.0
2018-08-24 15:09:00,89.5166,15.86397,1005.488,273.14,98.6,15.0,-10.56,7.65,-64.94,43.06,35.94,313.13,319.08,39.56,35.78,312.88,318.68,1.0
2018-08-24 15:09:00,89.5166,15.86404,1005.445,273.13,98.6,15.3,-9.13,8.12,-60.85,41.3,36.14,313.19,318.91,38.95,35.66,312.77,318.67,1.0
2018-08-24 15:09:00,89.5166,15.86412,1005.423,273.13,98.6,15.5,-7.82,8.63,-56.82,41.75,36.08,312.98,319.02,38.34,35.53,312.61,318.66,1.0
2018-08-24 15:09:00,89.5166,15.86419,1005.432,273.13,98.6,15.4,-6.18,9.06,-53.21,40.51,36.14,313.14,318.87,37.78,35.41,312.52,318.62,1.0
2018-08-24 15:09:00,89.5166,15.86426,1005.452,273.13,98.6,15.3,-4.32,9.43,-50.04,41.36,35.94,312.96,318.71,37.36,35.3,312.47,318.6,1.0
2018-08-24 15:09:00,89.5166,15.86434,1005.43,273.13,98.6,15.5,-3.08,9.85,-47.39,42.02,36.08,311.94,318.45,37.16,35.23,312.41,318.58,1.0
2018-08-24 15:09:00,89.5166,15.86441,1005.401,273.14,98.6,15.7,-2.73,10.02,-44.85,42.28,35.94,312.5,319.14,37.24,35.2,312.46,318.51,1.0
2018-08-24 15:09:00,89.5166,15.86448,1005.402,273.13,98.6,15.7,-3.28,10.31,-43.04,40.18,35.87,312.32,318.55,37.61,35.22,312.45,318.44,1.0
2018-08-24 15:09:00,89.5166,15.86455,1005.402,273.13,98.6,15.7,-4.02,10.52,-41.71,41.95,35.87,312.73,318.8,38.26,35.29,312.59,318.32,1.0
2018-08-24 15:09:00,89.5166,15.86462,1005.402,273.13,98.6,15.7,-4.45,10.65,-40.33,40.58,35.87,312.75,318.59,39.14,35.42,312.78,318.21,1.0
2018-08-24 15:09:00,89.5166,15.8647,1005.417,273.13,98.6,15.6,-4.31,10.77,-38.49,39.27,36.08,312.52,318.33,40.15,35.59,312.83,318.18,1.0
2018-08-24 15:09:00,89.5166,15.86477,1005.358,273.13,98.6,16.0,-4.07,11.02,-36.59,40.9,35.8,312.73,317.91,41.18,35.78,312.98,318.1,1.0
2018-08-24 15:09:00,89.5166,15.86484,1005.349,273.14,98.6,16.1,-3.56,10.95,-35.67,39.99,35.87,311.9,317.33,42.1,35.99,312.97,317.93,1.0
2018-08-24 15:09:00,89.5166,15.86492,1005.348,273.14,98.6,16.1,-3.5,11.02,-35.07,39.14,35.66,313.12,317.26,42.8,36.2,313.02,317.81,1.0
2018-08-24 15:09:00,89.5166,15.865,1005.339,273.14,98.6,16.2,-3.67,11.13,-34.68,41.75,35.87,314.08,317.08,43.21,36.37,313.03,317.71,1.0
2018-08-24 15:09:00,89.5166,15.86508,1005.312,273.13,98.6,16.4,-3.64,11.16,-34.65,40.64,35.8,312.19,317.96,43.29,36.51,313.03,317.59,1.0
2018-08-24 15:09:00,89.5166,15.86516,1005.312,273.14,98.6,16.4,-2.87,11.25,-35.11,42.74,36.08,313.06,317.7,43.07,36.59,313.09,317.51,1.0
2018-08-24 15:09:00,89.5166,15.86524,1005.325,273.14,98.6,16.3,-2.36,11.04,-35.71,41.75,36.08,312.4,317.38,42.6,36.62,313.09,317.5,1.0
2018-08-24 15:09:00,89.5166,15.86532,1005.306,273.14,98.6,16.4,-2.47,11.1,-36.55,42.28,36.08,313.01,318.26,41.99,36.6,313.22,317.55,1.0
2018-08-24 15:09:00,89.5166,15.8654,1005.273,273.14,98.6,16.7,-2.94,10.85,-37.77,41.23,36.08,313.21,318.15,41.36,36.54,313.25,317.67,1.0
2018-08-24 15:09:00,89.5166,15.86548,1005.254,273.14,98.6,16.8,-3.53,10.47,-39.44,39.79,35.73,313.16,318.0,40.81,36.46,313.24,317.81,1.0
2018-08-24 15:09:00,89.5166,15.86553,1005.274,273.14,98.6,16.7,-4.07,10.43,-41.44,39.27,36.08,313.25,318.32,40.45,36.36,313.39,317.91,1.0
2018-08-24 15:09:00,89.5166,15.86555,1005.284,273.14,98.6,16.6,-5.08,9.78,-43.64,43.06,36.08,312.95,318.45,40.33,36.26,313.44,318.08,1.0
2018-08-24 15:09:00,89.5166,15.86556,1005.268,273.14,98.6,16.7,-5.44,9.39,-45.88,41.36,35.94,313.82,318.42,40.44,36.18,313.58,318.24,1.0
2018-08-24 15:09:00,89.5166,15.86557,1005.231,273.14,98.6,17.0,-5.6,9.01,-46.49,41.3,36.14,313.52,318.33,40.76,36.12,313.6,318.33,1.0
2018-08-24 15:09:00,89.5166,15.86558,1005.216,273.14,98.6,17.1,-5.68,8.44,-46.42,39.99,36.08,313.58,318.29,41.19,36.09,313.59,318.42,1.0
2018-08-24 15:09:00,89.5166,15.8656,1005.261,273.14,98.6,16.8,-5.7,7.69,-46.62,41.75,36.08,313.92,318.34,41.63,36.07,313.58,318.52,1.0
2018-08-24 15:09:00,89.5166,15.86561,1005.274,273.14,98.6,16.7,-5.56,7.1,-46.27,39.66,36.14,313.42,318.5,41.99,36.07,313.48,318.54,1.0
2018-08-24 15:09:00,89.5166,15.86562,1005.224,273.14,98.6,17.1,-4.99,6.33,-46.05,40.71,36.08,313.36,318.27,42.16,36.07,313.39,318.55,1.0
2018-08-24 15:09:00,89.5166,15.86563,1005.214,273.14,98.6,17.2,-4.94,5.57,-46.32,42.08,35.87,313.31,317.84,42.11,36.07,313.23,318.55,1.0
2018-08-24 15:09:00,89.5166,15.86564,1005.215,273.14,98.6,17.1,-5.24,4.89,-46.74,41.16,36.08,313.09,318.47,41.82,36.06,313.1,318.53,1.0
2018-08-24 15:09:00,89.5166,15.86566,1005.207,273.14,98.6,17.2,-5.67,4.32,-47.16,41.1,35.87,313.26,318.82,41.34,36.03,312.99,318.52,1.0
2018-08-24 15:09:00,89.5166,15.86567,1005.235,273.14,98.6,17.0,-6.08,3.95,-47.75,41.88,36.08,312.77,318.27,40.75,35.98,312.86,318.53,1.0
2018-08-24 15:09:00,89.5166,15.86568,1005.216,273.14,98.6,17.1,-6.78,3.59,-48.2,41.69,36.14,313.08,319.01,40.15,35.92,312.81,318.53,1.0
2018-08-24 15:09:00,89.5166,15.8657,1005.213,273.14,98.6,17.2,-6.88,3.79,-48.4,42.15,36.08,312.78,318.64,39.65,35.84,312.69,318.58,1.0
2018-08-24 15:09:00,89.5166,15.86573,1005.192,273.14,98.6,17.3,-6.78,3.94,-48.4,41.1,36.14,312.98,318.84,39.35,35.76,312.63,318.66,1.0
2018-08-24 15:09:00,89.5166,15.86575,1005.166,273.13,98.6,17.5,-6.72,4.0,-48.22,40.44,36.14,313.09,318.94,39.31,35.68,312.54,318.67,1.0
2018-08-24 15:09:00,89.5166,15.86577,1005.19,273.14,98.6,17.3,-6.82,4.11,-47.86,39.27,36.08,312.79,319.11,39.56,35.61,312.37,318.59,1.0
2018-08-24 15:09:00,89.5166,15.8658,1005.202,273.14,98.6,17.3,-6.64,4.09,-47.3,41.36,35.94,312.73,318.72,40.07,35.54,312.37,318.65,1.0
2018-08-24 15:09:00,89.5166,15.86582,1005.189,273.13,98.6,17.4,-6.9,4.66,-46.62,40.25,36.08,312.07,319.05,40.76,35.48,312.3,318.66,1.0
2018-08-24 15:09:00,89.51661,15.86584,1005.183,273.13,98.6,17.4,-7.14,5.07,-45.93,41.88,35.87,312.55,318.98,41.53,35.44,312.39,318.64,1.0
2018-08-24 15:09:00,89.51661,15.86586,1005.18,273.14,98.6,17.4,-7.53,5.49,-45.1,40.71,35.94,311.61,318.04,42.26,35.39,312.44,318.61,1.0
2018-08-24 15:09:00,89.51661,15.86589,1005.169,273.13,98.6,17.5,-8.12,6.03,-44.04,40.71,35.87,310.79,317.28,42.83,35.36,312.4,318.54,1.0
2018-08-24 15:09:00,89.51661,15.86591,1005.179,273.14,98.6,17.4,-8.38,6.3,-42.96,42.28,36.14,312.64,318.76,43.16,35.33,312.43,318.41,1.0
2018-08-24 15:09:00,89.51661,15.86593,1005.156,273.14,98.6,17.6,-8.8,6.74,-42.34,41.1,36.01,312.11,318.61,43.19,35.31,312.44,318.29,1.0
2018-08-24 15:09:00,89.51661,15.86595,1005.133,273.14,98.6,17.8,-9.42,7.16,-41.17,40.97,35.94,313.71,318.4,42.9,35.29,312.55,318.16,1.0
2018-08-24 15:09:00,89.51661,15.866,1005.131,273.14,98.6,17.8,-9.66,7.46,-39.87,40.38,35.87,313.64,318.04,42.34,35.29,312.62,318.06,1.0
2018-08-24 15:09:00,89.51661,15.86604,1005.141,273.14,98.6,17.7,-9.39,7.63,-39.0,40.51,35.87,312.9,318.02,41.58,35.3,312.73,318.02,1.0
2018-08-24 15:09:00,89.51661,15.86609,1005.104,273.14,98.6,18.0,-8.91,7.74,-39.15,41.1,35.94,313.37,317.71,40.7,35.34,312.96,318.03,1.0
2018-08-24 15:09:00,89.51661,15.86613,1005.102,273.14,98.6,18.0,-8.02,8.03,-39.6,42.15,35.94,312.82,317.68,39.82,35.39,312.99,317.96,1.0
2018-08-24 15:09:00,89.51661,15.86618,1005.084,273.14,98.6,18.2,-7.64,7.91,-39.82,42.28,35.73,313.11,317.68,39.04,35.46,313.14,317.97,1.0
2018-08-24 15:09:00,89.51661,15.86622,1005.071,273.14,98.6,18.3,-7.32,8.06,-40.47,41.49,36.01,312.58,317.82,38.43,35.55,313.12,317.98,1.0
2018-08-24 15:09:00,89.51661,15.86627,1005.061,273.13,98.6,18.4,-7.34,8.11,-41.15,41.62,35.8,312.56,317.58,38.03,35.65,313.1,317.96,1.0
2018-08-24 15:09:00,89.51661,15.86632,1005.045,273.14,98.6,18.5,-7.89,7.88,-41.47,40.51,35.59,312.92,317.6,37.85,35.75,313.15,317.97,1.0
2018-08-24 15:09:00,89.51661,15.86636,1005.05,273.14,98.6,18.5,-8.46,8.39,-42.06,40.97,35.8,312.43,317.79,37.88,35.83,313.09,318.04,1.0
2018-08-24 15:09:00,89.51661,15.86641,1005.039,273.14,98.6,18.5,-8.24,7.98,-42.29,40.64,36.08,313.47,318.58,38.08,35.89,313.13,318.08,1.0
2018-08-24 15:09:00,89.51661,15.86645,1005.044,273.14,98.6,18.5,-7.92,8.12,-42.29,40.38,35.73,313.21,318.49,38.38,35.92,313.1,318.14,1.0
2018-08-24 15:09:00,89.51661,15.8665,1005.057,273.14,98.6,18.4,-7.44,8.29,-41.77,40.38,35.94,313.53,318.44,38.72,35.92,313.13,318.18,1.0
2018-08-24 15:09:00,89.51661,15.86654,1005.057,273.14,98.6,18.4,-6.51,8.37,-40.81,39.4,35.87,314.02,318.18,39.07,35.87,313.17,318.25,1.0
2018-08-24 15:09:00,89.51661,15.86657,1004.998,273.14,98.6,18.9,-4.72,8.84,-39.96,40.18,35.73,313.12,318.37,39.39,35.8,313.14,318.35,1.0
2018-08-24 15:09:00,89.51661,15.8666,1004.995,273.14,98.6,18.9,-2.93,8.98,-38.76,41.75,35.87,313.71,318.14,39.66,35.69,313.19,318.41,1.0
2018-08-24 15:09:00,89.51661,15.86662,1005.008,273.14,98.6,18.8,-1.91,9.14,-37.35,41.49,35.94,313.48,318.3,39.9,35.57,313.15,318.6,1.0
2018-08-24 15:09:00,89.51661,15.86665,1005.036,273.14,98.6,18.6,-1.39,9.14,-35.61,41.23,36.01,313.44,318.43,40.13,35.44,313.14,318.84,1.0
2018-08-24 15:09:00,89.51661,15.86667,1005.058,273.14,98.6,18.4,-1.06,9.08,-33.62,39.92,35.8,313.34,318.25,40.38,35.32,313.15,319.04,1.0
2018-08-24 15:09:00,89.51661,15.8667,1005.038,273.14,98.6,18.5,-0.9,9.14,-31.64,39.86,35.94,312.92,318.38,40.67,35.22,313.1,319.11,1.0
2018-08-24 15:09:00,89.51661,15.86672,1005.013,273.14,98.6,18.7,-2.1,9.03,-29.17,40.38,35.73,313.36,318.1,41.04,35.15,313.09,318.98,1.0
2018-08-24 15:09:00,89.51661,15.86675,1005.021,273.14,98.6,18.7,-2.98,9.38,-26.6,40.84,35.87,312.71,320.31,41.49,35.12,312.92,318.89,1.0
2018-08-24 15:09:00,89.51661,15.86678,1004.997,273.14,98.6,18.9,-3.01,9.54,-23.88,39.99,35.73,313.22,321.04,42.0,35.13,312.76,318.84,1.0
2018-08-24 15:09:00,89.51661,15.8668,1004.946,273.13,98.6,19.3,-1.72,9.69,-21.0,40.18,35.73,313.6,320.39,42.57,35.19,312.59,318.82,1.0
2018-08-24 15:09:00,89.51661,15.86683,1004.926,273.13,98.6,19.4,0.49,9.98,-17.85,42.28,35.66,313.39,319.06,43.16,35.29,312.48,318.78,1.0
2018-08-24 15:09:00,89.51661,15.86685,1004.933,273.13,98.6,19.4,2.09,9.79,-14.27,39.99,35.59,313.42,317.06,43.74,35.42,312.52,318.66,1.0
2018-08-24 15:09:00,89.51661,15.86688,1004.88,273.14,98.6,19.8,3.52,9.89,-11.01,40.51,35.87,312.4,317.74,44.26,35.57,312.46,318.64,1.0
2018-08-24 15:09:00,89.51661,15.8669,1004.86,273.13,98.6,20.0,3.73,9.75,-12.02,40.18,35.73,312.23,318.36,44.69,35.73,312.5,318.4,1.0
2018-08-24 15:09:00,89.51661,15.86693,1004.854,273.13,98.6,20.0,3.17,9.5,-14.76,40.51,36.01,312.1,318.6,45.02,35.9,312.61,318.06,1.0
2018-08-24 15:09:00,89.51661,15.86692,1004.837,273.13,98.6,20.1,2.23,9.21,-17.81,41.75,35.52,312.3,318.55,45.21,36.06,312.73,317.78,1.0
2018-08-24 15:09:00,89.51661,15.86681,1004.81,273.12,98.6,20.4,1.14,8.88,-21.05,41.75,35.59,312.53,317.61,45.26,36.21,312.81,317.63,1.0
2018-08-24 15:09:00,89.51661,15.8667,1004.854,273.13,98.6,20.0,0.31,8.89,-25.49,40.18,35.66,311.77,318.44,45.17,36.32,312.85,317.67,1.0
2018-08-24 15:09:00,89.51661,15.8666,1004.827,273.13,98.6,20.2,-0.96,8.79,-30.16,42.47,35.87,312.39,317.71,44.93,36.41,312.97,317.61,1.0
2018-08-24 15:09:00,89.51661,15.86649,1004.798,273.13,98.6,20.4,-2.41,8.81,-34.86,40.9,35.87,313.49,317.25,44.55,36.45,313.09,317.51,1.0
2018-08-24 15:09:00,89.51661,15.86638,1004.788,273.12,98.6,20.5,-3.66,9.02,-39.87,42.08,35.73,313.87,316.8,44.04,36.46,313.2,317.39,1.0
2018-08-24 15:09:00,89.51662,15.86627,1004.777,273.12,98.6,20.6,-4.54,9.38,-45.31,41.95,35.87,313.08,316.92,43.4,36.44,313.26,317.3,1.0
2018-08-24 15:09:00,89.51662,15.86616,1004.754,273.12,98.6,20.8,-5.87,9.71,-51.08,42.54,35.73,312.7,317.03,42.64,36.38,313.29,317.26,1.0
2018-08-24 15:09:00,89.51662,15.86606,1004.8,273.12,98.6,20.4,-7.14,9.95,-57.38,40.97,35.94,312.87,316.51,41.78,36.3,313.39,317.18,1.0
2018-08-24 15:09:00,89.51662,15.86604,1004.801,273.12,98.6,20.4,-8.15,9.83,-64.19,42.34,36.08,313.2,317.04,40.87,36.2,313.45,317.15,1.0
2018-08-24 15:09:00,89.51662,15.86601,1004.784,273.12,98.6,20.6,-9.18,9.6,-70.63,40.38,35.87,313.7,317.31,39.94,36.09,313.46,317.21,1.0
2018-08-24 15:09:00,89.51662,15.86599,1004.815,273.13,98.6,20.3,-10.29,9.29,-76.78,40.97,35.87,313.73,317.53,39.04,35.99,313.5,317.33,1.0
2018-08-24 15:09:00,89.51662,15.86596,1004.845,273.12,98.6,20.1,-11.02,8.55,-83.16,42.02,36.01,314.19,317.45,38.23,35.9,313.63,317.42,1.0
2018-08-24 15:09:00,89.51662,15.86594,1004.84,273.12,98.6,20.1,-10.73,8.53,-84.41,41.3,35.8,313.55,318.23,37.57,35.83,313.81,317.54,1.0
2018-08-24 15:09:00,89.51662,15.86592,1004.841,273.12,98.6,20.1,-10.64,8.48,-85.6,42.47,35.94,313.7,317.51,37.11,35.78,314.15,317.73,1.0
2018-08-24 15:09:00,89.51662,15.86589,1004.823,273.12,98.6,20.2,-10.96,8.36,-87.11,42.47,35.73,313.75,317.85,36.88,35.74,314.42,317.92,1.0
2018-08-24 15:09:00,89.51662,15.86587,1004.79,273.12,98.6,20.5,-11.37,8.1,-88.96,42.67,35.94,314.19,318.09,36.9,35.73,314.53,318.02,1.0
2018-08-24 15:09:00,89.51662,15.86584,1004.782,273.12,98.6,20.6,-11.36,7.63,-91.04,40.18,35.94,313.79,317.51,37.16,35.73,314.56,318.07,1.0
2018-08-24 15:09:00,89.51662,15.86582,1004.771,273.11,98.6,20.7,-11.58,6.9,-93.95,40.12,35.87,313.62,317.91,37.62,35.74,314.5,318.15,1.0
2018-08-24 15:09:00,89.51662,15.8658,1004.775,273.12,98.6,20.6,-11.97,6.2,-96.69,40.18,36.01,315.68,318.28,38.24,35.76,314.52,318.17,1.0
2018-08-24 15:09:00,89.51662,15.86577,1004.784,273.12,98.5,20.6,-11.51,5.62,-98.89,39.01,35.73,315.1,318.15,38.95,35.76,314.47,318.23,1.0
2018-08-24 15:09:00,89.51662,15.86581,1004.779,273.11,98.5,20.6,-10.76,5.2,-100.28,40.97,35.94,313.41,318.08,39.67,35.76,314.37,318.27,1.0
2018-08-24 15:09:00,89.51662,15.86587,1004.737,273.11,98.6,20.9,-10.65,4.97,-100.81,40.44,35.8,313.02,317.77,40.34,35.75,314.24,318.28,1.0
2018-08-24 15:09:00,89.51662,15.86592,1004.73,273.1,98.6,21.0,-11.1,4.87,-100.96,40.58,36.08,313.46,317.91,40.9,35.73,314.13,318.37,1.0
2018-08-24 15:09:00,89.51662,15.86598,1004.723,273.09,98.6,21.0,-11.33,4.53,-99.64,41.1,35.73,314.47,318.15,41.33,35.71,313.99,318.37,1.0
2018-08-24 15:09:00,89.51662,15.86604,1004.717,273.1,98.6,21.1,-10.91,4.24,-98.38,41.69,35.87,314.05,318.5,41.6,35.69,313.75,318.32,1.0
2018-08-24 15:09:00,89.51662,15.8661,1004.708,273.1,98.6,21.2,-10.46,3.91,-96.79,41.1,35.73,313.79,318.62,41.73,35.68,313.59,318.3,1.0
2018-08-24 15:09:00,89.51662,15.86615,1004.689,273.09,98.6,21.3,-10.14,3.63,-94.67,42.02,36.01,313.96,318.42,41.75,35.68,313.57,318.34,1.0
2018-08-24 15:09:00,89.51662,15.86621,1004.658,273.09,98.6,21.5,-9.68,3.64,-92.21,39.46,35.87,313.83,319.1,41.69,35.69,313.62,318.43,1.0
2018-08-24 15:09:00,89.51662,15.86627,1004.675,273.09,98.6,21.4,-10.67,3.19,-89.97,41.16,35.94,313.19,318.03,41.58,35.72,313.77,318.5,1.0
2018-08-24 15:09:00,89.51662,15.86632,1004.69,273.09,98.6,21.3,-11.34,3.12,-88.03,41.1,35.94,313.27,317.56,41.46,35.76,313.72,318.53,1.0
2018-08-24 15:09:00,89.51662,15.86638,1004.693,273.09,98.6,21.3,-12.28,3.03,-85.7,39.79,35.8,313.24,317.81,41.34,35.81,313.72,318.45,1.0
2018-08-24 15:09:00,89.51662,15.86644,1004.675,273.09,98.6,21.4,-13.11,3.17,-82.45,39.59,35.59,313.3,317.95,41.24,35.85,313.73,318.36,1.0
2018-08-24 15:09:00,89.51662,15.8665,1004.63,273.09,98.6,21.8,-13.08,3.83,-78.41,41.1,35.87,313.13,318.47,41.15,35.89,313.67,318.28,1.0
2018-08-24 15:09:00,89.51662,15.8665,1004.645,273.09,98.6,21.7,-11.31,4.34,-75.87,41.56,35.94,314.44,318.85,41.06,35.91,313.65,318.1,1.0
2018-08-24 15:09:00,89.51662,15.8665,1004.634,273.1,98.6,21.7,-7.76,5.17,-71.31,41.56,35.94,313.18,318.43,40.96,35.91,313.65,318.03,1.0
2018-08-24 15:09:00,89.51662,15.8665,1004.614,273.09,98.6,21.9,-5.87,5.8,-66.09,41.62,35.73,313.54,318.09,40.85,35.89,313.61,317.95,1.0
2018-08-24 15:09:00,89.51662,15.8665,1004.602,273.09,98.6,22.0,-4.54,6.26,-61.23,40.9,35.87,313.59,318.32,40.74,35.85,313.89,317.92,1.0
2018-08-24 15:09:00,89.51662,15.8665,1004.598,273.09,98.6,22.0,-2.88,6.6,-57.05,40.77,35.94,313.64,318.25,40.63,35.81,314.3,317.92,1.0
2018-08-24 15:09:00,89.51662,15.8665,1004.543,273.1,98.6,22.5,-1.47,6.77,-53.48,40.31,36.01,314.02,317.44,40.56,35.77,314.24,317.85,1.0
2018-08-24 15:09:00,89.51662,15.8665,1004.492,273.09,98.6,22.9,-3.05,6.84,-51.09,41.75,35.73,313.67,317.86,40.55,35.75,314.16,317.81,1.0
2018-08-24 15:09:00,89.51662,15.8665,1004.522,273.1,98.6,22.6,-3.68,6.92,-50.33,39.66,35.87,313.23,317.13,40.61,35.75,314.2,317.78,1.0
2018-08-24 15:09:00,89.51662,15.8665,1004.525,273.1,98.6,22.6,-3.99,7.03,-50.77,41.36,35.94,317.09,317.41,40.77,35.78,314.23,317.79,1.0
2018-08-24 15:09:00,89.51662,15.8665,1004.481,273.1,98.6,23.0,-4.17,7.15,-51.78,39.99,35.94,317.95,317.89,41.01,35.84,314.27,317.78,1.0
2018-08-24 15:09:00,89.51662,15.8665,1004.491,273.09,98.6,22.9,-4.08,7.23,-52.89,41.3,35.8,312.71,317.26,41.31,35.93,314.37,317.74,1.0
2018-08-24 15:09:00,89.51662,15.8665,1004.486,273.1,98.6,22.9,-3.18,7.01,-55.33,41.23,35.73,313.55,317.76,41.6,36.04,314.51,317.75,1.0
2018-08-24 15:09:00,89.51662,15.86647,1004.462,273.1,98.6,23.1,-2.08,6.34,-59.8,41.3,35.94,313.46,317.85,41.84,36.15,314.55,317.7,1.0
2018-08-24 15:09:00,89.51662,15.86642,1004.468,273.1,98.6,23.1,-2.03,5.97,-63.39,40.05,35.66,313.38,317.4,41.96,36.26,314.59,317.72,1.0
2018-08-24 15:09:00,89.51662,15.86636,1004.485,273.09,98.6,22.9,-2.87,5.61,-66.56,40.97,35.94,313.84,317.49,41.89,36.33,314.22,317.63,1.0
2018-08-24 15:09:00,89.51662,15.8663,1004.46,273.09,98.6,23.1,-3.85,4.88,-70.76,40.18,35.73,314.37,317.83,41.61,36.37,313.53,317.43,1.0
2018-08-24 15:09:00,89.51662,15.86625,1004.439,273.09,98.6,23.3,-3.7,4.58,-76.04,43.13,36.08,315.63,318.38,41.11,36.36,313.2,317.4,1.0
2018-08-24 15:09:00,89.51662,15.86619,1004.483,273.08,98.6,22.9,-4.42,3.7,-83.02,39.33,36.01,314.26,318.41,40.4,36.29,313.17,317.68,1.0
2018-08-24 15:09:00,89.51662,15.86614,1004.514,273.08,98.6,22.7,-6.29,2.38,-89.82,42.02,36.08,314.5,318.46,39.57,36.17,313.16,317.87,1.0
2018-08-24 15:09:00,89.51662,15.86608,1004.52,273.09,98.6,22.6,-8.65,1.93,-93.78,40.97,35.94,313.45,317.52,38.7,36.02,313.2,318.06,1.0
2018-08-24 15:09:00,89.51662,15.86602,1004.508,273.09,98.6,22.7,-10.68,2.89,-94.54,40.9,35.8,311.21,316.58,37.91,35.84,313.21,318.28,1.0
2018-08-24 15:09:00,89.51662,15.86597,1004.474,273.09,98.6,23.0,-11.53,4.05,-95.52,40.51,36.08,309.81,317.42,37.3,35.65,313.04,318.45,1.0
2018-08-24 15:09:00,89.51662,15.86591,1004.464,273.09,98.6,23.1,-9.7,3.66,-101.49,41.43,35.87,313.55,321.2,36.97,35.48,312.91,318.6,1.0
2018-08-24 15:09:00,89.51662,15.86585,1004.433,273.09,98.6,23.3,-10.83,2.52,-102.77,41.36,35.94,313.66,319.54,36.97,35.34,312.89,318.7,1.0
2018-08-24 15:09:00,89.51662,15.8658,1004.406,273.09,98.6,23.5,-12.6,2.12,-105.56,40.25,36.08,313.91,319.25,37.35,35.24,312.88,318.72,1.0
2018-08-24 15:09:00,89.51662,15.86574,1004.414,273.09,98.6,23.5,-13.58,2.11,-108.38,39.92,36.08,313.59,319.57,38.05,35.2,312.9,318.77,1.0
2018-08-24 15:09:00,89.51662,15.86568,1004.47,273.09,98.6,23.0,-13.19,1.75,-107.55,40.77,35.94,312.26,319.07,39.03,35.21,313.05,318.88,1.0
2018-08-24 15:09:00,89.51662,15.86565,1004.396,273.09,98.6,23.6,-12.08,2.86,-106.76,39.27,35.52,313.36,319.02,40.16,35.27,313.35,318.81,1.0
2018-08-24 15:09:00,89.51662,15.86563,1004.392,273.09,98.6,23.7,-12.72,2.83,-105.0,39.86,35.87,313.34,318.85,41.32,35.36,313.32,318.47,1.0
2018-08-24 15:09:00,89.51662,15.86561,1004.396,273.09,98.6,23.6,-13.94,3.3,-102.85,39.86,35.73,313.57,318.41,42.39,35.47,313.3,318.28,1.0
2018-08-24 15:09:00,89.51662,15.86559,1004.398,273.09,98.6,23.6,-14.48,3.73,-100.6,40.64,35.87,312.8,318.4,43.25,35.59,313.23,318.16,1.0
2018-08-24 15:09:00,89.51662,15.86557,1004.401,273.09,98.6,23.6,-14.02,3.87,-98.22,40.12,35.73,312.16,318.5,43.82,35.7,313.17,318.07,1.0
2018-08-24 15:09:00,89.51662,15.86555,1004.376,273.09,98.6,23.8,-13.75,4.57,-95.61,40.77,35.94,312.77,317.43,44.06,35.79,313.25,318.01,1.0
2018-08-24 15:09:00,89.51662,15.86553,1004.367,273.09,98.6,23.9,-13.45,4.52,-97.34,41.16,35.8,313.07,317.87,43.98,35.85,313.34,318.0,1.0
2018-08-24 15:09:00,89.51662,15.86551,1004.351,273.09,98.6,24.0,-14.27,4.93,-95.48,40.97,35.87,313.28,317.89,43.61,35.87,313.44,318.02,1.0
2018-08-24 15:09:00,89.51662,15.8655,1004.35,273.09,98.6,24.0,-15.48,5.45,-92.31,40.77,35.8,313.25,317.98,43.04,35.87,313.5,318.07,1.0
2018-08-24 15:09:00,89.51662,15.86548,1004.357,273.09,98.6,23.9,-16.57,5.97,-89.06,41.3,35.94,313.24,318.32,42.35,35.85,313.59,318.1,1.0
2018-08-24 15:09:00,89.51662,15.86553,1004.313,273.1,98.6,24.3,-17.21,6.53,-86.22,41.43,35.87,312.98,317.67,41.65,35.81,313.79,318.08,1.0
2018-08-24 15:09:00,89.51662,15.86559,1004.294,273.09,98.6,24.4,-17.6,7.3,-82.64,41.56,35.8,314.61,318.14,41.01,35.77,313.95,318.17,1.0
2018-08-24 15:09:00,89.51662,15.86565,1004.289,273.09,98.6,24.5,-15.84,7.75,-78.84,39.79,35.73,314.62,317.85,40.5,35.74,314.03,318.11,1.0
2018-08-24 15:09:00,89.51662,15.86571,1004.287,273.09,98.6,24.5,-13.55,8.18,-74.93,40.51,35.8,314.21,317.47,40.16,35.71,314.1,318.12,1.0
2018-08-24 15:09:00,89.51662,15.86577,1004.285,273.09,98.6,24.5,-11.39,8.45,-70.94,41.88,35.94,313.92,317.72,40.0,35.69,314.19,318.1,1.0
2018-08-24 15:09:00,89.51662,15.86583,1004.29,273.09,98.6,24.5,-9.38,8.45,-66.84,39.14,35.94,314.08,317.64,39.98,35.69,314.29,318.0,1.0
2018-08-24 15:09:00,89.51662,15.86589,1004.299,273.09,98.6,24.4,-7.04,8.55,-62.98,42.28,35.73,314.2,317.82,40.08,35.7,314.39,318.01,1.0
2018-08-24 15:09:00,89.51662,15.86595,1004.309,273.09,98.6,24.3,-5.5,8.51,-59.62,41.16,35.87,313.65,317.21,40.26,35.71,314.36,317.95,1.0
2018-08-24 15:09:00,89.51662,15.86601,1004.273,273.09,98.6,24.6,-5.18,8.58,-56.86,40.71,35.73,313.71,318.33,40.47,35.72,314.3,317.84,1.0
2018-08-24 15:09:00,89.51662,15.86607,1004.252,273.09,98.6,24.8,-5.02,8.51,-54.51,41.16,35.87,313.61,318.36,40.67,35.73,314.27,317.8,1.0
2018-08-24 15:09:00,89.51662,15.86614,1004.284,273.09,98.6,24.5,-4.83,8.34,-52.48,40.18,35.73,314.02,317.83,40.86,35.74,314.26,317.85,1.0
2018-08-24 15:09:00,89.51662,15.8662,1004.286,273.09,98.6,24.5,-5.53,8.5,-51.11,40.84,35.94,314.1,318.3,41.04,35.73,314.18,317.95,1.0
2018-08-24 15:09:00,89.51662,15.86625,1004.237,273.09,98.6,24.9,-6.44,8.26,-49.89,39.92,35.8,314.15,317.79,41.2,35.72,314.11,317.94,1.0
2018-08-24 15:09:00,89.51662,15.86631,1004.233,273.09,98.6,24.9,-6.51,8.22,-49.55,41.16,35.87,314.3,316.98,41.37,35.7,314.1,318.06,1.0
2018-08-24 15:09:00,89.51662,15.86637,1004.211,273.09,98.6,25.1,-7.12,8.12,-49.48,40.58,35.87,314.84,317.39,41.57,35.69,314.04,318.05,1.0
2018-08-24 15:09:00,89.51662,15.86642,1004.18,273.09,98.6,25.3,-8.04,8.13,-49.49,40.38,35.66,314.75,317.95,41.8,35.68,313.96,318.0,1.0
2018-08-24 15:09:00,89.51662,15.86648,1004.213,273.09,98.6,25.1,-8.5,8.43,-49.63,42.67,35.87,314.4,318.43,42.07,35.67,313.92,318.02,1.0
2018-08-24 15:09:00,89.51662,15.86654,1004.222,273.08,98.6,25.0,-8.17,8.29,-50.29,41.69,35.8,314.63,317.5,42.38,35.68,313.91,317.96,1.0
2018-08-24 15:09:00,89.51662,15.86659,1004.209,273.08,98.6,25.1,-8.25,8.15,-51.01,39.33,35.87,314.59,318.25,42.69,35.69,313.9,317.98,1.0
2018-08-24 15:09:00,89.51662,15.86665,1004.215,273.08,98.6,25.1,-8.32,8.06,-51.77,40.71,35.73,313.73,317.97,42.97,35.7,313.92,318.05,1.0
2018-08-24 15:09:00,89.51662,15.86671,1004.233,273.09,98.6,24.9,-8.22,8.02,-52.53,41.69,35.94,313.71,317.88,43.2,35.71,313.9,318.1,1.0
2018-08-24 15:09:00,89.51662,15.86676,1004.235,273.08,98.6,24.9,-7.68,8.0,-53.38,40.64,35.73,313.86,318.35,43.33,35.72,313.86,318.11,1.0
2018-08-24 15:09:00,89.51662,15.86682,1004.219,273.09,98.6,25.0,-6.38,7.97,-54.55,40.31,35.8,314.1,318.3,43.35,35.71,313.88,318.11,1.0
2018-08-24 15:09:00,89.51662,15.86688,1004.194,273.08,98.6,25.2,-7.52,7.99,-55.87,41.88,35.8,313.67,318.9,43.23,35.7,313.82,318.24,1.0
2018-08-24 15:09:00,89.51662,15.86691,1004.177,273.08,98.6,25.4,-7.15,7.89,-56.55,40.77,35.66,313.82,318.42,42.98,35.67,313.68,318.28,1.0
2018-08-24 15:09:00,89.51662,15.86693,1004.182,273.08,98.6,25.3,-6.57,7.81,-56.56,41.75,35.94,313.61,318.45,42.62,35.64,313.59,318.36,1.0
2018-08-24 15:09:00,89.51662,15.86694,1004.202,273.08,98.6,25.2,-6.62,7.86,-56.0,41.75,35.94,313.72,318.64,42.16,35.59,313.54,318.42,1.0
2018-08-24 15:09:00,89.51662,15.86696,1004.205,273.08,98.6,25.1,-7.38,8.14,-54.98,41.62,35.73,314.05,318.38,41.65,35.54,313.44,318.38,1.0
2018-08-24 15:09:00,89.51662,15.86697,1004.174,273.08,98.6,25.4,-7.56,8.2,-53.85,41.3,35.66,313.62,318.7,41.13,35.5,313.37,318.4,1.0
2018-08-24 15:09:00,89.51662,15.86699,1004.16,273.07,98.6,25.5,-7.38,8.67,-52.54,41.36,35.8,312.85,318.13,40.64,35.47,313.36,318.34,1.0
2018-08-24 15:09:00,89.51662,15.867,1004.151,273.07,98.6,25.6,-7.88,8.96,-51.07,41.49,35.8,313.02,318.41,40.23,35.46,313.36,318.31,1.0
2018-08-24 15:09:00,89.51662,15.86702,1004.149,273.07,98.6,25.6,-8.58,9.2,-49.56,42.34,35.87,313.54,318.27,39.92,35.46,313.41,318.26,1.0
2018-08-24 15:09:00,89.51662,15.86704,1004.165,273.07,98.6,25.4,-8.64,9.67,-48.12,40.77,35.8,313.18,317.6,39.74,35.48,313.49,318.17,1.0
2018-08-24 15:09:00,89.51662,15.86705,1004.146,273.07,98.6,25.6,-8.63,9.88,-46.98,40.18,35.8,313.58,318.06,39.7,35.52,313.56,318.14,1.0
2018-08-24 15:09:00,89.51662,15.86706,1004.107,273.07,98.6,25.9,-8.15,10.23,-45.19,42.28,35.73,313.8,317.6,39.8,35.58,313.71,318.03,1.0
2018-08-24 15:09:00,89.51662,15.86708,1004.106,273.07,98.6,25.9,-7.9,10.58,-43.1,39.53,35.66,313.92,317.84,40.02,35.64,313.93,317.96,1.0
2018-08-24 15:09:00,89.51662,15.8671,1004.114,273.07,98.6,25.8,-7.1,10.93,-40.93,41.43,35.59,314.23,317.7,40.34,35.7,314.09,317.86,1.0
2018-08-24 15:09:00,89.51662,15.86713,1004.099,273.07,98.6,26.0,-6.05,11.13,-40.2,41.1,35.73,313.81,317.39,40.73,35.74,314.17,317.81,1.0
2018-08-24 15:09:00,89.51662,15.86716,1004.074,273.06,98.6,26.2,-6.43,10.92,-43.6,41.88,35.8,313.8,317.87,41.12,35.77,314.25,317.85,1.0
2018-08-24 15:09:00,89.51663,15.86719,1004.076,273.07,98.6,26.2,-6.36,10.96,-41.37,41.3,35.73,314.35,317.57,41.49,35.77,314.24,317.76,1.0
2018-08-24 15:09:00,89.51663,15.86722,1004.071,273.07,98.6,26.2,-5.69,11.21,-39.48,40.97,35.87,314.41,317.63,41.78,35.74,314.19,317.74,1.0
2018-08-24 15:09:00,89.51663,15.86725,1004.072,273.07,98.6,26.2,-5.3,11.21,-37.74,40.71,35.73,314.26,317.29,41.96,35.67,314.13,317.68,1.0
2018-08-24 15:09:00,89.51663,15.86728,1004.07,273.07,98.6,26.2,-5.45,11.12,-35.98,40.51,35.8,314.25,317.56,41.99,35.58,314.06,317.63,1.0
2018-08-24 15:09:00,89.51663,15.86732,1004.036,273.07,98.6,26.5,-5.88,11.21,-34.08,41.95,35.66,314.23,318.21,41.87,35.46,314.0,317.62,1.0
2018-08-24 15:09:00,89.51663,15.86734,1004.031,273.07,98.6,26.5,-5.32,10.76,-32.44,41.16,35.87,313.86,317.39,41.59,35.32,313.98,317.52,1.0
2018-08-24 15:09:00,89.51663,15.86738,1004.03,273.07,98.6,26.5,-5.27,10.58,-32.08,41.03,35.8,314.03,318.07,41.18,35.17,313.93,317.52,1.0
2018-08-24 15:09:00,89.51663,15.86741,1004.032,273.07,98.6,26.5,-6.02,10.12,-32.06,41.49,35.8,314.54,318.02,40.68,35.02,313.95,317.55,1.0
2018-08-24 15:09:00,89.51663,15.86744,1004.029,273.07,98.6,26.5,-6.95,9.37,-33.83,40.97,35.73,314.4,318.23,40.13,34.88,314.01,317.62,1.0
2018-08-24 15:09:00,89.51663,15.86747,1004.02,273.07,98.6,26.6,-7.41,8.49,-37.69,41.16,35.59,314.39,318.29,39.59,34.77,314.09,317.67,1.0
2018-08-24 15:09:00,89.51663,15.8675,1004.018,273.07,98.6,26.6,-6.74,7.79,-41.33,41.75,35.59,314.29,317.84,39.09,34.69,314.25,317.61,1.0
2018-08-24 15:09:00,89.51663,15.86753,1003.991,273.07,98.6,26.8,-7.5,6.96,-44.25,40.77,35.73,314.25,318.35,38.68,34.65,314.25,317.69,1.0
2018-08-24 15:09:00,89.51663,15.86756,1003.994,273.07,98.6,26.8,-8.07,6.22,-46.66,40.64,35.66,314.91,318.1,38.38,34.66,314.23,317.73,1.0
2018-08-24 15:09:00,89.51663,15.86764,1003.995,273.07,98.6,26.8,-8.82,5.61,-48.79,41.1,35.38,314.67,318.46,38.19,34.71,314.17,317.77,1.0
2018-08-24 15:09:00,89.51663,15.86775,1003.976,273.06,98.6,26.9,-9.64,5.19,-50.59,41.23,35.73,314.62,318.18,38.11,34.81,314.05,317.82,1.0
2018-08-24 15:09:00,89.51663,15.86786,1003.972,273.07,98.6,27.0,-10.1,4.9,-52.0,42.74,35.45,315.03,317.12,38.11,34.94,313.86,317.84,1.0
2018-08-24 15:09:00,89.51663,15.86797,1003.976,273.06,98.6,26.9,-9.7,4.98,-53.53,41.03,35.73,313.14,317.6,38.17,35.09,313.61,317.84,1.0
2018-08-24 15:09:00,89.51663,15.86809,1003.982,273.07,98.6,26.9,-9.57,4.74,-54.67,37.76,35.59,313.42,317.23,38.25,35.26,313.49,317.81,1.0
2018-08-24 15:09:00,89.51663,15.8682,1003.987,273.07,98.6,26.9,-9.8,4.74,-55.59,40.31,35.45,313.18,317.53,38.34,35.43,313.35,317.73,1.0
2018-08-24 15:09:00,89.51663,15.86831,1003.987,273.06,98.6,26.9,-10.14,4.89,-56.27,41.95,35.31,313.16,317.74,38.42,35.59,313.23,317.62,1.0
2018-08-24 15:09:00,89.51662,15.86842,1003.979,273.07,98.6,26.9,-10.31,5.03,-56.65,37.96,35.38,312.44,318.06,38.5,35.73,313.15,317.55,1.0
2018-08-24 15:09:00,89.51662,15.86854,1003.991,273.07,98.6,26.8,-9.9,5.7,-56.98,41.3,35.59,312.04,317.38,38.6,35.83,313.04,317.56,1.0
2018-08-24 15:09:00,89.51662,15.86863,1003.983,273.07,98.6,26.9,-9.73,5.98,-56.84,41.43,35.31,313.71,318.23,38.74,35.9,313.13,317.58,1.0
2018-08-24 15:09:00,89.51662,15.86871,1003.954,273.06,98.6,27.1,-9.43,6.69,-56.6,40.58,35.66,313.93,317.59,38.96,35.93,313.24,317.59,1.0
2018-08-24 15:09:00,89.51662,15.8688,1003.951,273.06,98.6,27.1,-8.96,7.37,-55.68,41.69,35.73,313.79,317.68,39.27,35.93,313.37,317.63,1.0
2018-08-24 15:09:00,89.51662,15.86888,1003.991,273.07,98.6,26.8,-8.11,7.96,-53.92,40.77,35.66,314.04,317.77,39.68,35.89,313.57,317.68,1.0
