Date/Time,Latitude,Longitude,PPPP [hPa],TTT grad [K],RH [%],Height [m],Pitch [deg],Roll [deg],Yaw [deg],SWD [W/m**2] (raw),SWU [W/m**2] (raw),LWD [W/m**2] (raw),LWU [W/m**2] (raw),SWD [W/m**2] (corrected),SWU [W/m**2] (corrected),LWD [W/m**2] (corrected),LWU [W/m**2] (corrected),Flag
2018-08-24 15:35:00,89.52102,16.68081,928.89,270.37,100.0,642.0,11.34,-0.65,-50.86,39.72,34.14,304.43,306.63,38.09,34.12,304.56,305.96,1.0
2018-08-24 15:35:00,89.52102,16.68081,928.99,270.37,100.0,641.2,10.99,-0.49,-50.65,39.72,34.21,304.34,306.59,37.85,34.11,304.66,306.09,1.0
2018-08-24 15:35:00,89.52102,16.68081,928.947,270.36,100.0,641.5,10.94,-0.6,-50.22,38.94,34.0,304.42,305.4,37.76,34.1,304.75,306.19,1.0
2018-08-24 15:35:00,89.52102,16.68081,928.95,270.37,100.0,641.5,10.66,-0.51,-50.07,39.33,34.07,305.06,306.14,37.81,34.08,304.82,306.28,1.0
2018-08-24 15:35:00,89.52102,16.68081,928.947,270.37,100.0,641.5,10.98,-0.51,-50.28,39.33,34.21,304.96,306.82,38.02,34.06,304.82,306.35,1.0
2018-08-24 15:35:00,89.52102,16.68081,928.935,270.37,100.0,641.6,11.5,-0.52,-50.45,38.74,34.21,305.03,306.61,38.33,34.02,304.73,306.39,1.0
2018-08-24 15:35:00,89.52102,16.68081,928.955,270.36,100.0,641.5,11.62,-0.41,-50.16,39.27,34.14,305.1,306.85,38.7,33.97,304.6,306.42,1.0
2018-08-24 15:35:00,89.52102,16.68081,928.979,270.36,100.0,641.2,11.89,-0.59,-49.79,38.94,34.21,304.84,306.65,39.07,33.92,304.66,306.38,1.0
2018-08-24 15:35:00,89.52102,16.68081,928.957,270.37,100.0,641.4,13.46,-0.64,-49.69,38.94,34.42,304.37,306.52,39.38,33.85,304.64,306.49,1.0
2018-08-24 15:35:00,89.52102,16.68081,928.949,270.37,100.0,641.5,13.43,-0.6,-49.22,39.53,34.14,304.52,306.43,39.58,33.8,304.55,306.44,1.0
2018-08-24 15:35:00,89.52102,16.68081,928.966,270.37,100.0,641.4,13.02,-0.53,-48.88,38.68,34.21,303.57,306.96,39.65,33.76,304.45,306.36,1.0
2018-08-24 15:35:00,89.52102,16.68081,928.987,270.37,100.0,641.2,12.88,-0.46,-48.93,39.27,34.0,302.94,306.88,39.58,33.74,304.36,306.31,1.0
2018-08-24 15:35:00,89.52102,16.68081,928.957,270.37,100.0,641.4,11.88,-0.28,-49.01,39.33,34.14,305.19,305.84,39.4,33.75,304.28,306.2,1.0
2018-08-24 15:35:00,89.52102,16.68081,928.964,270.37,100.0,641.4,9.92,-0.44,-49.06,39.07,34.0,304.17,306.24,39.15,33.8,304.18,306.24,1.0
2018-08-24 15:35:00,89.52102,16.68081,928.981,270.37,100.0,641.2,8.26,-0.45,-49.3,40.18,34.21,304.43,305.51,38.88,33.87,304.14,306.24,1.0
2018-08-24 15:35:00,89.52102,16.68081,928.982,270.37,100.0,641.2,7.69,-0.49,-49.5,39.46,34.0,304.34,305.69,38.64,33.96,304.15,306.21,1.0
2018-08-24 15:35:00,89.52102,16.68081,928.953,270.36,100.0,641.5,8.33,-0.54,-49.62,38.68,34.14,304.62,306.08,38.48,34.06,304.26,306.16,1.0
2018-08-24 15:35:00,89.52102,16.68081,928.916,270.36,100.0,641.8,9.11,-0.46,-49.79,39.14,34.07,304.27,305.73,38.43,34.16,304.4,306.14,1.0
2018-08-24 15:35:00,89.52102,16.68081,928.907,270.36,100.0,641.9,9.33,-0.6,-49.73,38.74,33.93,303.57,307.02,38.48,34.26,304.33,306.35,1.0
2018-08-24 15:35:00,89.52102,16.68081,928.96,270.37,100.0,641.4,9.03,-0.55,-49.38,39.07,34.28,304.15,306.36,38.62,34.33,304.32,306.41,1.0
2018-08-24 15:35:00,89.52102,16.68081,928.95,270.37,100.0,641.5,9.46,-0.51,-49.29,39.59,34.07,304.44,306.62,38.82,34.38,304.32,306.54,1.0
2018-08-24 15:35:00,89.52102,16.68081,928.916,270.37,100.0,641.8,10.11,-0.58,-49.34,39.01,34.21,304.44,306.52,39.02,34.4,304.32,306.64,1.0
2018-08-24 15:35:00,89.52102,16.68081,928.962,270.37,100.0,641.4,10.44,-0.72,-49.38,39.27,34.21,304.29,307.04,39.2,34.4,304.31,306.68,1.0
2018-08-24 15:36:00,89.52102,16.68081,928.961,270.37,100.0,641.4,11.14,-0.55,-49.73,38.15,34.07,303.86,308.01,39.31,34.39,304.29,306.77,1.0
2018-08-24 15:36:00,89.52102,16.68081,928.945,270.37,100.0,641.5,10.22,-0.45,-50.02,39.46,34.14,304.2,306.92,39.34,34.35,304.33,306.65,1.0
2018-08-24 15:36:00,89.52102,16.68081,928.952,270.37,100.0,641.5,9.23,-0.36,-50.38,39.33,34.21,304.36,306.62,39.29,34.31,304.37,306.62,1.0
2018-08-24 15:36:00,89.52102,16.68081,928.954,270.37,100.0,641.5,8.72,-0.29,-50.66,38.81,34.21,304.25,306.17,39.19,34.28,304.38,306.62,1.0
2018-08-24 15:36:00,89.52102,16.68081,928.938,270.37,100.0,641.6,9.06,-0.26,-50.82,39.07,34.0,304.43,305.71,39.06,34.24,304.36,306.6,1.0
2018-08-24 15:36:00,89.52102,16.68082,928.948,270.37,100.0,641.5,10.42,-0.25,-50.95,39.92,34.21,304.34,305.77,38.96,34.2,304.37,306.53,1.0
2018-08-24 15:36:00,89.52102,16.68082,928.93,270.37,100.0,641.7,8.61,-0.29,-51.37,39.4,34.14,304.46,304.92,38.93,34.17,304.4,306.33,1.0
2018-08-24 15:36:00,89.52102,16.68082,928.943,270.36,100.0,641.6,8.59,-0.1,-51.62,38.94,34.28,304.93,305.5,38.99,34.14,304.42,306.24,1.0
2018-08-24 15:36:00,89.52102,16.68082,928.941,270.36,100.0,641.6,7.89,-0.04,-51.72,38.87,34.21,304.78,305.83,39.15,34.1,304.44,306.16,1.0
2018-08-24 15:36:00,89.52102,16.68082,928.925,270.37,100.0,641.7,6.28,-0.06,-51.81,39.14,34.14,304.43,305.89,39.41,34.06,304.51,306.12,1.0
2018-08-24 15:36:00,89.52102,16.68082,928.946,270.37,100.0,641.5,4.78,0.05,-51.97,38.74,34.21,304.34,306.35,39.74,34.01,304.63,306.13,1.0
2018-08-24 15:36:00,89.52102,16.68082,928.989,270.37,100.0,641.2,3.66,-0.04,-51.79,39.27,34.14,304.34,306.61,40.08,33.96,304.72,306.18,1.0
2018-08-24 15:36:00,89.52102,16.68082,928.944,270.37,100.0,641.5,4.07,0.16,-51.62,38.74,34.21,304.2,306.71,40.38,33.91,304.81,306.31,1.0
2018-08-24 15:36:00,89.52102,16.68082,928.936,270.37,100.0,641.6,4.97,0.19,-51.43,39.07,34.14,304.2,306.64,40.6,33.87,304.82,306.4,1.0
2018-08-24 15:36:00,89.52102,16.68082,928.978,270.36,100.0,641.3,6.12,0.13,-51.05,39.59,34.14,304.85,306.55,40.69,33.85,304.81,306.49,1.0
2018-08-24 15:36:00,89.52102,16.68082,928.994,270.37,100.0,641.1,7.12,0.15,-50.58,38.87,34.14,305.3,306.77,40.63,33.85,304.82,306.58,1.0
2018-08-24 15:36:00,89.52102,16.68082,928.935,270.37,100.0,641.6,7.55,0.15,-50.45,39.53,34.21,305.17,306.73,40.42,33.87,304.83,306.6,1.0
2018-08-24 15:36:00,89.52102,16.68082,928.927,270.37,100.0,641.7,6.45,0.01,-50.56,39.07,34.07,305.02,306.73,40.07,33.93,304.81,306.68,1.0
2018-08-24 15:36:00,89.52102,16.68082,928.922,270.37,100.0,641.7,5.16,0.04,-50.68,39.53,34.14,305.2,306.6,39.64,34.01,304.8,306.74,1.0
2018-08-24 15:36:00,89.52102,16.68082,928.94,270.37,100.0,641.6,4.44,0.01,-50.15,40.25,34.21,304.82,306.78,39.15,34.12,304.79,306.79,1.0
2018-08-24 15:36:00,89.52102,16.68082,928.961,270.37,100.0,641.4,4.17,0.01,-49.35,39.92,34.0,304.55,306.31,38.68,34.24,304.74,306.82,1.0
2018-08-24 15:36:00,89.52102,16.68082,928.9,270.36,100.0,641.9,3.81,0.27,-49.24,38.87,34.0,304.59,305.73,38.27,34.37,304.66,306.81,1.0
2018-08-24 15:36:00,89.52102,16.68082,928.942,270.36,100.0,641.6,4.17,0.15,-49.42,38.87,34.14,304.46,306.35,37.94,34.5,304.59,306.79,1.0
2018-08-24 15:36:00,89.52102,16.68082,928.938,270.36,100.0,641.6,4.53,0.25,-49.4,39.33,34.28,304.32,306.42,37.73,34.6,304.54,306.76,1.0
2018-08-24 15:36:00,89.52102,16.68082,928.912,270.36,100.0,641.8,5.63,0.29,-49.44,39.53,34.07,304.42,306.81,37.64,34.67,304.52,306.72,1.0
2018-08-24 15:36:00,89.52102,16.68082,928.899,270.36,100.0,641.9,6.94,0.31,-49.6,38.74,34.21,304.42,306.42,37.66,34.7,304.53,306.68,1.0
2018-08-24 15:36:00,89.52102,16.68082,928.92,270.36,100.0,641.7,7.6,0.35,-49.81,38.87,34.21,304.42,306.71,37.77,34.69,304.54,306.66,1.0
2018-08-24 15:36:00,89.52102,16.68082,928.939,270.37,100.0,641.6,6.51,0.35,-49.89,39.66,34.14,304.6,306.52,37.94,34.63,304.55,306.71,1.0
2018-08-24 15:36:00,89.52102,16.68082,928.93,270.36,100.0,641.7,6.44,0.39,-49.7,38.94,34.28,304.29,306.5,38.15,34.53,304.57,306.7,1.0
2018-08-24 15:36:00,89.52102,16.68082,928.945,270.37,100.0,641.5,6.61,0.4,-49.7,38.68,34.14,304.4,306.46,38.37,34.41,304.59,306.69,1.0
2018-08-24 15:36:00,89.52102,16.68082,928.959,270.37,100.0,641.4,6.79,0.37,-49.53,38.87,34.35,304.24,306.42,38.6,34.26,304.58,306.68,1.0
2018-08-24 15:36:00,89.52102,16.68082,928.947,270.37,100.0,641.5,6.79,0.37,-49.11,39.86,34.28,304.42,306.8,38.84,34.11,304.56,306.68,1.0
2018-08-24 15:36:00,89.52102,16.68082,928.926,270.37,100.0,641.7,6.46,0.45,-48.69,38.94,34.35,304.34,306.62,39.07,33.96,304.52,306.67,1.0
2018-08-24 15:36:00,89.52102,16.68082,928.889,270.37,100.0,642.0,6.76,0.33,-48.27,39.27,34.21,304.42,306.72,39.3,33.82,304.47,306.59,1.0
2018-08-24 15:36:00,89.52102,16.68082,928.917,270.36,100.0,641.8,5.74,0.45,-48.07,38.68,34.21,304.42,306.71,39.54,33.71,304.42,306.51,1.0
2018-08-24 15:36:00,89.52102,16.68082,928.929,270.36,100.0,641.7,3.99,0.58,-47.87,38.55,34.21,304.33,306.71,39.77,33.63,304.37,306.41,1.0
2018-08-24 15:36:00,89.52102,16.68082,928.908,270.36,100.0,641.8,2.31,0.62,-47.63,38.68,34.14,304.42,306.71,40.0,33.58,304.32,306.32,1.0
2018-08-24 15:36:00,89.52102,16.68082,928.91,270.36,100.0,641.8,1.41,0.53,-47.43,39.14,34.28,304.4,306.6,40.19,33.56,304.3,306.22,1.0
2018-08-24 15:36:00,89.52102,16.68081,928.913,270.36,100.0,641.8,1.22,0.35,-47.39,39.99,34.14,304.44,305.9,40.35,33.57,304.29,306.16,1.0
2018-08-24 15:36:00,89.52102,16.68081,928.946,270.37,100.0,641.5,1.85,0.16,-47.3,38.87,34.21,304.39,305.86,40.44,33.6,304.3,306.12,1.0
2018-08-24 15:36:00,89.52102,16.68081,928.965,270.37,100.0,641.4,2.82,0.21,-47.31,38.55,34.07,304.42,305.82,40.44,33.64,304.33,306.1,1.0
2018-08-24 15:36:00,89.52102,16.68081,928.961,270.37,100.0,641.4,3.35,0.16,-47.52,39.92,34.0,304.52,305.77,40.34,33.7,304.35,306.15,1.0
2018-08-24 15:36:00,89.52102,16.68081,928.948,270.36,100.0,641.5,2.97,-0.12,-47.76,39.14,34.0,304.42,306.11,40.14,33.78,304.37,306.25,1.0
2018-08-24 15:36:00,89.52102,16.68081,928.995,270.36,100.0,641.1,2.01,-0.14,-47.39,39.59,34.21,304.42,306.03,39.86,33.86,304.47,306.3,1.0
2018-08-24 15:36:00,89.52102,16.68081,928.966,270.36,100.0,641.3,2.23,-0.12,-47.73,39.07,34.07,304.34,306.3,39.5,33.94,304.49,306.39,1.0
2018-08-24 15:36:00,89.52102,16.68081,928.954,270.36,100.0,641.5,1.74,0.09,-47.95,39.14,34.28,304.43,306.41,39.11,34.03,304.56,306.45,1.0
2018-08-24 15:36:00,89.52102,16.68081,928.961,270.36,100.0,641.4,0.7,0.14,-47.9,38.94,34.14,304.21,307.31,38.71,34.11,304.63,306.5,1.0
2018-08-24 15:36:00,89.52102,16.6808,928.974,270.36,100.0,641.3,-0.27,-0.02,-47.77,40.38,34.0,304.13,307.51,38.35,34.2,304.66,306.54,1.0
2018-08-24 15:36:00,89.52102,16.6808,928.967,270.37,100.0,641.3,-0.39,-0.17,-47.94,38.74,33.93,305.0,307.03,38.06,34.27,304.67,306.58,1.0
2018-08-24 15:36:00,89.52102,16.6808,928.964,270.36,100.0,641.4,0.8,-0.44,-47.76,39.14,34.07,304.31,306.92,37.85,34.33,304.66,306.59,1.0
2018-08-24 15:36:00,89.52102,16.6808,928.98,270.36,100.0,641.2,0.48,-0.16,-47.73,39.72,34.35,304.88,306.82,37.76,34.38,304.63,306.59,1.0
2018-08-24 15:36:00,89.52102,16.6808,928.959,270.36,100.0,641.4,-0.76,-0.18,-47.14,39.14,34.0,304.93,306.64,37.78,34.41,304.6,306.59,1.0
2018-08-24 15:36:00,89.52102,16.6808,928.932,270.36,100.0,641.6,-1.86,-0.27,-46.66,38.94,34.14,305.1,306.63,37.9,34.43,304.61,306.54,1.0
2018-08-24 15:36:00,89.52102,16.68079,928.971,270.36,100.0,641.3,-2.07,-0.15,-46.96,38.74,34.14,304.96,306.69,38.1,34.42,304.63,306.46,1.0
2018-08-24 15:36:00,89.52102,16.68078,929.015,270.36,100.0,640.9,-1.85,-0.44,-47.42,38.94,34.14,304.7,306.29,38.37,34.4,304.57,306.45,1.0
2018-08-24 15:36:00,89.52102,16.68076,929.024,270.36,100.0,640.9,-3.14,-0.12,-47.71,39.46,34.14,304.65,306.59,38.66,34.36,304.61,306.45,1.0
2018-08-24 15:36:00,89.52102,16.68075,928.982,270.36,100.0,641.2,-2.41,-0.06,-47.77,38.55,34.14,304.49,306.74,38.96,34.31,304.57,306.51,1.0
2018-08-24 15:36:00,89.52102,16.68074,928.943,270.36,100.0,641.5,-0.29,0.02,-47.75,39.07,34.28,304.42,306.8,39.24,34.25,304.51,306.53,1.0
2018-08-24 15:36:00,89.52102,16.68073,928.944,270.37,100.0,641.5,2.0,0.14,-47.8,38.61,34.14,304.52,306.6,39.48,34.19,304.46,306.49,1.0
2018-08-24 15:36:00,89.52102,16.68072,928.932,270.37,100.0,641.6,3.19,-0.06,-48.04,38.87,34.28,304.42,306.6,39.67,34.12,304.4,306.48,1.0
2018-08-24 15:36:00,89.52102,16.68071,928.956,270.36,100.0,641.4,2.14,0.22,-48.15,39.72,34.14,304.41,306.6,39.78,34.05,304.35,306.41,1.0
2018-08-24 15:36:00,89.52102,16.6807,928.936,270.36,100.0,641.6,1.22,0.23,-47.65,39.27,34.21,304.54,306.7,39.84,33.97,304.31,306.36,1.0
2018-08-24 15:36:00,89.52102,16.68069,928.946,270.36,100.0,641.5,1.59,0.25,-47.3,38.74,34.28,304.27,306.15,39.83,33.89,304.29,306.34,1.0
2018-08-24 15:36:00,89.52102,16.68068,928.994,270.37,100.0,641.1,2.33,0.28,-47.01,39.46,34.0,304.31,305.94,39.77,33.8,304.27,306.32,1.0
2018-08-24 15:36:00,89.52102,16.68067,929.009,270.36,100.0,641.0,1.99,0.25,-46.4,39.27,34.21,304.32,306.7,39.66,33.71,304.27,306.31,1.0
2018-08-24 15:36:00,89.52102,16.68066,928.977,270.36,100.0,641.3,1.92,0.37,-46.27,38.94,34.14,304.51,305.84,39.51,33.63,304.29,306.31,1.0
2018-08-24 15:36:00,89.52102,16.68065,928.964,270.37,100.0,641.4,0.11,0.23,-46.34,38.74,34.07,304.32,306.43,39.35,33.55,304.32,306.34,1.0
2018-08-24 15:36:00,89.52102,16.68064,928.978,270.37,100.0,641.2,-0.05,0.16,-46.79,39.72,34.14,304.33,306.41,39.17,33.5,304.37,306.34,1.0
2018-08-24 15:36:00,89.52102,16.68062,929.001,270.36,100.0,641.0,1.17,0.28,-47.28,38.15,34.07,304.43,306.51,38.99,33.48,304.46,306.39,1.0
2018-08-24 15:36:00,89.52102,16.6806,929.008,270.36,100.0,641.0,2.41,0.48,-47.53,39.07,34.14,304.32,306.41,38.83,33.5,304.58,306.47,1.0
2018-08-24 15:36:00,89.52102,16.68057,928.97,270.36,100.0,641.3,1.54,0.24,-47.63,40.31,34.14,304.5,306.5,38.68,33.55,304.64,306.53,1.0
2018-08-24 15:36:00,89.52102,16.68054,928.979,270.36,100.0,641.2,1.02,0.45,-47.6,39.33,34.14,304.33,306.41,38.57,33.64,304.67,306.65,1.0
2018-08-24 15:36:00,89.52102,16.68052,928.953,270.37,100.0,641.5,0.98,0.47,-47.6,39.4,34.28,304.42,306.5,38.51,33.77,304.65,306.69,1.0
2018-08-24 15:36:00,89.52102,16.68049,928.948,270.37,100.0,641.5,1.14,0.44,-47.52,38.48,33.93,304.82,306.72,38.5,33.91,304.61,306.67,1.0
2018-08-24 15:36:00,89.52102,16.68047,928.984,270.36,100.0,641.2,1.0,0.41,-47.37,38.87,33.72,305.08,306.07,38.54,34.06,304.55,306.65,1.0
2018-08-24 15:36:00,89.52102,16.68044,928.938,270.36,100.0,641.6,-0.08,0.38,-47.24,39.27,33.93,304.42,306.35,38.65,34.19,304.49,306.62,1.0
2018-08-24 15:36:00,89.52102,16.68041,928.986,270.36,100.0,641.2,0.08,0.47,-46.94,39.53,34.0,304.58,307.05,38.81,34.3,304.44,306.6,1.0
2018-08-24 15:36:00,89.52102,16.68039,928.975,270.36,100.0,641.3,-0.21,0.42,-47.05,37.96,34.0,304.2,306.45,39.03,34.37,304.4,306.59,1.0
2018-08-24 15:36:00,89.52102,16.68036,928.983,270.36,100.0,641.2,-0.43,0.33,-46.83,39.33,34.21,304.32,306.49,39.27,34.39,304.39,306.6,1.0
2018-08-24 15:36:00,89.52102,16.68033,929.013,270.36,100.0,640.9,0.0,0.39,-46.51,39.14,34.14,304.7,306.58,39.53,34.37,304.37,306.64,1.0
2018-08-24 15:36:00,89.52102,16.6803,929.016,270.36,100.0,640.9,1.21,0.61,-46.47,39.33,34.14,304.43,306.58,39.78,34.32,304.35,306.7,1.0
2018-08-24 15:36:00,89.52102,16.68028,929.034,270.36,100.0,640.8,2.07,0.44,-46.52,38.61,34.21,304.43,306.68,39.98,34.23,304.38,306.73,1.0
2018-08-24 15:36:00,89.52102,16.68025,929.003,270.37,100.0,641.0,2.62,0.37,-46.44,38.81,34.0,304.62,306.48,40.11,34.14,304.42,306.73,1.0
2018-08-24 15:36:00,89.52102,16.68022,929.001,270.36,100.0,641.0,2.64,0.27,-46.27,39.33,34.21,304.51,306.59,40.15,34.05,304.46,306.62,1.0
2018-08-24 15:36:00,89.52102,16.68019,928.998,270.36,100.0,641.1,2.61,0.2,-46.05,39.4,34.0,304.42,306.59,40.07,33.98,304.48,306.58,1.0
2018-08-24 15:36:00,89.52102,16.68016,928.975,270.36,100.0,641.3,3.24,0.18,-45.8,40.31,34.14,304.43,306.58,39.89,33.93,304.48,306.63,1.0
2018-08-24 15:36:00,89.52102,16.68014,929.026,270.36,100.0,640.8,5.44,0.14,-45.54,38.94,34.14,304.43,306.77,39.6,33.91,304.46,306.58,1.0
2018-08-24 15:36:00,89.52102,16.68011,928.982,270.36,100.0,641.2,6.36,0.18,-45.55,38.42,34.14,304.42,306.68,39.24,33.91,304.43,306.52,1.0
2018-08-24 15:36:00,89.52102,16.68008,928.994,270.36,100.0,641.1,6.79,0.14,-45.28,39.46,34.21,304.2,305.29,38.83,33.92,304.37,306.46,1.0
2018-08-24 15:36:00,89.52102,16.68005,929.011,270.36,100.0,641.0,6.31,-0.02,-45.3,38.68,33.93,304.18,305.72,38.43,33.95,304.31,306.4,1.0
2018-08-24 15:36:00,89.52102,16.68002,929.01,270.36,100.0,641.0,5.21,-0.18,-45.69,39.07,34.0,303.94,307.09,38.08,33.98,304.2,306.39,1.0
2018-08-24 15:36:00,89.52102,16.68,929.041,270.36,100.0,640.7,4.32,-0.02,-46.23,39.92,33.93,304.33,306.57,37.83,33.99,304.03,306.42,1.0
2018-08-24 15:36:00,89.52102,16.67997,929.04,270.36,100.0,640.7,3.71,0.03,-46.56,39.2,34.0,304.33,306.68,37.71,34.0,303.98,306.49,1.0
2018-08-24 15:36:00,89.52102,16.67994,929.02,270.37,100.0,640.9,3.99,0.11,-46.86,39.59,34.14,304.33,306.57,37.75,33.99,303.97,306.53,1.0
2018-08-24 15:36:00,89.52102,16.67991,929.011,270.37,100.0,641.0,5.63,0.19,-46.98,38.87,34.14,304.52,306.57,37.95,33.97,304.05,306.59,1.0
2018-08-24 15:36:00,89.52102,16.67988,929.002,270.36,100.0,641.0,7.35,0.23,-46.91,38.94,34.21,303.58,306.85,38.27,33.94,304.13,306.58,1.0
2018-08-24 15:36:00,89.52102,16.67986,928.975,270.36,100.0,641.3,8.21,0.19,-46.78,39.01,34.14,303.19,307.18,38.69,33.91,304.16,306.48,1.0
2018-08-24 15:36:00,89.52102,16.67983,928.988,270.36,100.0,641.2,8.5,0.05,-46.78,38.74,34.21,303.97,307.26,39.15,33.89,304.19,306.33,1.0
2018-08-24 15:36:00,89.52102,16.6798,928.995,270.36,100.0,641.1,7.66,0.19,-46.82,39.01,34.21,304.18,306.49,39.6,33.86,304.21,306.27,1.0
2018-08-24 15:36:00,89.52102,16.67977,929.001,270.36,100.0,641.0,7.63,0.31,-47.27,38.61,34.07,304.87,305.42,39.97,33.85,304.16,306.17,1.0
2018-08-24 15:36:00,89.52102,16.67974,929.016,270.36,100.0,640.9,7.31,0.39,-47.64,38.55,33.79,304.4,305.51,40.21,33.83,304.09,306.06,1.0
2018-08-24 15:36:00,89.52102,16.67972,929.031,270.36,100.0,640.8,6.49,0.4,-47.69,38.42,33.93,304.03,306.03,40.28,33.82,304.09,305.94,1.0
2018-08-24 15:36:00,89.52102,16.67969,928.976,270.36,100.0,641.2,5.88,0.28,-47.46,39.79,33.79,304.23,305.11,40.19,33.81,304.18,305.83,1.0
2018-08-24 15:36:00,89.52102,16.67966,928.987,270.36,100.0,641.2,5.8,0.36,-47.15,39.33,34.0,304.43,306.34,39.93,33.79,304.19,305.74,1.0
2018-08-24 15:36:00,89.52102,16.67963,929.017,270.36,100.0,640.9,5.79,0.36,-46.8,39.59,34.21,303.71,306.17,39.54,33.78,304.24,305.75,1.0
2018-08-24 15:36:00,89.52102,16.6796,929.04,270.36,100.0,640.7,5.22,0.33,-46.56,39.72,34.21,303.83,305.79,39.06,33.77,304.22,305.84,1.0
2018-08-24 15:36:00,89.52102,16.67958,929.052,270.36,100.0,640.6,4.85,0.28,-46.32,38.74,34.21,303.78,306.31,38.55,33.78,304.27,305.95,1.0
2018-08-24 15:36:00,89.52102,16.67955,929.06,270.36,100.0,640.5,5.66,0.24,-45.95,39.79,34.0,303.9,306.55,38.06,33.8,304.42,306.07,1.0
2018-08-24 15:36:00,89.52102,16.67952,929.029,270.36,100.0,640.8,8.2,0.18,-45.76,39.01,34.14,304.05,306.49,37.66,33.85,304.44,306.29,1.0
2018-08-24 15:36:00,89.52102,16.67949,929.036,270.36,100.0,640.7,8.68,0.26,-45.44,38.87,33.93,304.33,306.32,37.38,33.93,304.48,306.4,1.0
2018-08-24 15:36:00,89.52102,16.67946,929.005,270.36,100.0,641.0,8.94,0.15,-45.22,39.66,34.14,304.0,305.55,37.24,34.03,304.54,306.48,1.0
2018-08-24 15:36:00,89.52102,16.67943,929.001,270.36,100.0,641.0,9.02,0.16,-45.26,38.28,33.79,304.48,305.48,37.25,34.15,304.58,306.51,1.0
2018-08-24 15:36:00,89.52102,16.6794,929.058,270.36,100.0,640.6,8.75,0.39,-45.57,38.09,33.79,305.09,305.66,37.41,34.27,304.58,306.48,1.0
2018-08-24 15:36:00,89.52102,16.67937,928.994,270.36,100.0,641.1,7.99,0.53,-46.0,39.07,33.86,303.73,305.58,37.69,34.39,304.53,306.4,1.0
2018-08-24 15:36:00,89.52102,16.67935,928.999,270.36,100.0,641.1,7.73,0.48,-46.22,39.14,34.07,304.07,306.29,38.05,34.48,304.46,306.29,1.0
2018-08-24 15:36:00,89.52102,16.67932,929.056,270.35,100.0,640.6,6.96,0.44,-46.31,39.07,34.14,304.24,306.38,38.46,34.54,304.38,306.18,1.0
2018-08-24 15:36:00,89.52102,16.67929,929.091,270.35,100.0,640.3,5.95,0.35,-46.12,38.81,34.14,304.6,306.57,38.89,34.55,304.34,306.16,1.0
2018-08-24 15:36:00,89.52102,16.67927,929.062,270.36,100.0,640.5,5.44,0.22,-45.96,38.55,34.14,304.41,306.38,39.3,34.51,304.29,306.2,1.0
2018-08-24 15:36:00,89.52102,16.67924,929.025,270.36,100.0,640.8,5.92,0.18,-46.15,39.4,34.07,304.51,306.69,39.66,34.43,304.23,306.24,1.0
2018-08-24 15:36:00,89.52101,16.67922,929.014,270.36,100.0,640.9,6.8,0.28,-45.42,38.94,34.14,304.71,306.76,39.96,34.31,304.3,306.34,1.0
2018-08-24 15:36:00,89.52101,16.67919,929.036,270.36,100.0,640.7,5.99,0.24,-45.29,38.74,34.21,304.6,306.67,40.19,34.18,304.34,306.32,1.0
2018-08-24 15:36:00,89.52101,16.67917,929.034,270.36,100.0,640.8,5.48,0.21,-45.2,38.28,34.21,304.41,306.57,40.34,34.06,304.37,306.33,1.0
2018-08-24 15:36:00,89.52101,16.67914,929.024,270.36,100.0,640.8,6.67,0.21,-45.06,38.87,34.14,304.6,306.85,40.42,33.95,304.41,306.43,1.0
2018-08-24 15:36:00,89.52101,16.67912,929.044,270.36,100.0,640.7,9.9,0.25,-44.84,39.33,34.0,304.6,306.57,40.44,33.87,304.46,306.58,1.0
2018-08-24 15:36:00,89.52101,16.67909,929.07,270.36,100.0,640.4,13.0,0.46,-44.51,38.74,34.14,304.41,306.63,40.4,33.84,304.48,306.64,1.0
2018-08-24 15:36:00,89.52101,16.67906,929.035,270.36,100.0,640.7,13.76,0.47,-44.18,39.53,34.14,304.27,305.11,40.31,33.84,304.37,306.54,1.0
2018-08-24 15:36:00,89.52101,16.67904,929.032,270.36,100.0,640.8,12.28,0.46,-44.37,38.48,34.0,303.8,305.07,40.18,33.89,304.3,306.52,1.0
2018-08-24 15:36:00,89.52101,16.67901,929.042,270.36,100.0,640.7,9.57,0.35,-44.77,39.79,33.93,304.06,305.97,40.01,33.97,304.25,306.51,1.0
2018-08-24 15:36:00,89.52101,16.67899,929.042,270.36,100.0,640.7,7.07,0.31,-45.18,39.53,34.0,304.33,306.81,39.83,34.06,304.19,306.46,1.0
2018-08-24 15:36:00,89.52101,16.67896,929.077,270.36,100.0,640.4,6.01,0.61,-45.6,39.2,34.14,304.3,306.51,39.63,34.16,304.14,306.37,1.0
2018-08-24 15:36:00,89.52101,16.67893,929.009,270.35,100.0,641.0,4.21,0.34,-45.96,38.74,34.07,303.29,305.02,39.43,34.25,304.09,306.27,1.0
2018-08-24 15:36:00,89.52101,16.67887,929.005,270.36,100.0,641.0,5.29,0.43,-45.33,39.4,34.21,303.61,306.26,39.24,34.31,304.09,306.32,1.0
2018-08-24 15:36:00,89.52101,16.67881,929.004,270.36,100.0,641.0,6.63,0.38,-44.82,39.4,34.21,304.6,307.18,39.07,34.35,304.14,306.39,1.0
2018-08-24 15:36:00,89.52101,16.67876,929.004,270.36,100.0,641.0,7.34,0.22,-44.64,38.94,34.14,304.42,307.31,38.91,34.37,304.18,306.41,1.0
2018-08-24 15:36:00,89.52101,16.6787,929.081,270.37,100.0,640.4,7.85,0.23,-44.31,39.53,34.0,304.59,306.88,38.8,34.35,304.15,306.39,1.0
2018-08-24 15:36:00,89.52101,16.67864,929.06,270.36,100.0,640.5,6.55,0.26,-43.87,39.07,34.14,304.2,306.66,38.71,34.3,304.15,306.42,1.0
2018-08-24 15:36:00,89.52101,16.67858,928.996,270.36,100.0,641.1,6.92,0.2,-43.67,38.28,34.07,304.36,306.47,38.67,34.24,304.25,306.57,1.0
2018-08-24 15:36:00,89.52101,16.67853,928.996,270.36,100.0,641.1,6.51,0.19,-43.52,39.46,34.14,304.36,306.66,38.67,34.16,304.29,306.59,1.0
2018-08-24 15:36:00,89.52101,16.67847,929.027,270.37,100.0,640.8,5.53,0.19,-43.42,39.27,34.07,303.92,306.44,38.7,34.07,304.28,306.53,1.0
2018-08-24 15:36:00,89.52101,16.67844,929.026,270.36,100.0,640.8,4.45,0.13,-43.46,39.86,34.21,303.49,306.26,38.76,33.97,304.27,306.48,1.0
2018-08-24 15:36:00,89.52101,16.6784,928.99,270.36,100.0,641.1,3.47,-0.09,-43.81,38.94,34.14,303.67,306.57,38.84,33.89,304.25,306.44,1.0
2018-08-24 15:36:00,89.52101,16.67836,929.002,270.37,100.0,641.0,3.68,-0.1,-43.82,39.27,34.21,303.68,306.3,38.94,33.81,304.24,306.42,1.0
2018-08-24 15:36:00,89.52101,16.67832,929.005,270.36,100.0,641.0,4.22,0.06,-43.98,38.28,34.14,304.01,306.44,39.04,33.74,304.23,306.4,1.0
2018-08-24 15:36:00,89.52101,16.67828,929.015,270.36,100.0,640.9,5.13,0.13,-44.2,39.2,34.14,304.38,306.29,39.12,33.7,304.22,306.39,1.0
2018-08-24 15:36:00,89.52101,16.67824,929.03,270.36,100.0,640.8,6.16,0.11,-44.33,39.33,34.14,304.49,306.42,39.19,33.68,304.26,306.39,1.0
2018-08-24 15:36:00,89.52101,16.6782,929.017,270.36,100.0,640.9,6.91,0.11,-44.23,39.01,34.0,304.55,306.57,39.23,33.68,304.35,306.41,1.0
2018-08-24 15:36:00,89.52101,16.67817,929.054,270.36,100.0,640.6,7.14,-0.13,-44.53,39.46,34.14,304.7,306.65,39.25,33.72,304.45,306.46,1.0
2018-08-24 15:36:00,89.52101,16.67813,929.074,270.37,100.0,640.4,6.16,-0.13,-44.69,38.55,34.0,304.42,306.47,39.23,33.77,304.55,306.48,1.0
2018-08-24 15:36:00,89.52101,16.67809,929.052,270.37,100.0,640.6,5.08,-0.09,-44.87,39.14,34.14,304.51,306.47,39.19,33.85,304.67,306.56,1.0
2018-08-24 15:36:00,89.52101,16.67805,929.029,270.36,100.0,640.8,4.59,-0.09,-45.36,39.53,33.93,304.51,306.66,39.15,33.93,304.75,306.64,1.0
2018-08-24 15:36:00,89.52101,16.67801,929.066,270.36,100.0,640.5,5.28,-0.15,-46.08,39.01,34.14,304.32,306.56,39.11,34.02,304.75,306.67,1.0
2018-08-24 15:36:00,89.52101,16.67798,929.07,270.36,100.0,640.4,7.32,-0.07,-45.92,39.2,34.14,304.6,306.56,39.1,34.1,304.72,306.67,1.0
2018-08-24 15:36:00,89.52101,16.67793,929.064,270.36,100.0,640.5,9.12,-0.11,-45.79,39.14,33.79,304.66,305.93,39.13,34.16,304.68,306.66,1.0
2018-08-24 15:36:00,89.52101,16.67788,929.06,270.36,100.0,640.5,8.52,-0.14,-45.81,38.81,34.0,305.1,306.62,39.22,34.2,304.63,306.64,1.0
2018-08-24 15:36:00,89.52101,16.67783,929.046,270.36,100.0,640.6,7.7,-0.12,-45.81,39.4,34.14,305.01,306.79,39.35,34.22,304.58,306.62,1.0
2018-08-24 15:36:00,89.52101,16.67778,929.023,270.35,100.0,640.8,7.82,-0.16,-45.87,38.87,34.14,304.49,306.47,39.53,34.22,304.54,306.63,1.0
2018-08-24 15:36:00,89.52101,16.67774,929.038,270.36,100.0,640.7,8.05,-0.46,-46.28,39.27,34.07,304.4,306.66,39.74,34.2,304.52,306.68,1.0
2018-08-24 15:36:00,89.52101,16.67769,929.053,270.36,100.0,640.6,8.9,-0.19,-46.3,39.53,34.21,304.4,306.47,39.96,34.17,304.52,306.72,1.0
2018-08-24 15:36:00,89.52101,16.67764,929.035,270.36,100.0,640.7,9.96,-0.38,-46.48,39.07,34.21,304.5,306.66,40.14,34.14,304.65,306.87,1.0
2018-08-24 15:36:00,89.52101,16.67759,929.001,270.36,100.0,641.0,10.71,-0.45,-46.24,39.07,34.14,304.4,306.56,40.25,34.11,304.69,307.0,1.0
2018-08-24 15:36:00,89.52101,16.67754,928.986,270.36,100.0,641.2,10.1,-0.45,-45.68,38.35,34.0,304.58,306.73,40.28,34.09,304.71,307.11,1.0
2018-08-24 15:36:00,89.52101,16.67749,929.027,270.36,100.0,640.8,8.02,-0.6,-45.27,39.4,34.0,304.49,307.06,40.19,34.07,304.77,307.24,1.0
2018-08-24 15:36:00,89.52101,16.67744,929.01,270.36,100.0,641.0,8.44,-0.64,-45.36,39.53,34.14,304.4,306.76,40.0,34.07,304.82,307.35,1.0
2018-08-24 15:36:00,89.52101,16.6774,929.024,270.36,100.0,640.8,8.78,-0.66,-44.88,38.94,33.93,305.87,307.06,39.71,34.06,304.85,307.39,1.0
2018-08-24 15:36:00,89.52101,16.67736,929.029,270.36,100.0,640.8,9.53,-0.79,-44.44,40.44,34.14,305.07,307.52,39.36,34.05,304.85,307.38,1.0
2018-08-24 15:36:00,89.52101,16.67732,929.02,270.36,100.0,640.9,11.13,-0.87,-43.84,38.68,34.0,304.41,307.32,38.99,34.03,304.83,307.33,1.0
2018-08-24 15:36:00,89.52101,16.67729,929.003,270.36,100.0,641.0,13.45,-0.94,-43.1,39.53,34.14,304.51,307.41,38.64,33.99,304.76,307.23,1.0
2018-08-24 15:36:00,89.52101,16.67725,928.958,270.35,100.0,641.4,15.46,-1.36,-42.89,39.72,34.21,304.4,307.51,38.36,33.93,304.61,307.07,1.0
2018-08-24 15:36:00,89.52101,16.67721,929.008,270.35,100.0,641.0,16.13,-1.45,-42.66,39.79,34.21,304.4,306.84,38.2,33.86,304.48,306.96,1.0
2018-08-24 15:36:00,89.52101,16.67717,929.029,270.36,100.0,640.8,14.26,-1.51,-42.61,38.61,34.21,304.49,306.86,38.16,33.78,304.25,306.83,1.0
2018-08-24 15:36:00,89.52101,16.67713,929.013,270.36,100.0,640.9,12.35,-1.38,-42.49,39.53,33.93,304.86,306.55,38.27,33.7,304.13,306.69,1.0
2018-08-24 15:36:00,89.52101,16.6771,928.993,270.35,100.0,641.1,11.15,-1.23,-42.4,38.48,34.07,304.06,306.54,38.49,33.64,304.12,306.58,1.0
2018-08-24 15:36:00,89.52101,16.67706,929.031,270.35,100.0,640.8,10.16,-1.35,-42.69,38.48,34.07,303.42,306.32,38.79,33.6,304.11,306.52,1.0
2018-08-24 15:36:00,89.52101,16.67702,929.017,270.36,100.0,640.9,9.24,-1.29,-42.95,39.33,34.07,303.48,306.42,39.12,33.59,304.14,306.48,1.0
2018-08-24 15:36:00,89.52101,16.67698,929.023,270.35,100.0,640.8,9.02,-1.33,-43.28,39.59,34.0,303.7,306.72,39.43,33.61,304.28,306.43,1.0
2018-08-24 15:36:00,89.52101,16.67694,929.027,270.35,100.0,640.8,8.81,-1.28,-43.76,39.53,34.07,304.21,306.54,39.67,33.67,304.38,306.43,1.0
2018-08-24 15:36:00,89.52101,16.67691,929.021,270.36,100.0,640.9,8.87,-1.26,-44.21,38.61,33.93,304.46,306.73,39.79,33.75,304.42,306.45,1.0
2018-08-24 15:36:00,89.52101,16.67688,929.007,270.35,100.0,641.0,9.37,-1.39,-44.4,38.68,34.0,304.29,306.46,39.77,33.84,304.47,306.46,1.0
2018-08-24 15:36:00,89.52101,16.67684,929.009,270.35,100.0,641.0,8.21,-1.37,-44.55,39.53,34.07,304.44,306.46,39.62,33.94,304.56,306.45,1.0
2018-08-24 15:36:00,89.52101,16.67681,929.005,270.36,100.0,641.0,8.43,-1.44,-44.64,39.72,33.93,305.65,305.79,39.35,34.04,304.61,306.4,1.0
2018-08-24 15:36:00,89.52101,16.67678,929.011,270.36,100.0,640.9,9.35,-1.53,-45.18,39.33,34.0,304.83,305.95,38.98,34.11,304.73,306.32,1.0
2018-08-24 15:36:00,89.52101,16.67675,929.012,270.36,100.0,640.9,10.81,-1.47,-45.44,38.94,33.86,304.4,306.65,38.58,34.16,304.77,306.23,1.0
2018-08-24 15:36:00,89.52101,16.67672,928.998,270.36,100.0,641.0,11.9,-1.31,-45.21,39.4,34.21,304.49,306.65,38.17,34.19,304.7,306.14,1.0
2018-08-24 15:36:00,89.52101,16.67668,928.992,270.36,100.0,641.1,10.92,-1.37,-45.07,39.79,34.07,304.4,306.66,37.82,34.18,304.65,306.07,1.0
2018-08-24 15:36:00,89.52101,16.67665,928.997,270.36,100.0,641.1,10.6,-1.51,-45.46,39.14,34.0,304.4,306.64,37.55,34.14,304.59,306.03,1.0
2018-08-24 15:36:00,89.52101,16.67662,929.004,270.35,100.0,641.0,10.33,-1.38,-45.77,38.35,34.14,305.69,306.55,37.39,34.09,304.45,306.08,1.0
2018-08-24 15:36:00,89.52101,16.67659,929.02,270.35,100.0,640.9,9.15,-1.24,-46.03,38.94,34.0,305.48,306.37,37.34,34.02,304.36,306.19,1.0
2018-08-24 15:36:00,89.52101,16.67656,929.028,270.35,100.0,640.8,7.79,-1.2,-46.11,39.14,34.0,304.49,306.57,37.4,33.96,304.34,306.32,1.0
2018-08-24 15:36:00,89.52101,16.67652,929.001,270.36,100.0,641.0,7.32,-1.29,-45.9,39.59,34.07,304.58,306.65,37.56,33.89,304.37,306.42,1.0
2018-08-24 15:36:00,89.52101,16.67649,929.029,270.36,100.0,640.8,6.08,-1.26,-45.65,38.35,34.0,304.49,306.65,37.78,33.84,304.42,306.54,1.0
2018-08-24 15:36:00,89.52101,16.67646,929.063,270.36,100.0,640.5,7.31,-1.3,-45.07,38.42,34.0,304.5,306.74,38.04,33.8,304.48,306.65,1.0
2018-08-24 15:36:00,89.52101,16.67643,929.051,270.36,100.0,640.6,8.34,-1.48,-44.55,39.53,34.14,304.24,307.17,38.31,33.77,304.36,306.73,1.0
2018-08-24 15:36:00,89.52101,16.67638,929.015,270.35,100.0,640.9,9.07,-1.6,-44.02,38.68,33.93,304.2,306.97,38.58,33.77,304.29,306.76,1.0
2018-08-24 15:36:00,89.52101,16.67632,929.005,270.35,100.0,641.0,9.69,-1.55,-43.41,38.94,34.0,304.58,306.36,38.82,33.77,304.33,306.77,1.0
2018-08-24 15:36:00,89.52101,16.67627,929.012,270.35,100.0,640.9,10.08,-1.82,-42.92,39.14,34.14,304.4,306.76,39.02,33.79,304.38,306.74,1.0
2018-08-24 15:36:00,89.52101,16.67622,929.007,270.36,100.0,641.0,9.46,-1.66,-42.69,38.81,34.21,304.39,306.47,39.17,33.81,304.39,306.71,1.0
2018-08-24 15:36:00,89.52101,16.67616,929.017,270.35,100.0,640.9,10.14,-1.79,-42.57,38.28,33.93,303.91,306.22,39.27,33.84,304.38,306.66,1.0
2018-08-24 15:36:00,89.52101,16.67611,929.035,270.35,100.0,640.7,10.88,-1.68,-43.04,38.94,33.72,303.77,305.85,39.31,33.86,304.39,306.55,1.0
2018-08-24 15:36:00,89.521,16.67606,929.05,270.36,100.0,640.6,10.75,-1.46,-43.8,38.48,34.0,304.21,305.99,39.3,33.89,304.39,306.44,1.0
2018-08-24 15:36:00,89.521,16.676,929.052,270.35,100.0,640.6,9.37,-1.64,-44.19,38.81,33.86,304.57,305.8,39.25,33.92,304.37,306.39,1.0
2018-08-24 15:36:00,89.521,16.67595,929.026,270.36,100.0,640.8,7.39,-1.57,-44.68,39.59,34.14,304.31,306.61,39.15,33.94,304.36,306.37,1.0
2018-08-24 15:36:00,89.521,16.6759,929.07,270.36,100.0,640.4,7.1,-1.61,-45.0,39.07,34.0,304.29,306.66,39.04,33.97,304.42,306.36,1.0
2018-08-24 15:36:00,89.521,16.67585,929.082,270.36,100.0,640.3,8.59,-1.58,-45.29,39.79,34.14,304.56,306.57,38.92,33.99,304.52,306.4,1.0
2018-08-24 15:36:00,89.521,16.6758,929.044,270.36,100.0,640.7,11.3,-1.52,-45.48,38.28,34.14,304.56,306.66,38.82,34.02,304.59,306.47,1.0
2018-08-24 15:36:00,89.521,16.67576,928.996,270.36,100.0,641.1,14.07,-1.47,-45.52,38.68,33.93,304.51,306.7,38.76,34.05,304.61,306.56,1.0
2018-08-24 15:36:00,89.521,16.67571,929.022,270.35,100.0,640.8,13.88,-1.29,-45.64,38.35,33.79,304.6,306.79,38.74,34.08,304.62,306.67,1.0
2018-08-24 15:36:00,89.521,16.67566,929.043,270.36,100.0,640.7,13.6,-1.48,-45.69,39.07,33.93,305.1,306.52,38.79,34.1,304.75,306.71,1.0
2018-08-24 15:36:00,89.521,16.67562,929.061,270.35,100.0,640.5,13.49,-1.22,-45.53,39.59,34.0,304.86,306.66,38.91,34.13,304.86,306.87,1.0
2018-08-24 15:36:00,89.521,16.67557,929.044,270.35,100.0,640.6,13.26,-1.04,-45.3,38.94,34.14,304.39,306.85,39.08,34.14,304.92,307.01,1.0
2018-08-24 15:36:00,89.521,16.67552,928.993,270.35,100.0,641.1,12.82,-1.08,-45.19,38.55,34.0,304.66,306.56,39.28,34.14,304.93,307.06,1.0
2018-08-24 15:36:00,89.521,16.67548,929.005,270.36,100.0,641.0,12.38,-0.92,-45.25,38.48,34.07,304.77,306.82,39.5,34.13,304.93,307.09,1.0
2018-08-24 15:36:00,89.521,16.67543,929.023,270.35,100.0,640.8,12.88,-1.37,-44.98,38.94,34.07,305.64,306.09,39.69,34.11,304.92,307.09,1.0
2018-08-24 15:36:00,89.521,16.67538,929.03,270.35,100.0,640.8,13.77,-1.29,-44.41,39.33,34.0,305.33,307.58,39.84,34.07,304.84,307.08,1.0
2018-08-24 15:36:00,89.521,16.67534,929.037,270.35,100.0,640.7,14.64,-1.23,-43.87,38.87,34.0,304.62,307.17,39.91,34.02,304.78,307.05,1.0
2018-08-24 15:36:00,89.521,16.67529,929.054,270.35,100.0,640.6,14.97,-1.29,-43.48,38.87,34.0,304.37,306.4,39.9,33.96,304.78,306.97,1.0
2018-08-24 15:36:00,89.521,16.67525,929.085,270.35,100.0,640.3,14.59,-1.31,-43.19,39.79,34.0,304.31,306.58,39.81,33.91,304.82,306.81,1.0
2018-08-24 15:36:00,89.521,16.6752,929.005,270.36,100.0,641.0,15.93,-1.52,-42.56,38.42,34.14,304.48,306.36,39.66,33.85,304.84,306.7,1.0
2018-08-24 15:36:00,89.521,16.67516,929.037,270.35,100.0,640.7,17.63,-1.44,-42.32,39.01,34.07,304.49,306.76,39.46,33.8,304.76,306.62,1.0
2018-08-24 15:36:00,89.521,16.67511,929.052,270.35,100.0,640.6,18.16,-1.43,-42.36,38.28,33.93,304.76,306.57,39.27,33.76,304.69,306.42,1.0
2018-08-24 15:36:00,89.521,16.67507,929.042,270.35,100.0,640.7,18.01,-1.38,-42.49,39.72,34.14,304.79,306.03,39.1,33.73,304.6,306.23,1.0
2018-08-24 15:36:00,89.521,16.67502,929.048,270.36,100.0,640.6,17.77,-1.23,-42.58,39.72,33.79,305.49,305.9,38.99,33.7,304.51,306.13,1.0
2018-08-24 15:36:00,89.521,16.67498,929.038,270.35,100.0,640.7,16.73,-1.22,-42.84,39.4,34.21,305.74,306.75,38.95,33.67,304.49,306.07,1.0
2018-08-24 15:36:00,89.521,16.67493,929.043,270.36,100.0,640.7,16.15,-1.18,-42.96,39.33,34.0,305.62,306.64,38.99,33.64,304.44,306.05,1.0
2018-08-24 15:36:00,89.521,16.67488,929.037,270.35,100.0,640.7,16.93,-1.08,-43.15,38.42,34.07,305.47,306.68,39.09,33.6,304.42,306.06,1.0
2018-08-24 15:36:00,89.521,16.67484,929.032,270.35,100.0,640.7,17.14,-0.99,-43.22,38.42,34.0,304.93,306.68,39.24,33.55,304.43,306.11,1.0
2018-08-24 15:36:00,89.521,16.67479,929.035,270.35,100.0,640.7,16.66,-0.95,-43.2,39.01,33.72,304.23,306.52,39.38,33.5,304.41,306.17,1.0
2018-08-24 15:36:00,89.521,16.67475,929.021,270.35,100.0,640.8,16.92,-0.96,-43.33,38.94,33.93,305.09,306.56,39.51,33.45,304.27,306.17,1.0
2018-08-24 15:36:00,89.521,16.6747,929.063,270.35,100.0,640.5,16.74,-1.17,-43.49,39.79,33.93,304.42,306.74,39.57,33.42,304.34,306.32,1.0
2018-08-24 15:36:00,89.521,16.67466,929.064,270.35,100.0,640.5,16.76,-0.9,-43.4,39.07,34.07,304.37,306.65,39.57,33.4,304.46,306.35,1.0
2018-08-24 15:36:00,89.521,16.67462,929.044,270.35,100.0,640.7,15.94,-0.8,-43.74,38.74,33.93,304.38,306.94,39.49,33.41,304.51,306.39,1.0
2018-08-24 15:36:00,89.521,16.67457,929.037,270.35,100.0,640.7,15.58,-0.67,-44.09,38.74,34.0,304.17,306.06,39.35,33.45,304.54,306.41,1.0
2018-08-24 15:36:00,89.521,16.67452,929.082,270.35,100.0,640.3,16.88,-0.21,-43.92,39.79,33.93,302.98,304.64,39.18,33.54,304.6,306.37,1.0
2018-08-24 15:36:00,89.521,16.67448,929.061,270.35,100.0,640.5,16.31,-0.52,-44.39,39.4,34.0,304.88,306.72,39.0,33.67,304.6,306.31,1.0
2018-08-24 15:36:00,89.521,16.67444,929.045,270.35,100.0,640.6,16.86,-0.35,-44.47,39.53,33.79,305.4,305.67,38.87,33.82,304.61,306.24,1.0
2018-08-24 15:36:00,89.521,16.67439,929.076,270.36,100.0,640.4,16.01,-0.49,-44.54,38.74,33.79,304.8,306.2,38.8,34.0,304.55,306.16,1.0
2018-08-24 15:36:00,89.521,16.67434,929.092,270.36,100.0,640.2,14.43,-0.55,-44.47,38.74,33.79,303.83,306.26,38.82,34.18,304.48,306.08,1.0
2018-08-24 15:36:00,89.521,16.6743,929.052,270.36,100.0,640.6,13.06,-0.44,-44.25,39.07,33.72,303.83,305.83,38.93,34.34,304.46,306.08,1.0
2018-08-24 15:36:00,89.521,16.67426,929.041,270.36,100.0,640.7,12.67,-0.66,-44.12,39.07,33.79,304.37,306.05,39.11,34.47,304.54,306.24,1.0
2018-08-24 15:36:00,89.521,16.67421,929.04,270.36,100.0,640.7,11.98,-0.61,-43.38,39.07,34.0,304.22,306.43,39.34,34.55,304.44,306.23,1.0
2018-08-24 15:36:00,89.521,16.67417,929.068,270.36,100.0,640.4,11.96,-0.56,-43.1,39.99,34.0,304.17,306.54,39.58,34.58,304.29,306.34,1.0
2018-08-24 15:36:00,89.521,16.67413,929.085,270.36,100.0,640.3,12.92,-0.42,-43.03,38.28,34.0,304.19,306.65,39.81,34.56,304.25,306.43,1.0
2018-08-24 15:36:00,89.521,16.67409,929.077,270.35,100.0,640.4,14.48,-0.28,-42.92,39.07,34.14,304.56,306.66,39.97,34.5,304.32,306.52,1.0
2018-08-24 15:36:00,89.521,16.67405,929.062,270.36,100.0,640.5,16.0,-0.29,-42.65,38.61,34.0,304.28,306.75,40.06,34.4,304.41,306.65,1.0
2018-08-24 15:36:00,89.521,16.674,929.038,270.35,100.0,640.7,17.2,-0.36,-42.73,39.59,33.93,304.38,306.56,40.05,34.29,304.48,306.76,1.0
2018-08-24 15:36:00,89.521,16.67396,929.061,270.35,100.0,640.5,18.74,-0.43,-42.66,38.87,34.21,304.08,306.55,39.97,34.17,304.56,306.84,1.0
2018-08-24 15:36:00,89.521,16.67392,929.068,270.35,100.0,640.4,19.38,-0.44,-42.57,39.4,33.93,304.18,306.23,39.82,34.06,304.76,306.88,1.0
2018-08-24 15:36:00,89.521,16.67388,929.06,270.35,100.0,640.5,18.66,-0.45,-42.35,39.72,34.0,304.62,306.04,39.63,33.98,304.91,306.89,1.0
2018-08-24 15:36:00,89.521,16.67384,929.062,270.35,100.0,640.5,17.08,-0.48,-42.06,39.59,34.0,304.47,306.42,39.42,33.93,304.93,306.88,1.0
2018-08-24 15:36:00,89.521,16.6738,929.031,270.35,100.0,640.7,16.29,-0.45,-42.25,39.14,34.07,304.55,306.44,39.23,33.91,304.94,306.84,1.0
2018-08-24 15:36:00,89.521,16.67376,928.998,270.35,100.0,641.0,15.08,-0.17,-42.91,39.66,34.07,304.57,306.65,39.08,33.91,305.03,306.72,1.0
2018-08-24 15:36:00,89.521,16.67371,929.025,270.36,100.0,640.8,13.16,-0.13,-43.27,39.14,34.0,305.4,306.25,38.97,33.94,305.14,306.61,1.0
2018-08-24 15:36:00,89.521,16.67367,929.058,270.36,100.0,640.5,12.87,-0.17,-43.51,38.28,33.93,305.21,306.64,38.89,33.97,305.24,306.53,1.0
2018-08-24 15:36:00,89.521,16.67362,929.06,270.35,100.0,640.5,14.48,-0.2,-43.83,39.53,33.79,304.38,306.57,38.86,34.01,305.24,306.53,1.0
2018-08-24 15:36:00,89.521,16.67356,929.022,270.35,100.0,640.8,16.37,-0.2,-44.46,38.42,34.0,304.53,306.57,38.84,34.04,305.14,306.6,1.0
2018-08-24 15:36:00,89.521,16.6735,929.029,270.35,100.0,640.8,16.4,0.01,-44.81,40.05,34.14,305.74,305.92,38.83,34.07,305.16,306.59,1.0
2018-08-24 15:36:00,89.521,16.67344,929.043,270.35,100.0,640.6,15.25,-0.04,-44.9,39.14,34.21,305.77,305.99,38.83,34.07,305.18,306.59,1.0
2018-08-24 15:36:00,89.521,16.67338,929.053,270.35,100.0,640.6,14.49,0.01,-45.16,39.72,34.0,305.97,306.45,38.83,34.06,305.12,306.59,1.0
2018-08-24 15:36:00,89.521,16.67332,929.044,270.35,100.0,640.6,13.76,0.13,-45.4,38.74,34.21,305.27,306.94,38.83,34.03,305.07,306.58,1.0
2018-08-24 15:36:00,89.521,16.67326,929.001,270.35,100.0,641.0,12.37,0.17,-45.28,39.4,33.79,303.88,307.31,38.86,33.99,305.08,306.58,1.0
2018-08-24 15:36:00,89.521,16.6732,928.992,270.35,100.0,641.1,11.05,0.15,-44.78,38.94,33.93,305.29,306.29,38.91,33.94,305.09,306.6,1.0
2018-08-24 15:36:00,89.521,16.67313,929.018,270.35,100.0,640.9,9.4,0.08,-44.33,39.46,34.07,305.02,306.84,39.01,33.89,305.0,306.67,1.0
2018-08-24 15:36:00,89.521,16.67307,929.022,270.35,100.0,640.8,8.67,0.05,-44.13,39.33,34.0,304.92,306.35,39.15,33.83,304.91,306.74,1.0
2018-08-24 15:36:00,89.521,16.67303,929.027,270.35,100.0,640.8,8.67,0.02,-44.0,38.09,34.21,304.76,306.44,39.33,33.78,304.83,306.79,1.0
2018-08-24 15:36:00,89.521,16.67299,929.064,270.35,100.0,640.5,9.11,-0.04,-43.92,39.53,33.93,304.55,306.83,39.52,33.73,304.81,306.79,1.0
2018-08-24 15:36:00,89.521,16.67294,929.068,270.35,100.0,640.4,9.44,-0.09,-44.11,39.2,34.0,304.36,306.64,39.7,33.7,304.89,306.71,1.0
2018-08-24 15:36:00,89.521,16.6729,929.072,270.35,100.0,640.4,10.74,-0.18,-43.97,39.27,33.93,304.46,306.54,39.83,33.68,304.85,306.7,1.0
2018-08-24 15:36:00,89.521,16.67286,929.075,270.35,100.0,640.4,12.02,-0.3,-43.99,39.14,34.0,304.65,306.64,39.88,33.68,304.8,306.68,1.0
2018-08-24 15:36:00,89.521,16.67282,929.045,270.35,100.0,640.6,12.67,-0.4,-43.94,39.27,34.07,304.36,306.64,39.82,33.7,304.75,306.66,1.0
2018-08-24 15:36:00,89.521,16.67278,928.994,270.35,100.0,641.1,12.96,-0.41,-43.77,39.4,34.0,304.65,306.64,39.64,33.73,304.7,306.61,1.0
2018-08-24 15:36:00,89.521,16.67273,928.983,270.35,100.0,641.2,13.51,-0.31,-43.57,38.81,33.93,304.57,306.82,39.34,33.77,304.66,306.5,1.0
2018-08-24 15:36:00,89.521,16.67269,929.034,270.35,100.0,640.7,13.96,-0.41,-43.37,38.94,34.0,304.74,306.73,38.94,33.83,304.61,306.44,1.0
2018-08-24 15:36:00,89.521,16.67265,929.044,270.35,100.0,640.6,12.96,-0.25,-43.57,39.92,34.0,304.55,306.44,38.47,33.88,304.55,306.39,1.0
2018-08-24 15:36:00,89.521,16.67261,929.051,270.35,100.0,640.6,12.13,-0.21,-43.77,39.53,34.0,304.55,306.73,37.99,33.94,304.5,306.35,1.0
2018-08-24 15:36:00,89.521,16.67256,929.042,270.35,100.0,640.7,11.31,-0.23,-44.01,39.46,34.0,304.34,306.27,37.56,33.98,304.44,306.33,1.0
2018-08-24 15:36:00,89.521,16.67252,929.0,270.35,100.0,641.0,10.37,-0.24,-44.34,38.87,33.66,304.41,306.15,37.21,34.02,304.39,306.32,1.0
2018-08-24 15:36:00,89.521,16.67248,929.042,270.35,100.0,640.7,9.94,-0.41,-44.75,39.33,33.93,304.55,306.83,37.0,34.03,304.3,306.33,1.0
2018-08-24 15:36:00,89.521,16.67244,929.041,270.35,100.0,640.7,9.5,-0.52,-45.04,39.07,34.14,304.29,306.64,36.95,34.04,304.26,306.35,1.0
2018-08-24 15:36:00,89.521,16.6724,929.076,270.36,100.0,640.4,10.06,-0.51,-45.43,38.55,33.93,304.75,306.56,37.07,34.03,304.25,306.37,1.0
2018-08-24 15:36:00,89.521,16.67235,929.081,270.36,100.0,640.3,11.72,-0.52,-45.48,39.14,34.0,304.56,306.94,37.33,34.02,304.29,306.42,1.0
2018-08-24 15:36:00,89.521,16.67231,929.038,270.36,100.0,640.7,13.52,-0.55,-45.07,39.14,33.93,304.48,306.62,37.7,34.0,304.39,306.48,1.0
2018-08-24 15:36:00,89.521,16.67227,929.061,270.35,100.0,640.5,13.83,-0.57,-44.41,38.55,34.14,303.93,306.56,38.15,33.98,304.52,306.47,1.0
2018-08-24 15:36:00,89.521,16.67223,929.108,270.35,100.0,640.1,14.46,-0.82,-44.55,38.15,34.07,304.01,306.39,38.61,33.96,304.59,306.45,1.0
2018-08-24 15:36:00,89.521,16.67218,929.086,270.35,100.0,640.3,13.65,-0.65,-44.38,39.14,34.14,304.54,306.47,39.05,33.93,304.57,306.41,1.0
2018-08-24 15:36:00,89.521,16.67214,929.063,270.35,100.0,640.5,12.41,-0.56,-44.25,38.74,34.0,304.95,306.76,39.41,33.89,304.52,306.31,1.0
2018-08-24 15:36:00,89.521,16.6721,929.063,270.36,100.0,640.5,11.03,-0.57,-44.1,39.07,33.72,305.54,306.4,39.67,33.83,304.5,306.17,1.0
2018-08-24 15:36:00,89.521,16.67206,929.073,270.35,100.0,640.4,9.61,-0.59,-43.78,38.74,33.93,305.72,305.81,39.81,33.77,304.57,306.06,1.0
2018-08-24 15:36:00,89.521,16.67201,928.996,270.35,100.0,641.0,10.27,-0.6,-43.16,38.28,33.79,305.14,306.03,39.83,33.68,304.69,306.0,1.0
2018-08-24 15:36:00,89.521,16.67198,929.013,270.35,100.0,640.9,9.84,-0.73,-42.94,39.33,34.14,304.58,306.65,39.74,33.58,304.79,306.0,1.0
2018-08-24 15:36:00,89.521,16.67194,929.031,270.35,100.0,640.7,8.28,-0.87,-42.74,39.53,34.0,304.37,306.3,39.56,33.48,304.86,306.06,1.0
2018-08-24 15:36:00,89.521,16.6719,929.036,270.35,100.0,640.7,7.96,-0.98,-42.58,39.72,34.0,305.03,305.8,39.32,33.38,304.91,306.11,1.0
2018-08-24 15:36:00,89.52099,16.67186,929.041,270.35,100.0,640.7,9.71,-1.02,-42.57,38.15,33.93,305.7,305.65,39.04,33.31,304.92,306.18,1.0
2018-08-24 15:36:00,89.52099,16.67181,929.074,270.35,100.0,640.4,11.45,-0.88,-42.84,39.07,34.0,305.52,306.05,38.76,33.27,304.87,306.27,1.0
2018-08-24 15:36:00,89.52099,16.67178,929.052,270.36,100.0,640.6,13.43,-0.77,-42.81,39.07,34.07,305.58,306.4,38.5,33.29,304.91,306.28,1.0
2018-08-24 15:36:00,89.52099,16.67174,929.058,270.36,100.0,640.5,14.88,-0.75,-42.74,38.68,33.93,305.14,306.73,38.29,33.35,305.01,306.34,1.0
2018-08-24 15:36:00,89.52099,16.6717,929.054,270.36,100.0,640.5,16.81,-0.75,-42.93,39.01,33.93,304.81,306.61,38.16,33.48,305.08,306.43,1.0
2018-08-24 15:36:00,89.52099,16.67166,929.028,270.36,100.0,640.8,18.64,-0.67,-43.23,38.55,33.79,304.82,306.28,38.11,33.65,305.08,306.5,1.0
2018-08-24 15:36:00,89.52099,16.67162,929.024,270.36,100.0,640.8,18.69,-0.47,-43.23,39.4,33.72,304.09,305.73,38.17,33.86,304.97,306.53,1.0
2018-08-24 15:36:00,89.52099,16.67158,929.045,270.36,100.0,640.6,15.9,-0.29,-43.29,39.4,33.59,304.54,305.49,38.34,34.08,304.83,306.5,1.0
2018-08-24 15:36:00,89.52099,16.67153,929.059,270.35,100.0,640.5,12.25,-0.07,-43.22,38.22,33.79,304.56,306.6,38.6,34.29,304.67,306.44,1.0
2018-08-24 15:36:00,89.52099,16.6715,929.06,270.35,100.0,640.5,9.48,0.01,-43.1,38.87,33.79,304.43,306.54,38.95,34.46,304.53,306.37,1.0
2018-08-24 15:36:00,89.52099,16.67146,929.067,270.36,100.0,640.4,7.53,0.04,-43.04,39.27,34.0,304.18,306.64,39.36,34.58,304.41,306.31,1.0
2018-08-24 15:36:00,89.52099,16.67142,929.093,270.35,100.0,640.2,5.82,0.08,-43.01,38.35,33.93,304.37,306.53,39.79,34.63,304.32,306.3,1.0
2018-08-24 15:36:00,89.52099,16.67138,929.028,270.35,100.0,640.8,4.15,-0.01,-42.74,39.27,34.14,304.37,306.82,40.2,34.61,304.3,306.37,1.0
2018-08-24 15:36:00,89.52099,16.67135,929.045,270.35,100.0,640.6,4.4,-0.0,-42.95,38.68,33.93,304.55,306.63,40.53,34.53,304.24,306.47,1.0
2018-08-24 15:36:00,89.52099,16.67131,929.081,270.35,100.0,640.3,6.01,-0.01,-42.98,39.14,34.07,304.65,306.64,40.74,34.39,304.25,306.51,1.0
2018-08-24 15:36:00,89.52099,16.67127,929.103,270.35,100.0,640.1,8.55,-0.03,-43.18,37.89,34.0,304.46,306.92,40.81,34.23,304.34,306.58,1.0
2018-08-24 15:36:00,89.52099,16.67123,929.097,270.36,100.0,640.2,10.84,-0.02,-43.59,39.27,33.93,304.55,306.62,40.71,34.05,304.51,306.7,1.0
2018-08-24 15:36:00,89.52099,16.6712,929.065,270.35,100.0,640.5,11.13,0.08,-43.89,39.07,34.07,304.48,306.64,40.46,33.88,304.69,306.84,1.0
2018-08-24 15:36:00,89.52099,16.67116,929.039,270.35,100.0,640.7,9.67,0.09,-44.18,39.46,34.0,304.11,306.44,40.07,33.75,304.73,306.87,1.0
2018-08-24 15:36:00,89.52099,16.67112,929.05,270.36,100.0,640.6,8.74,0.12,-44.39,39.72,34.21,304.3,306.62,39.6,33.65,304.81,306.8,1.0
2018-08-24 15:36:00,89.52099,16.67108,929.076,270.36,100.0,640.4,8.86,0.09,-44.58,39.46,33.93,304.89,306.87,39.09,33.59,304.82,306.76,1.0
2018-08-24 15:36:00,89.52099,16.67105,929.081,270.36,100.0,640.3,9.36,0.01,-44.53,39.2,33.86,305.02,307.13,38.62,33.58,304.78,306.75,1.0
2018-08-24 15:36:00,89.52099,16.67101,929.023,270.35,100.0,640.8,9.36,-0.07,-44.08,39.59,33.86,305.01,307.46,38.23,33.6,304.72,306.74,1.0
2018-08-24 15:36:00,89.52099,16.67097,929.028,270.35,100.0,640.8,9.7,-0.12,-43.66,39.33,33.86,303.7,306.35,37.96,33.65,304.66,306.73,1.0
2018-08-24 15:36:00,89.52099,16.67093,929.027,270.36,100.0,640.8,9.52,-0.26,-43.22,38.61,33.93,304.43,305.5,37.84,33.72,304.54,306.66,1.0
2018-08-24 15:36:00,89.52099,16.67086,929.03,270.36,100.0,640.7,9.81,-0.22,-43.04,39.14,34.0,304.12,305.84,37.87,33.79,304.45,306.65,1.0
2018-08-24 15:36:00,89.52099,16.67078,929.041,270.35,100.0,640.7,10.71,-0.22,-43.02,37.89,34.0,304.08,306.56,38.02,33.87,304.4,306.67,1.0
2018-08-24 15:36:00,89.52099,16.67071,929.06,270.35,100.0,640.5,11.53,-0.31,-42.99,39.27,33.79,304.38,306.77,38.25,33.95,304.33,306.66,1.0
2018-08-24 15:36:00,89.52099,16.67064,929.094,270.35,100.0,640.2,10.67,-0.11,-42.79,39.14,34.21,304.49,306.69,38.51,34.01,304.24,306.58,1.0
2018-08-24 15:36:00,89.52099,16.67057,929.063,270.36,100.0,640.5,9.97,-0.24,-42.96,39.14,34.0,303.4,305.67,38.74,34.07,304.29,306.58,1.0
2018-08-24 15:36:00,89.52099,16.6705,929.075,270.35,100.0,640.4,10.02,-0.21,-43.37,39.53,33.93,303.9,306.34,38.92,34.12,304.29,306.65,1.0
2018-08-24 15:36:00,89.52099,16.67043,929.07,270.35,100.0,640.4,10.29,-0.21,-43.55,39.2,33.86,304.61,306.9,39.01,34.15,304.38,306.66,1.0
2018-08-24 15:36:00,89.52099,16.67035,929.047,270.36,100.0,640.6,10.3,-0.2,-43.65,37.83,33.79,304.9,306.92,39.01,34.16,304.53,306.63,1.0
2018-08-24 15:36:00,89.52099,16.6703,929.105,270.35,100.0,640.1,9.56,-0.07,-44.1,38.81,33.93,304.54,306.6,38.93,34.14,304.64,306.6,1.0
2018-08-24 15:36:00,89.52099,16.67025,929.05,270.35,100.0,640.6,7.57,-0.19,-43.82,39.27,33.93,304.63,306.71,38.81,34.09,304.71,306.57,1.0
2018-08-24 15:36:00,89.52099,16.67019,929.035,270.36,100.0,640.7,8.63,0.04,-44.1,39.79,34.0,304.63,306.52,38.69,34.01,304.85,306.64,1.0
2018-08-24 15:36:00,89.52099,16.67014,929.05,270.36,100.0,640.6,10.4,0.14,-44.11,38.48,34.14,304.92,306.77,38.6,33.89,304.9,306.67,1.0
2018-08-24 15:36:00,89.52099,16.67009,929.07,270.35,100.0,640.4,12.19,0.06,-43.89,39.53,33.93,305.58,306.67,38.58,33.74,304.85,306.66,1.0
2018-08-24 15:36:00,89.52099,16.67004,929.064,270.35,100.0,640.5,13.5,-0.11,-43.59,38.55,34.14,305.5,307.0,38.63,33.58,304.73,306.64,1.0
2018-08-24 15:36:00,89.52099,16.66999,929.032,270.35,100.0,640.7,13.12,-0.17,-43.2,39.07,33.93,305.31,306.62,38.74,33.42,304.55,306.64,1.0
2018-08-24 15:36:00,89.52099,16.66994,929.061,270.35,100.0,640.5,12.53,-0.39,-43.27,39.27,34.0,305.1,306.81,38.9,33.26,304.62,306.72,1.0
2018-08-24 15:36:00,89.52099,16.66989,929.033,270.35,100.0,640.7,10.93,-0.37,-42.77,38.74,34.0,304.72,306.92,39.07,33.14,304.55,306.76,1.0
2018-08-24 15:36:00,89.52099,16.66984,929.022,270.35,100.0,640.8,9.34,-0.47,-42.33,38.15,33.93,304.68,306.6,39.2,33.07,304.37,306.72,1.0
2018-08-24 15:36:00,89.52099,16.66978,929.072,270.35,100.0,640.4,8.26,-0.66,-42.26,38.35,34.0,304.0,306.45,39.26,33.05,304.22,306.68,1.0
2018-08-24 15:36:00,89.52099,16.66973,929.096,270.35,100.0,640.2,7.71,-0.48,-42.53,39.27,33.79,302.86,306.14,39.22,33.08,304.16,306.72,1.0
2018-08-24 15:36:00,89.52099,16.66968,929.063,270.35,100.0,640.5,8.97,-0.47,-42.76,38.94,33.79,305.21,307.11,39.06,33.18,304.1,306.73,1.0
2018-08-24 15:36:00,89.52099,16.66963,929.052,270.35,100.0,640.6,9.06,-0.49,-42.64,39.79,33.86,303.83,306.45,38.8,33.32,304.05,306.71,1.0
2018-08-24 15:36:00,89.52099,16.66957,929.039,270.35,100.0,640.7,8.36,-0.5,-42.45,39.33,33.72,302.9,305.98,38.46,33.49,304.02,306.65,1.0
2018-08-24 15:36:00,89.52099,16.66952,929.011,270.35,100.0,640.9,7.87,-0.49,-42.4,39.07,33.59,303.51,306.24,38.09,33.68,303.98,306.58,1.0
2018-08-24 15:36:00,89.52099,16.66946,929.0,270.35,100.0,641.0,8.87,-0.45,-42.56,38.87,33.79,304.33,307.62,37.73,33.87,303.99,306.56,1.0
2018-08-24 15:36:00,89.52098,16.6694,929.069,270.35,100.0,640.4,9.82,-0.37,-42.71,38.87,33.79,304.35,307.31,37.41,34.03,304.11,306.58,1.0
2018-08-24 15:36:00,89.52098,16.66935,929.076,270.35,100.0,640.4,10.06,-0.44,-42.53,38.74,33.93,304.39,307.01,37.19,34.16,303.97,306.53,1.0
2018-08-24 15:36:00,89.52098,16.66929,929.056,270.35,100.0,640.5,10.33,-0.43,-42.37,38.28,34.0,304.32,307.11,37.07,34.25,303.93,306.59,1.0
2018-08-24 15:36:00,89.52098,16.66924,929.057,270.35,100.0,640.5,10.5,-0.42,-42.48,39.14,33.79,304.45,306.79,37.06,34.28,303.96,306.71,1.0
2018-08-24 15:36:00,89.52098,16.66918,929.098,270.35,100.0,640.2,10.1,-0.43,-42.86,38.61,34.07,304.2,306.5,37.14,34.27,303.98,306.77,1.0
2018-08-24 15:36:00,89.52098,16.66913,929.077,270.35,100.0,640.3,8.38,-0.28,-43.18,38.48,33.72,304.34,306.71,37.3,34.21,303.95,306.74,1.0
2018-08-24 15:36:00,89.52098,16.66907,929.074,270.35,100.0,640.4,6.87,-0.34,-43.73,38.87,33.79,304.33,306.41,37.52,34.12,303.94,306.71,1.0
2018-08-24 15:36:00,89.52098,16.66902,929.084,270.35,100.0,640.3,5.83,-0.24,-44.17,38.87,33.86,303.9,307.05,37.75,33.99,303.95,306.71,1.0
2018-08-24 15:36:00,89.52098,16.66897,929.084,270.35,100.0,640.3,4.97,-0.21,-44.54,38.28,34.0,303.91,307.06,38.0,33.85,303.99,306.73,1.0
2018-08-24 15:36:00,89.52098,16.66892,929.064,270.35,100.0,640.5,4.3,-0.3,-44.88,38.81,33.79,304.53,306.6,38.24,33.71,304.07,306.77,1.0
2018-08-24 15:36:00,89.52098,16.66887,929.05,270.35,100.0,640.6,4.17,-0.31,-45.16,38.61,33.93,304.53,306.51,38.48,33.57,304.18,306.83,1.0
2018-08-24 15:36:00,89.52098,16.66882,929.063,270.35,100.0,640.5,5.6,-0.17,-45.34,38.35,33.93,304.33,306.79,38.72,33.45,304.37,306.95,1.0
2018-08-24 15:36:00,89.52098,16.66877,929.065,270.35,100.0,640.4,7.79,-0.19,-45.26,38.09,33.93,304.52,306.61,38.98,33.36,304.49,306.96,1.0
2018-08-24 15:36:00,89.52098,16.66872,929.062,270.35,100.0,640.5,9.14,-0.23,-45.34,38.35,34.0,304.53,306.8,39.25,33.3,304.67,306.88,1.0
2018-08-24 15:36:00,89.52098,16.66867,929.052,270.35,100.0,640.6,10.03,-0.29,-45.29,39.14,33.79,304.34,306.51,39.55,33.29,304.82,306.86,1.0
2018-08-24 15:36:00,89.52098,16.66862,929.033,270.35,100.0,640.7,10.86,-0.34,-44.89,38.87,34.0,304.52,306.9,39.87,33.31,304.91,306.92,1.0
2018-08-24 15:36:00,89.52098,16.66857,929.056,270.35,100.0,640.5,10.14,-0.34,-44.62,38.87,33.86,305.42,307.66,40.17,33.38,304.98,306.87,1.0
2018-08-24 15:36:00,89.52098,16.66852,929.037,270.35,100.0,640.7,8.41,-0.34,-44.18,38.55,33.72,304.64,306.26,40.44,33.48,305.04,306.81,1.0
2018-08-24 15:36:00,89.52098,16.66847,929.053,270.36,100.0,640.5,7.49,-0.45,-44.02,38.15,33.52,304.37,305.88,40.65,33.61,305.02,306.8,1.0
2018-08-24 15:36:00,89.52098,16.66842,929.073,270.36,100.0,640.4,7.88,-0.56,-43.97,38.87,33.66,304.41,306.53,40.77,33.76,304.99,306.77,1.0
2018-08-24 15:36:00,89.52098,16.66837,929.073,270.35,100.0,640.4,9.34,-0.63,-43.84,38.74,33.79,304.59,307.54,40.78,33.91,304.98,306.68,1.0
2018-08-24 15:36:00,89.52098,16.66833,929.1,270.35,100.0,640.1,10.86,-0.63,-43.46,38.55,33.93,304.89,306.44,40.67,34.05,304.87,306.62,1.0
2018-08-24 15:36:00,89.52098,16.66829,929.084,270.36,100.0,640.3,11.37,-0.84,-43.7,39.14,33.93,305.27,306.8,40.46,34.16,304.71,306.52,1.0
2018-08-24 15:36:00,89.52098,16.66825,929.026,270.35,100.0,640.8,11.05,-0.9,-43.78,39.4,33.72,304.93,307.64,40.16,34.24,304.65,306.56,1.0
2018-08-24 15:36:00,89.52098,16.66821,929.002,270.35,100.0,641.0,11.21,-0.82,-43.78,38.74,33.79,305.0,307.06,39.8,34.28,304.64,306.74,1.0
2018-08-24 15:36:00,89.52098,16.66818,929.033,270.35,100.0,640.7,11.42,-0.73,-43.83,39.79,33.86,305.32,306.3,39.42,34.28,304.66,306.92,1.0
2018-08-24 15:36:00,89.52098,16.66814,929.072,270.35,100.0,640.4,10.07,-0.84,-44.08,39.27,33.93,304.61,306.63,39.06,34.25,304.71,307.06,1.0
2018-08-24 15:36:00,89.52098,16.6681,929.095,270.35,100.0,640.2,8.77,-0.66,-44.03,38.74,33.93,304.52,306.91,38.75,34.2,304.78,307.28,1.0
2018-08-24 15:36:00,89.52098,16.66806,929.072,270.35,100.0,640.4,8.73,-0.62,-44.57,38.74,33.86,304.52,306.6,38.51,34.13,304.83,307.47,1.0
2018-08-24 15:36:00,89.52098,16.66802,929.037,270.35,100.0,640.7,9.8,-0.38,-44.83,39.33,33.93,304.55,307.44,38.35,34.06,304.93,307.54,1.0
2018-08-24 15:36:00,89.52098,16.66798,929.032,270.36,100.0,640.7,10.73,-0.32,-44.87,39.01,33.79,304.36,307.98,38.27,34.0,304.97,307.58,1.0
2018-08-24 15:36:00,89.52098,16.66794,929.077,270.36,100.0,640.3,10.52,-0.57,-44.92,38.61,34.0,304.6,307.86,38.24,33.96,304.95,307.62,1.0
2018-08-24 15:36:00,89.52098,16.6679,929.131,270.36,100.0,639.9,8.67,-0.54,-44.92,39.07,33.86,304.61,307.73,38.26,33.94,304.98,307.56,1.0
2018-08-24 15:36:00,89.52098,16.66787,929.118,270.36,100.0,640.0,7.06,-0.53,-44.84,38.68,33.86,304.52,307.31,38.3,33.94,304.95,307.47,1.0
2018-08-24 15:36:00,89.52098,16.66783,929.118,270.35,100.0,640.0,5.78,-0.58,-45.12,39.33,33.93,304.14,307.4,38.35,33.95,304.88,307.37,1.0
2018-08-24 15:36:00,89.52098,16.66779,929.108,270.35,100.0,640.1,3.91,-0.63,-45.21,38.61,33.93,304.41,307.27,38.39,33.97,304.79,307.19,1.0
2018-08-24 15:36:00,89.52098,16.66774,929.078,270.36,100.0,640.3,1.34,-0.66,-45.15,38.81,33.86,304.31,306.93,38.43,33.98,304.69,307.0,1.0
2018-08-24 15:36:00,89.52098,16.66767,929.086,270.35,100.0,640.3,-0.49,-0.65,-45.43,39.14,33.93,304.42,306.4,38.46,33.98,304.58,306.84,1.0
2018-08-24 15:36:00,89.52098,16.66759,929.129,270.36,100.0,639.9,0.7,-0.65,-45.76,38.68,33.86,304.42,306.6,38.49,33.96,304.49,306.75,1.0
2018-08-24 15:36:00,89.52098,16.66752,929.104,270.36,100.0,640.1,0.93,-0.57,-45.55,38.94,33.93,304.52,306.7,38.54,33.91,304.43,306.71,1.0
2018-08-24 15:36:00,89.52098,16.66744,929.1,270.36,100.0,640.1,1.52,-0.61,-45.49,39.72,33.93,304.33,306.89,38.62,33.84,304.4,306.72,1.0
2018-08-24 15:36:00,89.52098,16.66737,929.094,270.36,100.0,640.2,3.02,-0.69,-45.55,38.81,33.93,304.42,306.6,38.73,33.75,304.41,306.76,1.0
2018-08-24 15:36:00,89.52098,16.6673,929.045,270.36,100.0,640.6,5.24,-0.68,-45.57,38.09,34.14,304.42,306.6,38.87,33.65,304.45,306.83,1.0
2018-08-24 15:36:00,89.52098,16.66722,929.043,270.36,100.0,640.6,6.94,-0.64,-45.56,38.35,33.79,304.52,306.7,39.04,33.55,304.5,306.92,1.0
2018-08-24 15:36:00,89.52098,16.66715,929.092,270.36,100.0,640.2,8.01,-0.69,-45.33,38.87,33.93,304.61,306.6,39.22,33.46,304.48,306.97,1.0
2018-08-24 15:36:00,89.52098,16.66708,929.099,270.36,100.0,640.1,7.21,-0.62,-45.17,38.94,33.79,304.52,306.6,39.39,33.4,304.58,307.02,1.0
2018-08-24 15:36:00,89.52098,16.66703,929.093,270.36,100.0,640.2,6.24,-0.52,-45.45,39.14,33.93,304.52,306.6,39.55,33.37,304.67,307.02,1.0
2018-08-24 15:36:00,89.52098,16.66698,929.094,270.35,100.0,640.2,5.14,-0.4,-45.96,39.07,33.86,304.52,306.79,39.68,33.37,304.7,306.97,1.0
2018-08-24 15:36:00,89.52098,16.66693,929.084,270.35,100.0,640.3,2.77,-0.25,-46.14,38.87,33.93,304.59,306.76,39.76,33.4,304.7,306.88,1.0
2018-08-24 15:36:00,89.52098,16.66687,929.074,270.35,100.0,640.4,0.41,-0.53,-45.87,39.14,33.86,303.63,306.52,39.8,33.46,304.69,306.76,1.0
2018-08-24 15:36:00,89.52098,16.66682,929.095,270.35,100.0,640.2,-0.16,-0.5,-45.54,38.48,33.72,304.9,306.57,39.79,33.53,304.73,306.65,1.0
2018-08-24 15:36:00,89.52098,16.66677,929.09,270.35,100.0,640.2,0.29,-0.46,-45.22,38.28,33.86,304.96,306.82,39.74,33.61,304.76,306.61,1.0
2018-08-24 15:36:00,89.52098,16.66672,929.067,270.36,100.0,640.4,0.73,-0.4,-44.91,40.51,33.79,304.51,306.7,39.66,33.69,304.77,306.6,1.0
2018-08-24 15:36:00,89.52098,16.66666,929.095,270.36,100.0,640.2,0.82,-0.26,-44.52,38.55,33.79,304.5,306.82,39.55,33.75,304.78,306.59,1.0
2018-08-24 15:36:00,89.52098,16.66661,929.072,270.36,100.0,640.4,0.42,-0.59,-44.01,38.94,33.79,304.71,306.15,39.43,33.8,304.78,306.62,1.0
2018-08-24 15:36:00,89.52098,16.66656,929.046,270.36,100.0,640.6,-0.84,-0.63,-43.81,39.33,33.79,305.45,306.53,39.31,33.82,304.88,306.68,1.0
2018-08-24 15:36:00,89.52098,16.66651,929.043,270.36,100.0,640.6,-0.86,-0.64,-43.71,38.35,33.86,305.28,307.07,39.18,33.83,304.82,306.72,1.0
2018-08-24 15:36:00,89.52098,16.66646,929.052,270.36,100.0,640.5,0.29,-0.51,-43.78,38.94,33.86,305.03,306.85,39.05,33.81,304.72,306.75,1.0
2018-08-24 15:36:00,89.52097,16.66642,929.056,270.36,100.0,640.5,1.22,-0.34,-43.89,39.27,33.93,304.98,306.8,38.94,33.79,304.67,306.84,1.0
2018-08-24 15:36:00,89.52097,16.66637,929.059,270.36,100.0,640.5,-0.22,-0.42,-43.74,39.59,33.72,304.85,306.6,38.83,33.76,304.63,307.01,1.0
2018-08-24 15:36:00,89.52097,16.66633,929.044,270.36,100.0,640.6,0.91,-0.39,-43.95,39.27,33.86,305.21,306.88,38.73,33.73,304.59,307.13,1.0
2018-08-24 15:36:00,89.52097,16.66628,929.064,270.36,100.0,640.4,3.07,-0.36,-43.82,39.2,33.79,304.81,306.79,38.65,33.7,304.48,307.2,1.0
2018-08-24 15:36:00,89.52097,16.66624,929.071,270.36,100.0,640.4,4.81,-0.37,-43.67,38.28,33.79,304.32,306.5,38.59,33.68,304.39,307.18,1.0
2018-08-24 15:36:00,89.52097,16.6662,929.064,270.36,100.0,640.4,5.18,-0.35,-43.39,39.14,33.93,304.51,307.15,38.55,33.67,304.35,307.14,1.0
2018-08-24 15:36:00,89.52097,16.66615,929.085,270.36,100.0,640.3,4.07,-0.27,-42.86,38.22,33.86,304.6,308.06,38.56,33.65,304.35,307.11,1.0
2018-08-24 15:36:00,89.52097,16.66611,929.075,270.35,100.0,640.3,4.43,-0.44,-42.77,39.4,33.79,304.37,307.77,38.61,33.63,304.45,307.07,1.0
2018-08-24 15:36:00,89.52097,16.66606,929.076,270.36,100.0,640.3,2.71,-0.38,-43.21,39.33,33.79,304.59,307.54,38.71,33.6,304.48,307.03,1.0
2018-08-24 15:36:00,89.52097,16.66602,929.045,270.36,100.0,640.6,0.49,-0.48,-43.67,39.2,33.79,304.42,307.7,38.86,33.56,304.58,307.01,1.0
2018-08-24 15:36:00,89.52097,16.66598,929.027,270.36,100.0,640.8,-1.18,-0.58,-44.1,39.07,33.72,304.33,307.34,39.04,33.51,304.69,307.01,1.0
2018-08-24 15:36:00,89.52097,16.66593,929.062,270.36,100.0,640.5,-1.42,-0.6,-44.47,39.27,33.86,304.64,307.42,39.26,33.46,304.77,307.0,1.0
2018-08-24 15:36:00,89.52097,16.66588,929.026,270.36,100.0,640.8,0.76,-0.71,-44.61,38.55,33.72,305.43,307.12,39.49,33.42,304.83,306.91,1.0
