Date/Time,Latitude,Longitude,PPPP [hPa],TTT grad [K],RH [%],Height [m],Pitch [deg],Roll [deg],Yaw [deg],SWD [W/m**2] (raw),SWU [W/m**2] (raw),LWD [W/m**2] (raw),LWU [W/m**2] (raw),SWD [W/m**2] (corrected),SWU [W/m**2] (corrected),LWD [W/m**2] (corrected),LWU [W/m**2] (corrected),Flag
2018-08-26 16:21:00,89.62686,27.04859,936.472,269.07,97.4,554.6,-4.76,0.6,171.68,97.78,75.67,293.0,302.26,94.92,75.61,291.74,301.53,1.0
2018-08-26 16:21:00,89.62686,27.04851,936.54,269.07,97.5,554.0,-3.39,0.58,171.33,98.36,75.74,291.38,302.54,94.82,75.66,291.74,301.44,1.0
2018-08-26 16:21:00,89.62686,27.04843,936.541,269.07,97.5,554.0,-2.86,0.64,171.04,97.64,75.88,291.3,301.91,94.92,75.71,291.75,301.47,1.0
2018-08-26 16:21:00,89.62686,27.04834,936.52,269.07,97.5,554.2,-2.48,0.79,170.63,97.12,75.88,291.27,302.0,95.22,75.76,291.7,301.46,1.0
2018-08-26 16:21:00,89.62686,27.04826,936.518,269.06,97.5,554.2,-2.45,0.92,170.14,98.5,75.81,291.91,301.58,95.68,75.82,291.65,301.39,1.0
2018-08-26 16:21:00,89.62686,27.04818,936.562,269.07,97.5,553.8,-3.13,0.91,169.67,97.38,75.67,293.19,300.39,96.27,75.87,291.61,301.31,1.0
2018-08-26 16:21:00,89.62686,27.0481,936.549,269.07,97.5,553.9,-3.45,0.93,169.12,96.4,75.74,293.21,301.02,96.93,75.92,291.51,301.19,1.0
2018-08-26 16:21:00,89.62686,27.04801,936.501,269.07,97.5,554.3,-3.74,0.72,168.66,96.53,75.67,291.59,300.99,97.63,75.95,291.71,301.04,1.0
2018-08-26 16:21:00,89.62686,27.04793,936.498,269.07,97.5,554.3,-4.29,0.62,168.22,97.25,75.81,291.31,300.62,98.32,75.98,291.84,300.94,1.0
2018-08-26 16:21:00,89.62686,27.04785,936.538,269.07,97.5,554.0,-4.28,0.59,167.68,97.64,75.88,291.28,300.85,98.98,76.0,291.92,300.82,1.0
2018-08-26 16:21:00,89.62686,27.04777,936.575,269.07,97.5,553.7,-3.43,0.51,167.04,99.28,75.88,291.28,301.11,99.6,76.01,291.95,300.7,1.0
2018-08-26 16:21:00,89.62686,27.04768,936.534,269.06,97.5,554.0,-2.98,0.37,166.59,97.06,75.81,291.3,300.21,100.15,76.0,291.84,300.69,1.0
2018-08-26 16:21:00,89.62686,27.0476,936.553,269.07,97.5,553.9,-2.43,0.46,166.1,97.64,75.81,292.69,300.15,100.64,75.99,291.72,300.59,1.0
2018-08-26 16:21:00,89.62686,27.04756,936.548,269.07,97.5,553.9,-1.92,0.51,165.57,97.38,75.74,291.78,300.28,101.06,75.98,291.71,300.5,1.0
2018-08-26 16:21:00,89.62686,27.04751,936.527,269.07,97.5,554.1,-2.1,0.58,165.05,99.08,75.81,291.25,300.61,101.42,75.97,291.72,300.42,1.0
2018-08-26 16:21:00,89.62686,27.04747,936.524,269.07,97.5,554.1,-2.88,0.67,164.53,97.38,75.81,291.33,300.5,101.71,75.97,291.72,300.34,1.0
2018-08-26 16:21:00,89.62686,27.04742,936.566,269.07,97.5,553.8,-3.63,0.77,163.96,98.04,75.81,291.47,300.75,101.91,75.98,291.71,300.28,1.0
2018-08-26 16:21:00,89.62685,27.04738,936.518,269.07,97.5,554.2,-5.29,0.81,163.38,97.64,75.74,291.81,300.59,102.01,75.99,291.77,300.29,1.0
2018-08-26 16:21:00,89.62685,27.04733,936.506,269.07,97.5,554.3,-6.35,0.7,162.78,98.04,76.02,291.44,300.7,101.98,76.01,291.62,300.34,1.0
2018-08-26 16:21:00,89.62685,27.04729,936.538,269.07,97.5,554.0,-6.76,0.65,162.15,98.23,75.81,291.53,300.72,101.8,76.03,291.6,300.41,1.0
2018-08-26 16:21:00,89.62685,27.04724,936.585,269.07,97.5,553.6,-6.47,0.62,161.6,99.28,75.88,291.63,300.7,101.46,76.04,291.67,300.53,1.0
2018-08-26 16:21:00,89.62685,27.0472,936.589,269.07,97.5,553.6,-5.63,0.57,161.16,99.87,75.88,292.06,300.65,100.97,76.03,291.73,300.69,1.0
2018-08-26 16:21:00,89.62685,27.04715,936.538,269.06,97.5,554.0,-4.61,0.68,160.64,97.25,75.81,292.61,300.9,100.34,76.02,291.78,300.85,1.0
2018-08-26 16:21:00,89.62685,27.04711,936.57,269.07,97.5,553.7,-3.92,0.71,160.05,99.48,75.81,291.98,301.0,99.63,75.98,291.78,300.97,1.0
2018-08-26 16:21:00,89.62685,27.04706,936.589,269.07,97.5,553.6,-3.52,0.75,159.44,98.23,75.74,292.52,301.14,98.88,75.93,291.92,301.12,1.0
2018-08-26 16:21:00,89.62685,27.04702,936.577,269.07,97.5,553.7,-3.27,0.84,158.77,99.28,75.81,292.72,301.22,98.18,75.87,292.07,301.22,1.0
2018-08-26 16:21:00,89.62685,27.04697,936.549,269.07,97.5,553.9,-3.2,0.93,158.03,98.23,76.02,292.24,301.39,97.62,75.81,292.18,301.26,1.0
2018-08-26 16:21:00,89.62685,27.04693,936.54,269.06,97.5,554.0,-3.56,0.9,157.29,98.04,75.88,292.02,301.68,97.27,75.76,292.33,301.3,1.0
2018-08-26 16:21:00,89.62685,27.04691,936.564,269.07,97.5,553.8,-3.74,0.89,156.48,99.35,75.95,291.64,300.94,97.2,75.73,292.36,301.41,1.0
2018-08-26 16:21:00,89.62685,27.04689,936.588,269.07,97.5,553.6,-3.87,0.86,155.69,98.04,75.88,292.44,301.58,97.44,75.73,292.56,301.46,1.0
2018-08-26 16:21:00,89.62685,27.04687,936.568,269.07,97.5,553.7,-4.06,0.8,154.91,98.82,75.88,292.42,301.17,97.99,75.77,292.67,301.45,1.0
2018-08-26 16:21:00,89.62685,27.04685,936.514,269.07,97.5,554.2,-4.2,0.75,154.21,98.63,75.81,291.35,300.55,98.81,75.85,292.69,301.39,1.0
2018-08-26 16:21:00,89.62684,27.04683,936.515,269.06,97.5,554.2,-4.13,0.76,153.58,98.23,75.6,292.12,301.03,99.83,75.96,292.7,301.3,1.0
2018-08-26 16:21:00,89.62684,27.04681,936.571,269.07,97.5,553.7,-4.29,0.68,153.01,97.84,75.88,291.91,301.93,100.94,76.09,292.54,301.29,1.0
2018-08-26 16:21:00,89.62684,27.04679,936.572,269.07,97.5,553.7,-3.67,0.74,152.46,97.32,75.88,293.68,301.83,102.01,76.23,292.47,301.31,1.0
2018-08-26 16:21:00,89.62684,27.04677,936.559,269.07,97.5,553.8,-3.87,0.7,151.93,98.89,75.88,293.57,301.41,102.91,76.37,292.27,301.32,1.0
2018-08-26 16:21:00,89.62684,27.04675,936.558,269.07,97.5,553.8,-4.41,0.61,151.46,98.3,75.81,293.26,301.51,103.52,76.48,292.18,301.37,1.0
2018-08-26 16:21:00,89.62684,27.04675,936.577,269.07,97.5,553.7,-4.64,0.64,151.1,99.67,75.67,293.46,300.9,103.77,76.56,292.22,301.4,1.0
2018-08-26 16:21:00,89.62684,27.04677,936.556,269.07,97.5,553.8,-4.54,1.03,150.81,99.28,76.02,291.42,301.91,103.6,76.59,292.14,301.37,1.0
2018-08-26 16:21:00,89.62684,27.04678,936.552,269.07,97.5,553.9,-5.5,0.95,150.66,100.65,76.02,292.1,301.53,103.03,76.59,292.25,301.33,1.0
2018-08-26 16:21:00,89.62684,27.0468,936.571,269.07,97.5,553.7,-6.11,0.96,150.59,99.67,76.23,291.68,301.56,102.11,76.54,292.31,301.34,1.0
2018-08-26 16:21:00,89.62684,27.04681,936.579,269.07,97.5,553.7,-5.66,0.98,150.74,98.82,76.02,292.25,301.07,100.94,76.47,292.41,301.35,1.0
2018-08-26 16:21:00,89.62684,27.04683,936.571,269.07,97.5,553.7,-4.39,0.99,151.14,99.41,75.95,292.69,300.81,99.65,76.39,292.49,301.32,1.0
2018-08-26 16:21:00,89.62684,27.04685,936.591,269.07,97.5,553.6,-3.27,1.04,151.71,99.74,75.95,291.75,300.39,98.39,76.31,292.51,301.26,1.0
2018-08-26 16:21:00,89.62683,27.04686,936.569,269.07,97.5,553.7,-1.72,1.09,152.37,99.67,75.88,292.82,300.97,97.28,76.25,292.79,301.22,1.0
2018-08-26 16:21:00,89.62683,27.04688,936.601,269.07,97.5,553.5,-1.47,1.08,152.95,99.48,76.02,293.22,301.46,96.45,76.2,292.85,301.15,1.0
2018-08-26 16:21:00,89.62683,27.04689,936.611,269.07,97.5,553.4,-1.63,1.08,153.58,98.3,76.09,293.17,301.5,95.97,76.19,292.84,301.02,1.0
2018-08-26 16:21:00,89.62683,27.04691,936.583,269.07,97.5,553.6,-1.76,1.11,154.3,98.69,76.02,292.67,300.75,95.87,76.21,292.73,300.9,1.0
2018-08-26 16:21:00,89.62683,27.04692,936.548,269.07,97.5,553.9,-1.83,1.13,155.06,99.22,75.88,292.24,300.55,96.13,76.24,292.55,300.86,1.0
2018-08-26 16:21:00,89.62683,27.04694,936.577,269.07,97.5,553.7,-2.89,1.05,155.83,98.89,75.95,293.47,301.6,96.67,76.28,292.48,300.88,1.0
2018-08-26 16:21:00,89.62683,27.04695,936.612,269.07,97.5,553.4,-4.06,1.07,156.66,98.23,76.02,292.02,300.8,97.39,76.31,292.25,300.75,1.0
2018-08-26 16:21:00,89.62683,27.04696,936.627,269.07,97.5,553.3,-4.93,1.11,157.59,98.82,76.16,291.73,300.55,98.17,76.33,292.11,300.72,1.0
2018-08-26 16:21:00,89.62683,27.04697,936.63,269.07,97.5,553.2,-5.0,1.14,158.72,99.08,76.09,291.71,300.44,98.87,76.32,292.07,300.71,1.0
2018-08-26 16:21:00,89.62683,27.04698,936.63,269.07,97.5,553.2,-4.29,1.14,160.07,99.02,75.95,291.89,300.24,99.38,76.27,292.08,300.69,1.0
2018-08-26 16:21:00,89.62683,27.04698,936.607,269.07,97.5,553.4,-3.35,1.12,161.41,98.5,76.09,292.31,300.53,99.62,76.2,292.07,300.75,1.0
2018-08-26 16:21:00,89.62683,27.04699,936.596,269.07,97.5,553.5,-2.46,1.1,162.68,98.56,76.16,291.78,299.8,99.55,76.1,291.9,300.72,1.0
2018-08-26 16:21:00,89.62682,27.047,936.626,269.07,97.5,553.3,-2.57,0.98,163.85,99.08,76.09,292.98,300.73,99.17,75.98,291.9,300.72,1.0
2018-08-26 16:21:00,89.62682,27.04701,936.641,269.07,97.5,553.1,-3.11,0.91,164.94,98.69,76.16,293.85,301.1,98.53,75.86,291.94,300.74,1.0
2018-08-26 16:21:00,89.62682,27.04702,936.626,269.07,97.5,553.3,-3.66,0.89,165.98,100.06,76.02,293.27,300.72,97.71,75.74,292.06,300.81,1.0
2018-08-26 16:21:00,89.62682,27.04703,936.625,269.07,97.4,553.3,-3.98,0.85,166.97,98.23,75.81,292.35,301.11,96.83,75.65,292.25,300.96,1.0
2018-08-26 16:21:00,89.62682,27.04704,936.669,269.07,97.5,552.9,-4.06,0.85,167.89,99.08,76.02,291.16,301.38,96.0,75.58,292.34,301.11,1.0
2018-08-26 16:21:00,89.62682,27.04704,936.64,269.07,97.5,553.1,-4.51,0.83,168.68,99.08,76.02,291.22,301.15,95.33,75.55,292.44,301.42,1.0
2018-08-26 16:21:00,89.62682,27.04703,936.636,269.07,97.5,553.2,-4.88,0.81,169.39,99.48,76.16,291.28,301.37,94.91,75.55,292.32,301.57,1.0
2018-08-26 16:21:00,89.62682,27.04702,936.639,269.07,97.5,553.2,-4.83,0.8,170.14,99.74,76.09,291.88,301.54,94.79,75.58,292.13,301.64,1.0
2018-08-26 16:21:00,89.62682,27.04702,936.591,269.07,97.5,553.6,-4.16,0.79,170.95,95.88,75.95,293.05,302.61,94.98,75.63,292.06,301.69,1.0
2018-08-26 16:21:00,89.62682,27.04701,936.579,269.07,97.5,553.7,-2.99,0.77,171.75,98.3,75.81,292.36,302.04,95.47,75.71,292.13,301.68,1.0
2018-08-26 16:21:00,89.62682,27.047,936.616,269.07,97.5,553.4,-1.71,0.71,172.41,97.25,75.81,292.15,302.59,96.18,75.79,292.26,301.77,1.0
2018-08-26 16:21:00,89.62682,27.04699,936.629,269.07,97.5,553.2,-1.36,0.69,172.88,97.38,75.88,291.29,302.06,97.04,75.88,292.33,301.76,1.0
2018-08-26 16:21:00,89.62682,27.04698,936.618,269.07,97.5,553.3,-1.66,0.68,173.19,99.02,76.09,291.43,300.96,97.94,75.97,292.39,301.68,1.0
2018-08-26 16:21:00,89.62682,27.04698,936.612,269.07,97.5,553.4,-2.11,0.67,173.38,98.43,75.95,292.66,300.29,98.79,76.04,292.39,301.52,1.0
2018-08-26 16:21:00,89.62682,27.04697,936.638,269.07,97.5,553.2,-2.3,0.71,173.41,99.02,76.02,293.18,300.08,99.5,76.1,292.28,301.26,1.0
2018-08-26 16:21:00,89.62682,27.04696,936.662,269.07,97.5,553.0,-2.64,0.72,173.38,97.64,76.02,293.24,301.62,100.02,76.14,292.21,300.95,1.0
2018-08-26 16:21:00,89.62681,27.04695,936.648,269.07,97.5,553.1,-2.65,0.69,173.3,98.3,76.02,292.68,300.66,100.32,76.15,292.13,300.54,1.0
2018-08-26 16:21:00,89.62681,27.04694,936.639,269.07,97.5,553.2,-2.55,0.66,173.18,98.3,75.88,292.5,300.4,100.4,76.14,292.15,300.18,1.0
2018-08-26 16:21:00,89.62681,27.04693,936.649,269.07,97.5,553.1,-2.46,0.66,172.96,98.76,76.02,292.51,299.79,100.27,76.11,292.08,299.98,1.0
2018-08-26 16:21:00,89.62681,27.04692,936.648,269.07,97.5,553.1,-2.48,0.72,172.6,99.02,76.02,292.16,300.28,100.0,76.04,291.86,299.92,1.0
2018-08-26 16:21:00,89.62681,27.0469,936.645,269.07,97.5,553.1,-2.78,0.77,172.22,98.89,75.95,292.53,299.82,99.63,75.96,291.76,299.83,1.0
2018-08-26 16:21:00,89.62681,27.04689,936.618,269.08,97.5,553.3,-3.39,0.81,171.68,98.23,76.02,292.44,300.15,99.22,75.87,291.7,299.7,1.0
2018-08-26 16:21:00,89.62681,27.04688,936.599,269.07,97.5,553.5,-3.48,0.85,170.99,96.99,75.81,292.9,299.9,98.82,75.78,291.74,299.84,1.0
2018-08-26 16:21:00,89.62681,27.04687,936.592,269.07,97.5,553.5,-3.38,0.93,170.26,99.15,76.09,291.48,300.38,98.46,75.69,291.75,300.1,1.0
2018-08-26 16:21:00,89.62681,27.04686,936.599,269.07,97.5,553.5,-3.4,0.96,169.51,99.67,76.02,290.86,300.91,98.17,75.63,291.69,300.3,1.0
2018-08-26 16:21:00,89.62681,27.04684,936.658,269.07,97.5,553.0,-3.65,0.74,168.58,98.17,76.09,292.44,299.96,97.94,75.59,291.7,300.46,1.0
2018-08-26 16:21:00,89.62681,27.04683,936.667,269.07,97.5,552.9,-3.68,0.85,167.61,99.48,75.95,292.56,300.49,97.77,75.58,291.72,300.67,1.0
2018-08-26 16:21:00,89.62681,27.04682,936.665,269.07,97.5,552.9,-3.82,0.84,166.69,98.3,76.09,292.94,301.55,97.66,75.61,291.72,300.95,1.0
2018-08-26 16:21:00,89.62681,27.0468,936.648,269.07,97.5,553.1,-3.82,0.83,165.79,97.64,75.67,291.64,302.4,97.58,75.67,291.65,301.2,1.0
2018-08-26 16:21:00,89.62681,27.04679,936.622,269.07,97.5,553.3,-3.81,0.89,164.9,97.97,75.67,290.75,300.9,97.54,75.76,291.59,301.36,1.0
2018-08-26 16:21:00,89.62681,27.04678,936.707,269.08,97.5,552.6,-4.28,0.94,164.13,98.04,76.02,291.58,299.91,97.53,75.86,291.6,301.43,1.0
2018-08-26 16:21:00,89.62681,27.04677,936.703,269.07,97.5,552.6,-4.63,0.73,163.36,98.3,75.95,292.02,301.09,97.56,75.98,291.66,301.4,1.0
2018-08-26 16:21:00,89.6268,27.04676,936.71,269.07,97.5,552.6,-4.75,0.79,162.62,99.67,76.02,291.86,301.95,97.67,76.09,291.72,301.3,1.0
2018-08-26 16:21:00,89.6268,27.04674,936.683,269.07,97.5,552.8,-4.58,0.76,161.87,98.95,75.81,291.24,301.92,97.85,76.2,291.79,301.05,1.0
2018-08-26 16:21:00,89.6268,27.04671,936.651,269.07,97.5,553.1,-4.18,0.73,161.11,98.04,75.88,290.75,301.21,98.14,76.29,291.96,300.78,1.0
2018-08-26 16:21:00,89.6268,27.04669,936.676,269.07,97.5,552.8,-3.92,0.82,160.29,97.51,75.88,291.23,301.52,98.52,76.37,292.21,300.62,1.0
2018-08-26 16:21:00,89.6268,27.04666,936.677,269.07,97.5,552.8,-4.88,0.77,159.41,98.89,76.02,293.63,299.84,98.98,76.43,292.42,300.61,1.0
2018-08-26 16:21:00,89.6268,27.04663,936.662,269.07,97.5,553.0,-5.59,0.73,158.56,97.78,76.09,293.64,300.07,99.5,76.48,292.64,300.57,1.0
2018-08-26 16:21:00,89.6268,27.0466,936.69,269.08,97.5,552.7,-6.45,0.74,157.82,98.04,76.09,294.0,300.0,100.04,76.52,292.81,300.54,1.0
2018-08-26 16:21:00,89.6268,27.04658,936.714,269.08,97.5,552.5,-6.5,0.72,157.21,97.25,76.09,293.94,300.02,100.54,76.55,293.05,300.56,1.0
2018-08-26 16:21:00,89.6268,27.04655,936.705,269.07,97.5,552.6,-5.76,0.72,156.73,100.2,75.81,293.59,300.24,100.95,76.58,293.38,300.61,1.0
2018-08-26 16:21:00,89.6268,27.04652,936.711,269.08,97.5,552.6,-5.36,0.84,156.33,98.95,76.16,293.47,300.57,101.22,76.61,293.64,300.71,1.0
2018-08-26 16:21:00,89.6268,27.04649,936.704,269.07,97.5,552.6,-5.17,0.8,155.99,98.95,75.95,293.44,300.8,101.34,76.62,293.66,300.95,1.0
2018-08-26 16:21:00,89.6268,27.04648,936.704,269.07,97.5,552.6,-4.85,0.87,155.67,97.06,75.88,292.64,301.4,101.29,76.62,293.63,301.08,1.0
2018-08-26 16:21:00,89.6268,27.04646,936.727,269.07,97.5,552.4,-4.77,0.84,155.43,99.48,76.09,292.75,301.74,101.09,76.6,293.54,301.25,1.0
2018-08-26 16:21:00,89.6268,27.04645,936.736,269.08,97.5,552.3,-4.8,0.77,155.22,99.48,76.09,293.24,301.69,100.78,76.56,293.43,301.46,1.0
2018-08-26 16:21:00,89.6268,27.04643,936.68,269.07,97.5,552.8,-4.73,0.74,155.01,98.17,76.3,293.31,301.93,100.42,76.49,293.33,301.59,1.0
2018-08-26 16:21:00,89.62679,27.04642,936.732,269.08,97.5,552.4,-4.6,0.62,154.95,100.46,76.16,293.17,301.66,100.07,76.4,293.2,301.55,1.0
2018-08-26 16:21:00,89.62679,27.04641,936.741,269.08,97.5,552.3,-4.55,0.66,154.97,99.22,76.16,293.2,300.5,99.78,76.3,293.04,301.58,1.0
2018-08-26 16:21:00,89.62679,27.04639,936.702,269.08,97.5,552.6,-4.58,0.74,155.04,98.63,76.02,293.27,300.86,99.61,76.2,292.94,301.62,1.0
2018-08-26 16:21:00,89.62679,27.04638,936.675,269.07,97.5,552.9,-4.75,0.76,155.13,97.84,76.16,293.0,301.73,99.56,76.11,292.82,301.67,1.0
2018-08-26 16:21:00,89.62679,27.04636,936.703,269.07,97.5,552.6,-4.92,0.73,155.24,99.08,76.16,293.22,301.4,99.64,76.05,292.68,301.7,1.0
2018-08-26 16:21:00,89.62679,27.04635,936.683,269.07,97.5,552.8,-4.54,0.89,155.39,98.89,76.16,292.92,299.8,99.81,76.01,292.57,301.65,1.0
2018-08-26 16:21:00,89.62679,27.04634,936.73,269.07,97.5,552.4,-4.33,0.78,155.61,99.22,76.16,292.3,301.0,100.02,76.02,292.48,301.59,1.0
2018-08-26 16:21:00,89.62679,27.04632,936.745,269.07,97.5,552.3,-4.16,0.72,155.76,99.67,76.09,292.18,301.75,100.2,76.06,292.39,301.65,1.0
2018-08-26 16:21:00,89.62679,27.04632,936.746,269.07,97.5,552.3,-4.21,0.75,155.9,98.69,75.88,291.76,302.05,100.3,76.13,292.31,301.67,1.0
2018-08-26 16:21:00,89.62679,27.04633,936.748,269.07,97.5,552.2,-4.49,0.8,156.07,98.5,76.02,291.99,302.39,100.26,76.22,292.23,301.63,1.0
2018-08-26 16:21:00,89.62679,27.04634,936.741,269.08,97.5,552.3,-4.84,0.77,156.39,99.8,76.16,292.05,301.75,100.04,76.32,292.14,301.65,1.0
2018-08-26 16:21:00,89.62679,27.04634,936.687,269.08,97.5,552.8,-4.84,0.95,156.77,99.08,76.09,292.33,301.36,99.66,76.41,292.08,301.78,1.0
2018-08-26 16:21:00,89.62679,27.04634,936.676,269.08,97.5,552.8,-5.07,0.97,157.26,99.67,76.16,292.33,301.65,99.13,76.47,292.06,301.7,1.0
2018-08-26 16:21:00,89.62678,27.04635,936.692,269.08,97.5,552.7,-4.69,1.09,157.86,98.76,76.09,292.24,301.84,98.5,76.51,292.04,301.62,1.0
2018-08-26 16:21:00,89.62678,27.04636,936.71,269.08,97.5,552.6,-3.93,1.22,158.53,98.89,76.3,292.33,301.36,97.85,76.51,292.02,301.51,1.0
2018-08-26 16:21:00,89.62678,27.04636,936.704,269.08,97.5,552.6,-3.17,1.27,159.27,99.87,76.16,292.33,301.94,97.25,76.48,292.01,301.38,1.0
2018-08-26 16:21:00,89.62678,27.04637,936.688,269.07,97.5,552.7,-2.76,1.28,160.06,100.46,76.23,292.33,301.71,96.77,76.43,292.0,301.36,1.0
2018-08-26 16:21:00,89.62678,27.04637,936.706,269.07,97.5,552.6,-2.48,1.3,160.84,99.15,76.16,292.27,300.38,96.47,76.36,291.99,301.34,1.0
2018-08-26 16:21:00,89.62678,27.04638,936.721,269.07,97.5,552.5,-2.29,1.19,161.61,96.92,76.16,291.83,301.19,96.38,76.29,291.95,301.18,1.0
2018-08-26 16:21:00,89.62678,27.04638,936.723,269.07,97.5,552.5,-2.23,1.15,162.35,97.84,76.23,291.41,301.37,96.52,76.22,291.9,301.03,1.0
2018-08-26 16:21:00,89.62678,27.04639,936.71,269.08,97.5,552.6,-2.32,1.09,163.03,99.35,76.02,292.09,300.88,96.88,76.16,291.86,300.91,1.0
2018-08-26 16:21:00,89.62678,27.0464,936.687,269.07,97.5,552.7,-2.54,0.63,163.72,98.5,76.36,292.24,301.65,97.42,76.11,291.84,300.75,1.0
2018-08-26 16:21:00,89.62678,27.04641,936.709,269.08,97.5,552.6,-2.54,0.9,164.4,99.87,76.09,292.33,301.64,98.1,76.06,291.92,300.53,1.0
2018-08-26 16:21:00,89.62678,27.04642,936.698,269.07,97.5,552.7,-2.5,0.92,165.03,98.43,76.16,291.92,300.28,98.86,76.02,292.01,300.46,1.0
2018-08-26 16:21:00,89.62678,27.04642,936.704,269.07,97.5,552.6,-2.57,0.98,165.7,99.08,76.09,291.96,300.36,99.67,75.99,292.13,300.36,1.0
2018-08-26 16:21:00,89.62678,27.04643,936.716,269.08,97.5,552.5,-2.76,1.11,166.35,97.91,76.23,292.35,301.05,100.47,75.95,292.22,300.3,1.0
2018-08-26 16:21:00,89.62678,27.04644,936.688,269.07,97.5,552.7,-2.93,1.17,166.92,97.25,76.09,292.74,300.48,101.22,75.9,292.26,300.36,1.0
2018-08-26 16:21:00,89.62678,27.04645,936.725,269.08,97.5,552.4,-2.24,0.96,167.45,99.08,76.16,293.79,299.62,101.89,75.85,292.35,300.38,1.0
2018-08-26 16:21:00,89.62678,27.04646,936.73,269.08,97.5,552.4,-2.87,1.08,167.94,100.39,76.16,293.63,299.71,102.46,75.81,292.49,300.42,1.0
2018-08-26 16:21:00,89.62678,27.04647,936.751,269.08,97.5,552.2,-2.8,1.07,168.22,99.28,76.09,293.82,299.78,102.89,75.77,292.55,300.66,1.0
2018-08-26 16:21:00,89.62677,27.04648,936.771,269.08,97.5,552.0,-2.8,1.01,168.46,98.95,76.3,292.96,300.25,103.16,75.75,292.6,300.85,1.0
2018-08-26 16:21:00,89.62677,27.04649,936.757,269.08,97.5,552.2,-3.14,1.01,168.7,99.8,76.09,292.41,300.93,103.24,75.75,292.68,300.92,1.0
2018-08-26 16:21:00,89.62677,27.04648,936.722,269.08,97.5,552.5,-2.44,1.06,168.84,98.82,76.16,292.73,301.37,103.11,75.78,292.7,300.99,1.0
2018-08-26 16:21:00,89.62677,27.04646,936.703,269.08,97.5,552.6,-1.74,1.09,168.99,99.74,76.09,293.11,301.21,102.76,75.83,292.57,301.1,1.0
2018-08-26 16:21:00,89.62677,27.04644,936.679,269.08,97.5,552.8,-1.77,1.06,169.19,99.8,76.02,292.16,302.21,102.18,75.9,292.4,301.19,1.0
2018-08-26 16:21:00,89.62677,27.04642,936.673,269.08,97.5,552.9,-1.56,1.08,169.36,97.58,75.81,292.04,302.41,101.41,75.98,292.21,301.25,1.0
2018-08-26 16:21:00,89.62677,27.0464,936.694,269.08,97.5,552.7,-1.09,1.13,169.48,100.0,76.09,293.06,301.67,100.48,76.06,292.05,301.28,1.0
2018-08-26 16:21:00,89.62677,27.04637,936.711,269.08,97.5,552.6,-1.0,1.09,169.61,101.24,76.09,292.95,301.44,99.47,76.13,291.96,301.27,1.0
2018-08-26 16:21:00,89.62677,27.04635,936.732,269.08,97.5,552.4,-0.84,1.02,169.74,101.31,76.02,292.99,301.6,98.46,76.17,291.83,301.21,1.0
2018-08-26 16:21:00,89.62677,27.04633,936.737,269.08,97.5,552.3,-1.86,1.07,169.77,99.8,76.16,292.64,301.66,97.56,76.18,291.7,301.12,1.0
2018-08-26 16:21:00,89.62677,27.04631,936.744,269.08,97.5,552.3,-2.86,1.05,169.74,99.02,76.16,292.48,301.75,96.84,76.17,291.72,301.03,1.0
2018-08-26 16:21:00,89.62677,27.04628,936.752,269.08,97.5,552.2,-3.63,0.99,169.65,98.76,76.16,292.44,301.65,96.39,76.12,291.76,301.06,1.0
2018-08-26 16:21:00,89.62677,27.04626,936.747,269.08,97.5,552.2,-4.12,0.97,169.56,98.23,76.16,292.09,301.79,96.24,76.07,291.73,301.22,1.0
2018-08-26 16:21:00,89.62677,27.04624,936.714,269.08,97.5,552.5,-3.48,1.02,169.59,99.41,76.16,291.95,301.04,96.4,76.01,291.71,301.35,1.0
2018-08-26 16:21:00,89.62677,27.04622,936.722,269.08,97.5,552.5,-2.9,0.92,169.63,100.06,76.16,292.14,300.17,96.81,75.95,291.75,301.39,1.0
2018-08-26 16:21:00,89.62677,27.04619,936.736,269.08,97.5,552.3,-2.31,1.01,169.52,99.74,76.09,291.87,300.64,97.42,75.92,291.68,301.34,1.0
2018-08-26 16:21:00,89.62677,27.04617,936.756,269.08,97.5,552.2,-1.99,1.04,169.34,96.99,76.02,291.88,301.42,98.1,75.91,291.63,301.29,1.0
2018-08-26 16:21:00,89.62677,27.04614,936.777,269.08,97.5,552.0,-1.94,1.03,169.1,99.67,75.95,291.55,301.69,98.75,75.93,291.63,301.24,1.0
2018-08-26 16:21:00,89.62677,27.04607,936.757,269.08,97.5,552.2,-1.85,1.17,168.79,97.78,75.81,290.74,301.49,99.27,75.98,291.62,301.17,1.0
2018-08-26 16:21:00,89.62676,27.046,936.731,269.08,97.5,552.4,-1.97,1.11,168.45,99.87,76.09,291.68,300.63,99.58,76.05,291.66,301.13,1.0
2018-08-26 16:21:00,89.62676,27.04593,936.723,269.08,97.5,552.5,-2.17,1.14,168.06,99.22,76.09,290.68,300.06,99.66,76.13,291.56,301.14,1.0
2018-08-26 16:21:00,89.62676,27.04587,936.714,269.08,97.5,552.5,-2.25,1.17,167.61,100.2,76.16,290.84,301.23,99.52,76.22,291.53,301.1,1.0
2018-08-26 16:21:00,89.62676,27.0458,936.712,269.08,97.5,552.5,-2.09,1.13,167.19,99.22,76.16,292.04,301.24,99.22,76.29,291.55,301.02,1.0
2018-08-26 16:21:00,89.62676,27.04573,936.742,269.08,97.5,552.3,-1.65,1.05,166.88,98.89,76.16,292.03,301.54,98.86,76.35,291.54,300.94,1.0
2018-08-26 16:21:00,89.62676,27.04566,936.748,269.08,97.5,552.2,-1.05,1.11,166.56,100.06,76.09,293.01,301.53,98.55,76.38,291.56,300.89,1.0
2018-08-26 16:21:00,89.62676,27.04559,936.768,269.08,97.5,552.1,-0.27,1.09,166.13,99.35,76.09,291.62,301.55,98.38,76.39,291.65,300.93,1.0
2018-08-26 16:21:00,89.62676,27.04552,936.76,269.08,97.5,552.1,-0.49,1.13,165.6,98.56,76.09,292.46,301.13,98.43,76.38,291.92,301.08,1.0
2018-08-26 16:21:00,89.62676,27.04547,936.737,269.08,97.5,552.3,-1.26,1.18,164.94,97.91,76.09,292.85,301.41,98.74,76.35,292.08,301.22,1.0
2018-08-26 16:21:00,89.62676,27.04542,936.737,269.08,97.5,552.3,-1.96,1.19,164.18,98.04,76.16,291.98,301.59,99.29,76.31,292.02,301.27,1.0
2018-08-26 16:21:00,89.62676,27.04537,936.761,269.08,97.5,552.1,-2.56,1.24,163.34,98.63,76.09,291.83,300.67,100.0,76.28,292.01,301.38,1.0
2018-08-26 16:21:00,89.62676,27.04532,936.784,269.08,97.5,551.9,-3.84,1.22,162.54,101.7,76.16,292.64,300.67,100.78,76.25,291.96,301.45,1.0
2018-08-26 16:21:00,89.62676,27.04527,936.78,269.08,97.6,552.0,-4.17,1.2,161.74,98.63,76.02,292.91,300.62,101.5,76.24,292.01,301.5,1.0
2018-08-26 16:21:00,89.62676,27.04522,936.764,269.08,97.6,552.1,-4.23,1.16,160.98,99.67,76.09,291.95,301.0,102.06,76.24,291.96,301.47,1.0
2018-08-26 16:21:00,89.62676,27.04518,936.77,269.08,97.5,552.1,-4.55,1.16,160.26,98.04,76.09,290.34,300.77,102.38,76.27,291.88,301.43,1.0
2018-08-26 16:21:00,89.62676,27.04513,936.756,269.08,97.5,552.2,-4.2,1.35,159.58,99.48,76.3,290.98,301.9,102.39,76.31,291.9,301.5,1.0
2018-08-26 16:21:00,89.62676,27.04508,936.745,269.08,97.5,552.3,-3.82,1.32,159.09,99.22,76.3,291.72,301.52,102.13,76.37,291.84,301.69,1.0
2018-08-26 16:21:00,89.62676,27.04503,936.743,269.08,97.5,552.3,-3.23,1.4,158.62,99.22,76.16,291.62,301.52,101.63,76.44,291.6,301.93,1.0
2018-08-26 16:21:00,89.62676,27.04498,936.759,269.08,97.5,552.2,-2.83,1.43,158.12,100.78,76.09,291.86,300.84,101.0,76.51,291.33,302.08,1.0
2018-08-26 16:21:00,89.62676,27.04493,936.775,269.08,97.5,552.0,-2.9,1.44,157.63,99.8,76.16,292.16,301.04,100.34,76.58,291.21,302.18,1.0
2018-08-26 16:21:00,89.62676,27.04487,936.755,269.08,97.5,552.2,-3.17,1.53,157.22,100.39,76.02,292.38,302.45,99.77,76.63,291.33,302.26,1.0
2018-08-26 16:21:00,89.62676,27.04482,936.766,269.09,97.5,552.1,-3.28,1.51,156.66,99.28,76.09,291.61,303.34,99.36,76.67,291.41,302.26,1.0
2018-08-26 16:21:00,89.62676,27.04476,936.762,269.08,97.5,552.1,-3.53,1.41,156.28,101.18,76.3,290.47,303.34,99.16,76.67,291.41,302.26,1.0
2018-08-26 16:21:00,89.62675,27.0447,936.755,269.09,97.5,552.2,-4.16,1.38,155.98,97.84,76.09,290.73,302.9,99.15,76.64,291.41,302.23,1.0
2018-08-26 16:21:00,89.62675,27.04464,936.749,269.09,97.5,552.2,-4.64,1.34,155.79,100.06,76.43,291.33,301.97,99.28,76.58,291.39,302.24,1.0
2018-08-26 16:21:00,89.62675,27.04459,936.747,269.08,97.5,552.2,-4.77,1.31,155.67,98.89,76.3,292.14,301.63,99.46,76.49,291.33,302.23,1.0
2018-08-26 16:21:00,89.62675,27.04453,936.764,269.09,97.5,552.1,-4.7,1.51,155.61,98.1,76.23,292.15,301.63,99.58,76.38,291.25,302.05,1.0
2018-08-26 16:21:00,89.62675,27.04447,936.746,269.08,97.5,552.3,-4.7,1.47,155.7,100.46,76.3,291.81,301.63,99.55,76.25,291.32,301.81,1.0
2018-08-26 16:21:00,89.62675,27.04442,936.754,269.08,97.5,552.2,-4.36,1.49,155.96,99.02,76.3,291.86,301.63,99.29,76.11,291.39,301.56,1.0
2018-08-26 16:21:00,89.62675,27.04436,936.771,269.08,97.5,552.0,-3.98,1.54,156.32,100.26,76.3,291.76,301.83,98.79,75.98,291.46,301.39,1.0
2018-08-26 16:21:00,89.62675,27.0443,936.784,269.08,97.5,551.9,-3.74,1.55,156.79,99.61,76.23,291.94,301.25,98.08,75.87,291.43,301.29,1.0
2018-08-26 16:21:00,89.62675,27.04425,936.782,269.08,97.5,552.0,-3.8,1.49,157.39,98.89,76.16,292.0,301.82,97.23,75.79,291.29,301.24,1.0
2018-08-26 16:21:00,89.62675,27.0442,936.787,269.09,97.5,551.9,-4.38,1.52,158.02,100.65,76.09,292.83,301.63,96.36,75.75,291.36,301.3,1.0
2018-08-26 16:21:00,89.62675,27.04417,936.803,269.09,97.5,551.8,-5.07,1.43,158.8,101.57,76.16,292.0,301.82,95.6,75.75,291.46,301.47,1.0
2018-08-26 16:21:00,89.62675,27.04414,936.807,269.09,97.5,551.7,-5.45,1.39,159.68,99.22,76.3,291.87,301.24,95.08,75.8,291.53,301.64,1.0
2018-08-26 16:21:00,89.62675,27.0441,936.802,269.09,97.5,551.8,-5.47,1.43,160.69,98.89,76.16,291.19,301.52,94.88,75.89,291.58,301.77,1.0
2018-08-26 16:21:00,89.62675,27.04407,936.799,269.09,97.5,551.8,-5.3,1.51,161.8,96.92,76.02,290.77,301.06,95.05,76.0,291.64,301.87,1.0
2018-08-26 16:21:00,89.62675,27.04404,936.792,269.09,97.5,551.9,-5.28,1.43,162.96,98.04,76.16,292.89,301.46,95.59,76.12,291.67,301.95,1.0
2018-08-26 16:21:00,89.62674,27.044,936.806,269.09,97.5,551.8,-5.08,1.58,164.15,99.15,76.02,292.5,301.89,96.43,76.24,291.62,301.99,1.0
2018-08-26 16:21:00,89.62674,27.04397,936.809,269.09,97.5,551.7,-4.89,1.57,165.34,98.69,76.3,291.84,302.12,97.48,76.35,291.62,301.99,1.0
2018-08-26 16:21:00,89.62674,27.04394,936.81,269.08,97.5,551.7,-4.56,1.54,166.46,97.58,76.23,291.67,301.6,98.61,76.43,291.6,301.96,1.0
2018-08-26 16:21:00,89.62674,27.0439,936.821,269.08,97.5,551.6,-4.14,1.55,167.46,98.95,76.16,291.57,301.6,99.7,76.47,291.62,301.93,1.0
2018-08-26 16:21:00,89.62674,27.04387,936.805,269.08,97.5,551.8,-4.05,1.46,168.39,98.23,76.16,291.77,301.32,100.62,76.48,291.66,301.91,1.0
2018-08-26 16:21:00,89.62674,27.04384,936.822,269.09,97.5,551.6,-3.71,1.39,169.17,99.28,76.3,291.47,301.53,101.3,76.45,291.47,301.81,1.0
2018-08-26 16:21:00,89.62674,27.04382,936.829,269.09,97.5,551.6,-3.57,1.38,169.78,99.67,76.16,291.48,301.49,101.71,76.39,291.29,301.63,1.0
2018-08-26 16:21:00,89.62674,27.0438,936.849,269.09,97.5,551.4,-3.48,1.28,170.3,100.65,76.3,291.57,301.32,101.82,76.3,291.17,301.48,1.0
2018-08-26 16:21:00,89.62674,27.04379,936.856,269.09,97.5,551.3,-3.38,1.17,170.74,99.22,76.16,291.75,301.71,101.69,76.21,291.08,301.39,1.0
2018-08-26 16:21:00,89.62674,27.04377,936.807,269.08,97.5,551.7,-3.18,1.13,171.04,99.8,76.16,291.56,301.61,101.37,76.11,291.02,301.32,1.0
2018-08-26 16:21:00,89.62674,27.04376,936.831,269.08,97.5,551.5,-2.69,1.03,171.15,98.82,76.23,291.84,301.89,100.92,76.01,290.97,301.28,1.0
2018-08-26 16:21:00,89.62674,27.04374,936.827,269.08,97.5,551.6,-2.65,0.97,171.06,96.27,76.09,291.75,301.8,100.41,75.91,290.94,301.24,1.0
2018-08-26 16:21:00,89.62674,27.04372,936.842,269.09,97.5,551.5,-2.81,0.92,170.76,99.41,76.5,291.86,301.61,99.9,75.82,290.94,301.22,1.0
2018-08-26 16:21:00,89.62674,27.04371,936.86,269.09,97.5,551.3,-3.08,0.89,170.28,100.59,76.09,291.76,301.9,99.41,75.73,290.97,301.21,1.0
2018-08-26 16:21:00,89.62674,27.04369,936.86,269.09,97.5,551.3,-3.33,0.86,169.69,100.2,76.16,291.66,301.99,98.97,75.65,291.05,301.21,1.0
2018-08-26 16:21:00,89.62674,27.04368,936.86,269.09,97.5,551.3,-3.5,0.85,169.04,98.5,76.02,291.66,301.5,98.58,75.57,291.22,301.22,1.0
2018-08-26 16:21:00,89.62674,27.04366,936.814,269.09,97.5,551.7,-3.61,0.92,168.35,98.82,76.23,291.56,301.35,98.25,75.49,291.3,301.3,1.0
2018-08-26 16:21:00,89.62674,27.04364,936.805,269.09,97.5,551.8,-3.62,0.97,167.67,100.39,76.02,291.65,301.42,97.98,75.41,291.35,301.4,1.0
2018-08-26 16:21:00,89.62674,27.04363,936.818,269.09,97.5,551.7,-3.37,1.03,167.11,99.35,76.09,291.61,301.52,97.77,75.35,291.28,301.43,1.0
2018-08-26 16:21:00,89.62674,27.04361,936.832,269.09,97.5,551.5,-2.72,1.09,166.64,99.22,76.23,291.97,301.76,97.63,75.31,291.21,301.47,1.0
2018-08-26 16:21:00,89.62674,27.0436,936.844,269.09,97.5,551.4,-1.65,1.13,166.18,98.1,76.16,292.93,301.76,97.6,75.29,291.25,301.6,1.0
2018-08-26 16:21:00,89.62674,27.04358,936.807,269.08,97.5,551.7,-0.99,1.24,165.72,99.54,76.02,291.72,302.26,97.69,75.31,291.25,301.74,1.0
2018-08-26 16:21:00,89.62674,27.04353,936.795,269.09,97.5,551.8,-1.08,1.22,165.11,99.8,75.88,291.68,301.67,97.91,75.37,291.21,301.83,1.0
2018-08-26 16:21:00,89.62673,27.04348,936.82,269.09,97.5,551.6,-1.45,1.23,164.56,98.3,75.81,290.2,301.5,98.26,75.48,291.13,301.92,1.0
2018-08-26 16:21:00,89.62673,27.04342,936.833,269.09,97.5,551.5,-1.98,1.25,164.03,97.84,75.81,290.36,301.21,98.72,75.64,291.05,302.01,1.0
2018-08-26 16:21:00,89.62673,27.04337,936.789,269.09,97.5,551.9,-2.55,1.23,163.49,99.08,76.23,292.01,302.61,99.26,75.82,290.92,302.06,1.0
2018-08-26 16:21:00,89.62673,27.04331,936.801,269.09,97.5,551.8,-2.92,1.2,162.94,99.22,76.09,291.97,302.49,99.81,76.03,290.75,302.06,1.0
2018-08-26 16:21:00,89.62673,27.04326,936.816,269.08,97.5,551.7,-3.0,1.18,162.59,98.63,76.02,291.33,302.14,100.33,76.24,290.68,302.03,1.0
2018-08-26 16:21:00,89.62673,27.0432,936.814,269.09,97.5,551.7,-2.54,1.18,162.36,98.5,75.74,291.2,302.46,100.76,76.43,290.66,302.01,1.0
2018-08-26 16:21:00,89.62673,27.04315,936.809,269.09,97.5,551.7,-2.28,1.22,162.24,99.87,76.09,291.47,302.8,101.06,76.59,290.78,302.07,1.0
2018-08-26 16:21:00,89.62673,27.04309,936.821,269.09,97.5,551.6,-2.33,1.28,162.25,100.46,75.95,290.86,302.05,101.2,76.7,290.93,302.14,1.0
2018-08-26 16:21:00,89.62673,27.04303,936.86,269.09,97.5,551.3,-2.24,1.2,162.32,98.69,75.95,291.46,301.61,101.2,76.75,290.96,302.13,1.0
2018-08-26 16:21:00,89.62673,27.04297,936.846,269.09,97.5,551.4,-2.41,1.25,162.58,98.43,76.16,291.33,302.55,101.09,76.73,291.03,302.13,1.0
2018-08-26 16:21:00,89.62673,27.04291,936.838,269.09,97.5,551.5,-2.5,1.22,162.96,100.59,76.02,291.41,302.12,100.92,76.67,291.14,302.2,1.0
2018-08-26 16:21:00,89.62673,27.04285,936.844,269.09,97.5,551.4,-2.76,1.21,163.5,98.5,76.36,291.33,302.01,100.74,76.55,291.24,302.23,1.0
2018-08-26 16:21:00,89.62673,27.04278,936.849,269.09,97.5,551.4,-3.16,1.24,164.22,100.26,76.16,291.36,301.98,100.61,76.41,291.33,302.24,1.0
2018-08-26 16:21:00,89.62673,27.04272,936.827,269.09,97.5,551.6,-3.51,1.27,165.07,98.89,76.09,291.21,301.94,100.57,76.25,291.39,302.26,1.0
2018-08-26 16:21:00,89.62673,27.04266,936.808,269.08,97.5,551.7,-3.37,1.16,166.04,100.13,76.16,291.21,301.69,100.63,76.11,291.39,302.29,1.0
2018-08-26 16:21:00,89.62673,27.0426,936.828,269.09,97.5,551.6,-3.4,1.25,167.22,99.22,76.16,291.12,301.61,100.77,75.98,291.36,302.25,1.0
2018-08-26 16:21:00,89.62673,27.04254,936.827,269.09,97.5,551.6,-3.22,1.31,168.48,97.84,76.16,291.26,301.7,100.97,75.89,291.29,302.17,1.0
2018-08-26 16:21:00,89.62673,27.04248,936.829,269.08,97.5,551.6,-2.88,1.33,169.86,99.67,76.02,291.46,301.61,101.17,75.84,291.2,302.07,1.0
2018-08-26 16:21:00,89.62673,27.04242,936.86,269.09,97.5,551.3,-2.54,1.3,171.26,99.67,76.16,291.37,301.6,101.3,75.82,291.09,301.95,1.0
2018-08-26 16:21:00,89.62672,27.04235,936.857,269.09,97.5,551.3,-2.41,1.26,172.6,100.72,75.95,291.19,301.6,101.31,75.85,290.98,301.85,1.0
2018-08-26 16:21:00,89.62672,27.04229,936.848,269.09,97.5,551.4,-1.8,1.08,173.75,99.35,75.95,291.28,301.21,101.16,75.89,290.9,301.77,1.0
2018-08-26 16:21:00,89.62672,27.04223,936.849,269.09,97.5,551.4,-1.81,1.04,174.66,100.65,76.09,291.38,301.79,100.85,75.95,290.84,301.72,1.0
2018-08-26 16:21:00,89.62672,27.04216,936.856,269.09,97.5,551.3,-1.61,1.01,175.33,98.76,76.02,291.47,301.41,100.37,76.01,290.82,301.7,1.0
2018-08-26 16:21:00,89.62672,27.0421,936.853,269.09,97.5,551.4,-1.13,0.97,175.77,101.44,76.09,291.47,301.6,99.78,76.07,290.83,301.72,1.0
2018-08-26 16:21:00,89.62672,27.04204,936.827,269.09,97.5,551.6,-0.72,0.96,176.0,99.15,76.09,291.28,301.6,99.12,76.11,290.9,301.76,1.0
2018-08-26 16:21:00,89.62672,27.04197,936.813,269.09,97.5,551.7,-0.26,1.03,175.95,100.0,76.16,291.17,301.6,98.47,76.13,291.07,301.85,1.0
2018-08-26 16:21:00,89.62672,27.04191,936.854,269.08,97.5,551.4,-0.05,1.0,175.68,98.82,76.16,291.19,301.52,97.88,76.14,291.11,301.99,1.0
2018-08-26 16:21:00,89.62672,27.04185,936.866,269.08,97.5,551.3,0.27,0.9,175.3,98.89,76.16,291.18,301.51,97.42,76.13,291.14,302.06,1.0
2018-08-26 16:21:00,89.62672,27.04178,936.864,269.09,97.5,551.3,0.45,0.8,174.77,99.48,76.02,291.64,301.5,97.1,76.1,291.23,302.07,1.0
2018-08-26 16:21:00,89.62672,27.04172,936.896,269.09,97.5,551.0,0.37,0.75,174.07,100.06,76.23,291.5,301.57,96.95,76.06,291.33,302.06,1.0
2018-08-26 16:21:00,89.62672,27.04166,936.864,269.09,97.5,551.3,0.54,0.77,173.15,99.22,75.88,292.42,302.35,96.95,76.02,291.39,302.01,1.0
2018-08-26 16:21:00,89.62672,27.04159,936.849,269.09,97.5,551.4,0.49,0.72,172.05,101.37,75.88,290.64,301.98,97.09,75.98,291.38,301.95,1.0
2018-08-26 16:21:00,89.62672,27.04153,936.846,269.09,97.5,551.4,0.42,0.84,170.84,99.02,76.16,290.7,301.92,97.35,75.94,291.33,301.88,1.0
2018-08-26 16:21:00,89.62672,27.04147,936.85,269.09,97.5,551.4,0.47,1.01,169.49,98.23,76.02,291.59,301.64,97.69,75.92,291.27,301.87,1.0
2018-08-26 16:21:00,89.62672,27.0414,936.859,269.09,97.5,551.3,0.47,1.16,168.0,98.36,76.16,292.14,301.77,98.11,75.9,291.22,301.94,1.0
2018-08-26 16:21:00,89.62672,27.04134,936.865,269.09,97.5,551.3,0.03,1.33,166.52,98.89,76.09,292.1,301.52,98.59,75.91,291.18,302.05,1.0
2018-08-26 16:21:00,89.62672,27.04128,936.871,269.09,97.5,551.2,0.03,1.44,164.95,98.63,76.16,291.6,301.9,99.13,75.94,291.11,302.16,1.0
2018-08-26 16:21:00,89.62672,27.04122,936.859,269.09,97.5,551.3,-0.22,1.52,163.44,100.78,76.09,291.37,301.7,99.7,75.99,291.14,302.27,1.0
2018-08-26 16:21:00,89.62672,27.04115,936.869,269.09,97.5,551.2,-0.31,1.61,161.97,98.17,76.09,291.33,302.39,100.3,76.07,291.17,302.39,1.0
2018-08-26 16:21:00,89.62672,27.04109,936.885,269.09,97.5,551.1,-0.2,1.73,160.53,99.61,75.88,291.53,303.08,100.88,76.17,291.15,302.53,1.0
2018-08-26 16:21:00,89.62672,27.04103,936.849,269.09,97.5,551.4,-0.13,1.84,159.25,100.33,76.09,291.55,302.87,101.41,76.29,291.11,302.66,1.0
2018-08-26 16:21:00,89.62672,27.04096,936.877,269.08,97.5,551.2,-0.58,1.93,158.11,98.69,76.02,291.9,303.1,101.81,76.42,291.05,302.73,1.0
2018-08-26 16:21:00,89.62671,27.0409,936.844,269.09,97.5,551.4,-0.47,1.89,156.95,97.64,75.88,291.36,302.96,102.02,76.54,291.01,302.74,1.0
2018-08-26 16:21:00,89.62671,27.04084,936.848,269.09,97.5,551.4,-0.9,1.91,155.9,100.72,76.09,290.71,302.63,101.98,76.65,290.98,302.68,1.0
2018-08-26 16:21:00,89.62671,27.04078,936.87,269.09,97.6,551.2,-1.24,1.95,154.93,100.78,76.09,291.26,302.07,101.64,76.73,290.92,302.52,1.0
2018-08-26 16:21:00,89.62671,27.04074,936.867,269.09,97.5,551.2,-1.29,1.95,154.01,99.28,76.36,291.38,301.76,100.99,76.77,290.83,302.27,1.0
2018-08-26 16:21:00,89.62671,27.0407,936.886,269.09,97.6,551.1,-1.94,1.95,153.21,98.76,76.09,291.05,301.91,100.06,76.75,290.73,302.01,1.0
2018-08-26 16:21:00,89.62671,27.04066,936.881,269.09,97.5,551.1,-1.66,2.02,152.53,99.61,76.23,290.98,301.84,98.92,76.69,290.57,301.85,1.0
2018-08-26 16:21:00,89.62671,27.04062,936.887,269.09,97.6,551.1,-0.64,2.0,152.06,101.44,76.16,291.07,301.51,97.66,76.57,290.56,301.73,1.0
2018-08-26 16:21:00,89.62671,27.04059,936.882,269.09,97.6,551.1,0.11,2.05,151.79,98.89,76.16,290.99,301.51,96.43,76.43,290.53,301.63,1.0
2018-08-26 16:21:00,89.62671,27.04055,936.868,269.09,97.5,551.2,0.64,2.11,151.66,99.67,76.23,290.89,301.86,95.35,76.26,290.47,301.56,1.0
2018-08-26 16:21:00,89.62671,27.04051,936.885,269.09,97.5,551.1,1.46,2.05,151.62,100.06,76.09,290.86,302.11,94.57,76.1,290.45,301.59,1.0
2018-08-26 16:21:00,89.62671,27.04047,936.896,269.09,97.6,551.0,1.61,2.03,151.82,98.3,76.36,291.04,302.92,94.17,75.96,290.53,301.69,1.0
2018-08-26 16:21:00,89.62671,27.04044,936.886,269.09,97.6,551.1,0.66,2.02,151.94,99.22,76.3,291.58,302.82,94.19,75.85,290.54,301.74,1.0
2018-08-26 16:21:00,89.62671,27.0404,936.898,269.09,97.6,551.0,-0.81,2.12,152.18,99.22,76.16,291.4,301.92,94.64,75.79,290.6,301.74,1.0
2018-08-26 16:21:00,89.62671,27.04036,936.919,269.09,97.6,550.8,-2.35,2.16,152.61,99.08,76.09,290.7,301.64,95.43,75.79,290.69,301.75,1.0
2018-08-26 16:21:00,89.62671,27.04032,936.915,269.09,97.6,550.8,-3.56,2.12,153.26,97.64,76.09,291.0,302.1,96.46,75.84,290.78,301.78,1.0
2018-08-26 16:21:00,89.62671,27.04028,936.916,269.09,97.6,550.8,-3.98,2.48,154.17,97.12,75.88,291.34,301.58,97.58,75.92,290.87,301.75,1.0
2018-08-26 16:21:00,89.62671,27.04025,936.904,269.1,97.6,550.9,-3.0,2.48,155.37,98.76,76.16,290.78,300.9,98.63,76.02,290.81,301.65,1.0
2018-08-26 16:21:00,89.62671,27.04021,936.895,269.09,97.6,551.0,-2.12,2.58,156.83,99.08,76.09,291.54,300.64,99.49,76.13,290.78,301.52,1.0
2018-08-26 16:21:00,89.62671,27.04017,936.893,269.09,97.6,551.0,-1.02,2.63,158.44,98.63,76.09,291.82,300.27,100.04,76.23,290.85,301.47,1.0
2018-08-26 16:21:00,89.62671,27.04012,936.892,269.09,97.6,551.0,0.17,2.56,160.15,98.63,76.16,291.58,301.11,100.24,76.3,290.98,301.5,1.0
2018-08-26 16:21:00,89.62671,27.04007,936.874,269.09,97.6,551.2,0.64,2.4,161.83,99.67,76.16,291.58,301.09,100.09,76.34,291.08,301.54,1.0
2018-08-26 16:21:00,89.62671,27.04002,936.875,269.09,97.6,551.2,-0.32,2.2,163.38,99.48,76.3,290.22,301.68,99.65,76.36,291.11,301.62,1.0
2018-08-26 16:21:00,89.62671,27.03997,936.883,269.09,97.6,551.1,-1.31,2.05,164.9,99.41,76.09,291.29,301.82,99.02,76.34,291.18,301.83,1.0
2018-08-26 16:21:00,89.6267,27.03992,936.912,269.09,97.6,550.9,-2.26,1.9,166.41,97.84,76.36,291.94,301.83,98.31,76.31,291.27,302.13,1.0
2018-08-26 16:21:00,89.6267,27.03987,936.938,269.1,97.6,550.7,-2.35,1.74,167.91,99.02,76.02,292.2,302.3,97.64,76.28,291.34,302.38,1.0
2018-08-26 16:21:00,89.6267,27.03982,936.905,269.09,97.6,550.9,-0.94,1.56,169.43,100.39,76.16,291.97,302.77,97.11,76.25,291.38,302.51,1.0
2018-08-26 16:21:00,89.6267,27.03977,936.904,269.09,97.6,550.9,-0.05,1.43,170.86,99.15,76.16,291.32,303.06,96.81,76.23,291.36,302.61,1.0
2018-08-26 16:21:00,89.6267,27.03975,936.889,269.1,97.6,551.1,0.43,1.24,171.89,96.86,76.09,291.24,302.73,96.76,76.22,291.44,302.66,1.0
2018-08-26 16:21:00,89.6267,27.03972,936.874,269.1,97.6,551.2,0.6,1.13,172.7,97.71,76.16,291.54,302.86,96.95,76.22,291.39,302.64,1.0
2018-08-26 16:21:00,89.6267,27.0397,936.877,269.09,97.6,551.2,0.63,1.09,173.3,99.87,76.09,291.97,302.63,97.34,76.23,291.27,302.65,1.0
2018-08-26 16:21:00,89.6267,27.03967,936.895,269.1,97.6,551.0,0.71,1.06,173.67,98.23,76.3,291.28,301.98,97.87,76.22,291.13,302.68,1.0
2018-08-26 16:21:00,89.6267,27.03965,936.849,269.09,97.6,551.4,0.91,0.99,173.72,97.45,76.16,290.96,301.6,98.46,76.21,290.99,302.66,1.0
2018-08-26 16:21:00,89.6267,27.03963,936.869,269.09,97.6,551.2,0.38,0.95,173.45,99.08,76.16,290.92,301.78,99.05,76.17,290.9,302.6,1.0
2018-08-26 16:21:00,89.6267,27.0396,936.892,269.1,97.6,551.0,0.35,1.01,172.96,98.63,76.09,291.08,301.78,99.57,76.12,290.85,302.51,1.0
2018-08-26 16:21:00,89.6267,27.03958,936.894,269.1,97.6,551.0,0.14,0.99,172.31,97.64,76.23,290.89,302.52,99.99,76.05,290.8,302.4,1.0
2018-08-26 16:21:00,89.6267,27.03955,936.878,269.1,97.6,551.2,-0.14,0.94,171.53,99.41,76.16,290.88,303.43,100.28,75.97,290.72,302.32,1.0
2018-08-26 16:21:00,89.6267,27.03953,936.882,269.1,97.6,551.1,0.13,1.04,170.62,99.61,76.3,290.69,303.24,100.45,75.9,290.6,302.3,1.0
2018-08-26 16:21:00,89.6267,27.0395,936.909,269.1,97.6,550.9,0.23,0.98,169.46,100.65,76.23,290.89,302.86,100.51,75.85,290.6,302.36,1.0
2018-08-26 16:21:00,89.6267,27.03948,936.907,269.1,97.6,550.9,0.01,1.02,168.29,98.69,76.16,290.84,302.93,100.47,75.83,290.61,302.41,1.0
2018-08-26 16:21:00,89.6267,27.03945,936.902,269.1,97.6,551.0,0.12,1.16,167.02,96.73,76.09,291.02,302.86,100.34,75.84,290.62,302.43,1.0
2018-08-26 16:21:00,89.6267,27.03939,936.905,269.1,97.6,550.9,0.23,1.28,165.77,97.58,76.09,290.98,301.15,100.13,75.89,290.6,302.35,1.0
2018-08-26 16:21:00,89.6267,27.03933,936.912,269.09,97.6,550.9,0.04,1.31,164.65,99.8,76.02,289.81,301.31,99.85,75.97,290.56,302.16,1.0
2018-08-26 16:21:00,89.6267,27.03927,936.897,269.1,97.5,551.0,0.06,1.52,163.65,99.02,75.88,290.76,302.15,99.51,76.06,290.5,301.95,1.0
2018-08-26 16:21:00,89.6267,27.03921,936.912,269.1,97.6,550.9,0.15,1.51,162.75,99.22,76.16,290.61,301.84,99.11,76.16,290.42,301.74,1.0
2018-08-26 16:21:00,89.6267,27.03915,936.928,269.1,97.6,550.7,-0.09,1.65,161.97,99.87,76.16,290.88,301.86,98.67,76.26,290.32,301.54,1.0
2018-08-26 16:21:00,89.6267,27.03909,936.919,269.1,97.6,550.8,-0.13,1.84,161.35,98.56,76.16,290.69,301.59,98.22,76.33,290.22,301.36,1.0
2018-08-26 16:21:00,89.6267,27.03902,936.887,269.1,97.6,551.1,0.03,1.96,160.88,99.22,76.16,290.88,301.6,97.78,76.37,290.22,301.22,1.0
2018-08-26 16:21:00,89.6267,27.03896,936.883,269.1,97.6,551.1,-0.21,1.99,160.62,98.43,76.16,290.71,301.59,97.41,76.38,290.33,301.11,1.0
2018-08-26 16:21:00,89.6267,27.0389,936.898,269.1,97.6,551.0,0.25,2.15,160.55,99.8,76.16,290.61,301.79,97.14,76.36,290.47,301.04,1.0
2018-08-26 16:21:00,89.62669,27.03884,936.921,269.1,97.6,550.8,1.0,2.03,160.65,98.04,76.36,290.48,301.36,97.0,76.31,290.54,300.98,1.0
2018-08-26 16:21:00,89.62669,27.03878,936.925,269.1,97.6,550.8,1.4,2.05,160.87,99.8,76.16,290.67,301.16,97.03,76.25,290.6,301.01,1.0
2018-08-26 16:21:00,89.62669,27.03872,936.91,269.1,97.6,550.9,1.54,2.19,161.17,97.84,76.09,291.15,300.94,97.21,76.18,290.61,301.09,1.0
2018-08-26 16:21:00,89.62669,27.03865,936.916,269.1,97.6,550.8,1.71,2.26,161.46,97.78,76.02,291.47,300.4,97.53,76.11,290.56,301.12,1.0
2018-08-26 16:21:00,89.62669,27.03857,936.939,269.1,97.6,550.6,0.67,2.13,161.78,98.43,76.09,292.05,301.27,97.94,76.05,290.58,301.12,1.0
2018-08-26 16:21:00,89.62669,27.0385,936.932,269.1,97.6,550.7,0.05,2.27,162.3,99.02,76.3,291.21,300.68,98.4,76.01,290.64,301.13,1.0
2018-08-26 16:21:00,89.62669,27.03842,936.914,269.1,97.6,550.9,-0.36,2.12,162.99,99.28,76.09,291.01,301.14,98.83,75.98,290.72,301.13,1.0
2018-08-26 16:21:00,89.62669,27.03835,936.901,269.1,97.6,551.0,-0.43,1.93,163.79,98.43,76.09,290.12,301.23,99.18,75.97,290.72,301.1,1.0
2018-08-26 16:21:00,89.62669,27.03827,936.908,269.1,97.6,550.9,-0.26,1.87,164.71,96.86,76.23,289.2,301.22,99.4,75.98,290.61,301.1,1.0
2018-08-26 16:21:00,89.62669,27.03819,936.939,269.11,97.6,550.6,-0.26,1.74,165.73,99.22,76.02,290.4,301.23,99.47,76.0,290.49,301.16,1.0
2018-08-26 16:21:00,89.62669,27.03812,936.928,269.1,97.6,550.7,-0.13,1.59,166.84,98.69,76.23,290.91,301.21,99.39,76.03,290.42,301.09,1.0
2018-08-26 16:21:00,89.62669,27.03804,936.922,269.1,97.6,550.8,0.28,1.42,167.97,98.69,76.3,291.57,301.78,99.18,76.06,290.44,301.16,1.0
2018-08-26 16:21:00,89.62669,27.03796,936.92,269.1,97.6,550.8,0.97,1.26,169.05,100.78,76.02,291.05,301.29,98.88,76.1,290.48,301.22,1.0
2018-08-26 16:21:00,89.62669,27.03789,936.916,269.1,97.6,550.8,1.75,1.14,170.09,100.26,76.02,290.72,301.29,98.55,76.14,290.57,301.23,1.0
2018-08-26 16:21:00,89.62669,27.03781,936.904,269.1,97.6,550.9,2.27,1.05,171.02,97.19,76.02,290.85,301.55,98.25,76.19,290.74,301.25,1.0
2018-08-26 16:21:00,89.62669,27.03774,936.913,269.1,97.6,550.9,2.4,0.88,171.69,99.28,76.16,292.18,301.0,98.02,76.24,290.77,301.37,1.0
2018-08-26 16:21:00,89.62669,27.03766,936.927,269.1,97.6,550.7,2.26,0.98,172.3,96.66,76.16,291.96,301.22,97.9,76.28,290.73,301.54,1.0
2018-08-26 16:21:00,89.62669,27.03759,936.939,269.1,97.6,550.6,2.1,1.0,172.77,97.45,76.16,291.75,301.62,97.9,76.31,290.67,301.62,1.0
2018-08-26 16:21:00,89.62669,27.03752,936.944,269.1,97.6,550.6,1.74,1.02,173.11,98.89,76.23,291.31,301.17,98.02,76.32,290.63,301.64,1.0
2018-08-26 16:21:00,89.62669,27.03744,936.94,269.1,97.6,550.6,1.12,1.12,173.34,100.33,76.09,291.02,300.75,98.24,76.3,290.59,301.65,1.0
2018-08-26 16:21:00,89.62669,27.03737,936.92,269.1,97.6,550.8,1.19,1.06,173.27,98.04,76.3,290.25,301.48,98.51,76.26,290.44,301.65,1.0
2018-08-26 16:21:00,89.62669,27.03729,936.947,269.1,97.6,550.6,1.32,1.01,173.02,98.17,76.02,290.62,302.68,98.8,76.18,290.35,301.54,1.0
2018-08-26 16:21:00,89.62669,27.03722,936.959,269.11,97.6,550.5,1.38,0.87,172.63,99.8,76.16,290.53,302.49,99.06,76.08,290.14,301.44,1.0
2018-08-26 16:21:00,89.62669,27.03714,936.96,269.11,97.6,550.5,1.36,0.8,172.07,97.97,76.02,290.62,301.6,99.28,75.97,289.91,301.37,1.0
2018-08-26 16:21:00,89.62669,27.03707,936.964,269.1,97.6,550.4,1.21,0.86,171.34,99.67,76.3,290.26,301.72,99.42,75.86,289.75,301.33,1.0
2018-08-26 16:21:00,89.62669,27.037,936.956,269.1,97.6,550.5,0.87,0.92,170.43,98.56,76.09,289.46,302.31,99.47,75.77,289.67,301.3,1.0
2018-08-26 16:21:00,89.62669,27.03692,936.961,269.1,97.6,550.5,0.42,0.95,169.36,96.99,76.16,291.36,300.32,99.45,75.72,289.75,301.2,1.0
2018-08-26 16:21:00,89.62669,27.03685,936.974,269.1,97.6,550.3,-0.16,1.01,168.2,100.2,76.3,290.22,300.95,99.36,75.71,289.84,301.04,1.0
2018-08-26 16:21:00,89.62669,27.03678,936.975,269.1,97.6,550.3,-0.61,1.01,166.9,98.63,76.16,289.4,301.81,99.22,75.76,289.98,300.96,1.0
2018-08-26 16:21:00,89.62669,27.0367,936.963,269.1,97.6,550.4,-0.89,1.01,165.51,97.97,76.23,289.96,301.21,99.04,75.87,290.07,300.94,1.0
2018-08-26 16:21:00,89.62669,27.03662,936.963,269.1,97.6,550.4,-1.08,1.09,164.04,98.5,75.81,290.59,300.51,98.83,76.02,290.08,300.92,1.0
2018-08-26 16:21:00,89.62669,27.03653,936.934,269.1,97.6,550.7,-0.67,1.21,162.5,99.67,75.88,291.25,300.03,98.61,76.21,290.16,300.87,1.0
2018-08-26 16:21:00,89.62669,27.03644,936.911,269.1,97.6,550.9,-0.76,1.19,160.98,98.43,75.88,291.16,300.51,98.38,76.39,290.05,300.95,1.0
2018-08-26 16:21:00,89.62669,27.03635,936.907,269.1,97.6,550.9,-0.88,1.24,159.42,98.17,76.09,291.49,300.41,98.13,76.57,290.02,301.03,1.0
2018-08-26 16:21:00,89.62669,27.03626,936.922,269.1,97.6,550.8,-1.2,1.32,157.87,99.02,76.02,291.06,300.79,97.89,76.71,290.08,301.11,1.0
2018-08-26 16:21:00,89.62669,27.03617,936.948,269.11,97.6,550.6,-1.85,1.4,156.34,99.67,76.3,289.83,301.05,97.65,76.79,290.11,301.23,1.0
2018-08-26 16:21:00,89.62669,27.03608,936.973,269.1,97.6,550.4,-2.61,1.54,154.91,98.95,76.3,289.86,301.76,97.42,76.82,290.01,301.47,1.0
2018-08-26 16:21:00,89.62669,27.03599,936.965,269.11,97.6,550.4,-2.97,1.5,153.55,98.89,76.43,289.82,301.34,97.22,76.79,289.84,301.74,1.0
2018-08-26 16:21:00,89.62668,27.0359,936.966,269.11,97.6,550.4,-3.63,1.55,152.31,98.17,76.3,289.68,302.47,97.05,76.72,289.69,302.03,1.0
2018-08-26 16:21:00,89.62668,27.03581,936.96,269.11,97.6,550.5,-4.01,1.57,151.17,98.3,76.16,289.94,303.03,96.93,76.62,289.61,302.24,1.0
2018-08-26 16:21:00,89.62668,27.03575,936.939,269.1,97.6,550.6,-3.88,1.54,150.19,98.04,75.95,289.87,302.63,96.87,76.52,289.68,302.38,1.0
2018-08-26 16:21:00,89.62668,27.0357,936.966,269.1,97.6,550.4,-3.65,1.53,149.4,97.64,76.3,289.23,303.37,96.87,76.43,289.85,302.51,1.0
2018-08-26 16:21:00,89.62668,27.03565,936.968,269.11,97.6,550.4,-3.19,1.51,148.7,98.17,76.23,289.4,303.14,96.94,76.38,289.8,302.7,1.0
2018-08-26 16:21:00,89.62668,27.0356,936.98,269.11,97.6,550.3,-3.56,1.41,148.14,99.54,76.3,289.17,303.14,97.08,76.38,289.92,302.87,1.0
2018-08-26 16:21:00,89.62668,27.03556,936.971,269.11,97.6,550.4,-4.26,1.45,147.61,97.91,76.23,290.2,302.14,97.26,76.44,289.98,302.9,1.0
2018-08-26 16:21:00,89.62668,27.03551,936.95,269.11,97.6,550.6,-4.86,1.53,147.16,98.17,76.02,291.09,301.29,97.47,76.54,289.97,302.77,1.0
2018-08-26 16:21:00,89.62668,27.03546,936.968,269.11,97.6,550.4,-5.06,1.42,146.91,99.08,76.23,290.96,301.24,97.7,76.67,290.03,302.54,1.0
2018-08-26 16:21:00,89.62668,27.03541,936.959,269.11,97.6,550.5,-5.11,1.4,147.01,98.17,76.3,288.68,302.47,97.92,76.82,290.16,302.29,1.0
2018-08-26 16:21:00,89.62668,27.03537,936.947,269.11,97.6,550.6,-4.28,1.47,147.3,98.89,76.16,290.56,302.31,98.11,76.97,290.26,301.97,1.0
2018-08-26 16:21:00,89.62668,27.03532,936.955,269.11,97.6,550.5,-3.37,1.42,147.85,98.17,76.43,289.9,302.18,98.25,77.09,290.37,301.66,1.0
2018-08-26 16:21:00,89.62668,27.03527,936.973,269.11,97.6,550.4,-2.59,1.36,148.64,98.63,76.3,289.7,301.7,98.33,77.18,290.39,301.44,1.0
2018-08-26 16:21:00,89.62668,27.03522,936.975,269.11,97.6,550.3,-2.01,1.37,149.64,97.06,76.36,291.03,300.98,98.34,77.21,290.33,301.33,1.0
2018-08-26 16:21:00,89.62668,27.03518,936.948,269.11,97.6,550.6,-1.63,1.45,150.75,96.86,76.43,290.86,301.36,98.27,77.2,290.32,301.27,1.0
2018-08-26 16:21:00,89.62668,27.03516,936.993,269.11,97.6,550.2,-1.48,1.5,152.08,98.3,76.23,290.74,300.08,98.13,77.14,290.58,301.1,1.0
2018-08-26 16:21:00,89.62668,27.03514,936.984,269.11,97.6,550.3,-1.81,1.51,153.44,99.87,76.57,290.6,300.77,97.92,77.04,290.67,300.96,1.0
2018-08-26 16:21:00,89.62668,27.03512,936.968,269.11,97.6,550.4,-2.25,1.52,154.92,98.63,76.3,291.11,300.63,97.67,76.92,290.82,300.79,1.0
2018-08-26 16:21:00,89.62668,27.03509,936.976,269.11,97.6,550.3,-2.52,1.54,156.49,98.56,76.5,290.79,300.71,97.4,76.8,290.98,300.64,1.0
2018-08-26 16:21:00,89.62668,27.03507,936.989,269.11,97.6,550.2,-2.47,1.55,158.17,97.58,76.43,291.14,300.95,97.13,76.67,291.04,300.57,1.0
2018-08-26 16:21:00,89.62668,27.03505,936.964,269.11,97.6,550.4,-2.06,1.53,160.08,99.54,76.57,291.62,300.5,96.9,76.56,291.09,300.39,1.0
2018-08-26 16:21:00,89.62668,27.03503,936.982,269.11,97.6,550.3,-1.97,1.46,162.04,97.32,76.36,291.5,300.34,96.74,76.48,291.12,300.27,1.0
2018-08-26 16:21:00,89.62668,27.03501,936.99,269.11,97.6,550.2,-1.29,1.35,164.01,97.91,76.5,291.48,299.96,96.66,76.41,291.16,300.1,1.0
2018-08-26 16:21:00,89.62668,27.03499,936.972,269.11,97.6,550.4,-0.92,1.23,165.97,99.02,76.5,291.36,299.51,96.69,76.37,291.14,299.89,1.0
2018-08-26 16:21:00,89.62668,27.03497,936.934,269.11,97.6,550.7,-1.36,1.12,167.82,96.92,76.3,291.34,299.75,96.84,76.34,291.1,299.69,1.0
2018-08-26 16:21:00,89.62668,27.03495,936.95,269.11,97.6,550.5,-1.25,0.98,169.39,97.45,76.36,291.62,299.36,97.07,76.32,291.17,299.57,1.0
2018-08-26 16:21:00,89.62668,27.03493,936.944,269.11,97.6,550.6,-1.26,0.76,170.93,98.56,76.23,291.13,299.56,97.38,76.32,291.22,299.54,1.0
2018-08-26 16:21:00,89.62668,27.03492,936.946,269.11,97.6,550.6,-0.8,0.55,172.24,97.25,76.5,291.4,299.56,97.73,76.32,291.27,299.54,1.0
2018-08-26 16:21:00,89.62668,27.0349,936.955,269.11,97.6,550.5,-0.11,0.37,173.35,98.23,76.5,290.94,299.3,98.06,76.33,291.36,299.65,1.0
2018-08-26 16:21:00,89.62668,27.03489,936.972,269.11,97.6,550.4,0.47,0.17,174.28,97.78,76.5,290.6,299.32,98.35,76.35,291.45,299.79,1.0
2018-08-26 16:21:00,89.62667,27.03488,936.998,269.11,97.6,550.2,0.7,-0.11,175.12,98.69,76.5,291.86,300.48,98.54,76.37,291.5,299.91,1.0
2018-08-26 16:21:00,89.62667,27.03486,936.924,269.11,97.6,550.8,0.78,-0.24,175.62,98.3,76.43,292.22,300.59,98.62,76.4,291.52,300.14,1.0
2018-08-26 16:21:00,89.62667,27.03485,936.895,269.11,97.6,551.0,0.86,-0.41,175.75,98.04,76.36,292.04,301.04,98.59,76.44,291.56,300.29,1.0
2018-08-26 16:21:00,89.62667,27.03483,936.931,269.11,97.6,550.7,0.79,-0.54,175.62,98.63,76.3,292.19,300.63,98.45,76.49,291.57,300.42,1.0
2018-08-26 16:21:00,89.62667,27.03482,936.996,269.11,97.6,550.2,0.44,-0.67,175.24,96.99,76.3,292.25,300.76,98.24,76.54,291.61,300.57,1.0
2018-08-26 16:21:00,89.62667,27.03481,937.001,269.11,97.6,550.1,-0.22,-0.81,174.6,98.63,76.36,292.03,300.49,98.02,76.6,291.66,300.73,1.0
2018-08-26 16:21:00,89.62667,27.03479,936.953,269.11,97.6,550.5,-0.62,-0.74,173.65,97.58,76.5,291.62,300.68,97.83,76.66,291.6,300.83,1.0
2018-08-26 16:21:00,89.62667,27.03478,936.949,269.11,97.6,550.6,-0.48,-0.85,172.64,98.76,76.5,291.92,300.54,97.73,76.71,291.53,300.87,1.0
2018-08-26 16:21:00,89.62667,27.03476,936.953,269.11,97.6,550.5,-0.29,-0.76,171.44,97.97,76.57,291.63,300.31,97.77,76.76,291.5,300.91,1.0
2018-08-26 16:21:00,89.62667,27.03474,936.946,269.11,97.6,550.6,0.04,-0.59,170.08,97.19,76.3,291.6,300.26,97.97,76.8,291.46,300.93,1.0
2018-08-26 16:21:00,89.62667,27.03472,936.934,269.11,97.6,550.7,0.39,-0.43,168.59,99.15,76.43,291.48,300.75,98.34,76.82,291.43,300.96,1.0
2018-08-26 16:21:00,89.62667,27.03469,936.998,269.11,97.6,550.2,0.37,-0.17,166.99,96.86,76.43,291.34,301.25,98.84,76.83,291.42,301.04,1.0
2018-08-26 16:21:00,89.62667,27.03467,936.942,269.11,97.6,550.6,-0.07,0.06,165.36,97.06,76.64,291.74,301.04,99.44,76.82,291.39,301.02,1.0
2018-08-26 16:21:00,89.62667,27.03465,936.949,269.11,97.6,550.6,-0.7,0.25,163.7,99.48,76.5,291.55,301.49,100.06,76.8,291.33,301.12,1.0
2018-08-26 16:21:00,89.62667,27.03462,936.97,269.11,97.6,550.4,-1.45,0.36,162.08,98.89,76.36,291.45,301.52,100.62,76.78,291.26,301.21,1.0
2018-08-26 16:21:00,89.62667,27.0346,936.975,269.11,97.6,550.3,-2.13,0.4,160.48,98.04,76.57,291.37,301.4,101.06,76.74,291.18,301.24,1.0
2018-08-26 16:21:00,89.62667,27.03458,936.977,269.11,97.6,550.3,-2.45,0.39,158.96,98.5,76.5,291.02,301.46,101.31,76.71,291.07,301.24,1.0
2018-08-26 16:21:00,89.62667,27.03456,936.969,269.11,97.6,550.4,-2.44,0.42,157.59,97.71,76.57,290.67,301.0,101.33,76.66,290.95,301.15,1.0
2018-08-26 16:21:00,89.62667,27.03453,936.983,269.11,97.6,550.3,-2.45,0.37,156.45,98.17,76.43,290.78,301.51,101.1,76.62,290.8,301.08,1.0
2018-08-26 16:21:00,89.62667,27.03451,936.984,269.11,97.6,550.3,-2.39,0.42,155.38,98.1,76.5,290.63,301.04,100.62,76.57,290.57,301.06,1.0
2018-08-26 16:21:00,89.62667,27.03449,936.979,269.11,97.6,550.3,-2.16,0.53,154.43,98.82,76.57,290.75,300.51,99.95,76.53,290.36,301.06,1.0
2018-08-26 16:21:00,89.62667,27.03446,936.992,269.11,97.6,550.2,-1.84,0.63,153.66,99.02,76.5,290.9,300.86,99.14,76.48,290.23,301.0,1.0
2018-08-26 16:21:00,89.62667,27.03444,936.993,269.11,97.6,550.2,-1.98,0.63,152.99,98.43,76.5,290.66,300.49,98.28,76.44,290.2,300.86,1.0
2018-08-26 16:21:00,89.62666,27.03442,937.003,269.11,97.6,550.1,-2.28,0.78,152.54,101.24,76.5,290.46,300.56,97.44,76.41,290.1,300.91,1.0
2018-08-26 16:21:00,89.62666,27.03439,937.001,269.11,97.6,550.1,-2.7,1.05,152.35,98.43,76.57,289.81,301.35,96.72,76.39,290.13,300.82,1.0
2018-08-26 16:21:00,89.62666,27.0343,936.985,269.11,97.6,550.3,-2.69,1.36,152.37,97.84,76.5,289.96,301.55,96.17,76.39,290.13,300.83,1.0
2018-08-26 16:21:00,89.62666,27.03422,936.957,269.11,97.6,550.5,-2.12,1.55,152.6,98.17,76.57,290.48,301.17,95.86,76.4,290.06,300.96,1.0
2018-08-26 16:21:00,89.62666,27.03413,936.927,269.11,97.6,550.7,-1.43,1.4,153.07,97.51,76.36,290.78,300.53,95.81,76.43,289.99,301.06,1.0
2018-08-26 16:21:00,89.62666,27.03404,936.948,269.11,97.6,550.6,-1.25,1.41,153.77,99.22,76.57,289.39,302.17,96.0,76.47,289.9,301.19,1.0
2018-08-26 16:21:00,89.62666,27.03396,936.949,269.11,97.6,550.6,-0.85,1.45,154.6,97.19,76.5,290.46,301.17,96.43,76.52,289.79,301.32,1.0
2018-08-26 16:21:00,89.62666,27.03387,936.942,269.11,97.6,550.6,-0.7,1.51,155.58,96.99,76.3,289.54,301.06,97.03,76.58,289.71,301.35,1.0
2018-08-26 16:21:00,89.62666,27.03378,936.941,269.11,97.6,550.6,-0.67,1.58,156.71,98.23,76.5,288.92,301.86,97.74,76.64,289.62,301.35,1.0
2018-08-26 16:21:00,89.62666,27.0337,936.956,269.11,97.6,550.5,-0.55,1.61,157.87,98.95,76.5,289.1,301.74,98.5,76.7,289.46,301.41,1.0
2018-08-26 16:21:00,89.62666,27.03365,936.949,269.11,97.6,550.6,-1.18,1.65,159.28,97.97,76.64,288.94,301.21,99.24,76.75,289.25,301.51,1.0
2018-08-26 16:21:00,89.62666,27.0336,936.954,269.12,97.6,550.5,-1.51,1.62,160.8,99.22,76.5,289.02,301.2,99.87,76.79,289.19,301.31,1.0
2018-08-26 16:21:00,89.62666,27.03356,936.952,269.11,97.6,550.5,-1.33,1.61,162.46,97.97,76.57,289.4,301.15,100.36,76.83,289.06,301.36,1.0
2018-08-26 16:21:00,89.62666,27.03351,936.953,269.11,97.6,550.5,-0.93,1.56,164.16,98.04,76.5,289.56,301.46,100.67,76.85,289.0,301.47,1.0
2018-08-26 16:21:00,89.62666,27.03346,936.967,269.11,97.6,550.4,-0.39,1.45,165.9,99.22,76.57,289.33,301.54,100.78,76.87,289.05,301.5,1.0
2018-08-26 16:21:00,89.62666,27.03342,936.995,269.11,97.6,550.2,0.69,1.3,167.65,96.92,76.43,289.55,301.01,100.7,76.89,289.11,301.54,1.0
2018-08-26 16:21:00,89.62666,27.03337,936.971,269.11,97.6,550.4,1.29,1.23,169.33,100.0,76.57,289.66,299.21,100.44,76.91,289.2,301.57,1.0
2018-08-26 16:21:00,89.62666,27.03332,936.979,269.12,97.6,550.3,2.02,1.01,170.84,97.25,76.71,289.36,301.71,100.04,76.92,289.36,301.62,1.0
2018-08-26 16:21:00,89.62666,27.03327,936.989,269.12,97.6,550.2,2.49,0.79,172.11,99.48,76.5,289.34,302.87,99.55,76.93,289.45,301.65,1.0
2018-08-26 16:21:00,89.62666,27.03322,936.98,269.12,97.6,550.3,2.59,0.6,173.14,97.84,76.57,289.4,302.62,99.0,76.94,289.44,301.59,1.0
2018-08-26 16:21:00,89.62666,27.03318,936.959,269.12,97.6,550.5,2.36,0.39,173.85,99.35,76.5,289.47,302.48,98.45,76.94,289.37,301.47,1.0
2018-08-26 16:21:00,89.62666,27.03313,936.899,269.11,97.6,551.0,2.42,0.37,174.23,98.56,76.71,289.36,302.88,97.95,76.92,289.26,301.52,1.0
2018-08-26 16:21:00,89.62666,27.03308,936.884,269.11,97.6,551.1,1.98,0.25,174.29,99.8,76.57,290.1,302.76,97.52,76.89,289.21,301.66,1.0
2018-08-26 16:21:00,89.62666,27.03302,936.911,269.11,97.6,550.9,1.92,0.2,174.09,99.67,76.78,289.55,301.84,97.21,76.83,289.15,301.66,1.0
2018-08-26 16:21:00,89.62665,27.03297,936.956,269.11,97.6,550.5,2.13,0.18,173.62,96.79,76.5,288.91,300.94,97.03,76.75,289.09,301.57,1.0
2018-08-26 16:21:00,89.62665,27.03291,936.978,269.11,97.6,550.3,2.33,0.13,172.87,96.47,76.57,288.89,300.28,96.99,76.66,289.04,301.47,1.0
2018-08-26 16:21:00,89.62665,27.03286,936.951,269.11,97.6,550.5,2.43,0.12,171.85,99.61,76.71,288.82,301.55,97.11,76.55,289.03,301.37,1.0
2018-08-26 16:21:00,89.62665,27.0328,936.944,269.11,97.6,550.6,2.12,0.17,170.53,98.69,76.71,290.02,300.99,97.36,76.45,289.05,301.28,1.0
2018-08-26 16:21:00,89.62665,27.03274,936.937,269.11,97.6,550.7,1.96,0.19,168.95,99.28,76.64,289.94,301.32,97.75,76.35,289.06,301.15,1.0
2018-08-26 16:21:00,89.62665,27.03269,936.91,269.11,97.6,550.9,1.48,0.29,167.23,97.97,76.5,290.21,301.37,98.23,76.27,289.15,301.08,1.0
2018-08-26 16:21:00,89.62665,27.03263,936.879,269.11,97.6,551.1,0.83,0.51,165.38,97.97,76.71,289.93,301.56,98.79,76.23,289.35,301.12,1.0
2018-08-26 16:21:00,89.62665,27.03258,936.949,269.11,97.6,550.6,0.77,0.71,163.34,97.97,76.64,290.22,301.76,99.36,76.22,289.56,301.21,1.0
2018-08-26 16:21:00,89.62665,27.03252,936.937,269.11,97.6,550.7,0.25,0.95,161.33,96.79,76.5,290.03,301.57,99.92,76.24,289.78,301.22,1.0
2018-08-26 16:21:00,89.62665,27.03246,936.954,269.11,97.6,550.5,-0.13,1.31,159.2,99.67,76.43,289.94,301.28,100.4,76.3,289.76,301.3,1.0
2018-08-26 16:21:00,89.62665,27.03242,936.968,269.11,97.6,550.4,-0.85,1.55,157.17,98.5,76.43,289.75,301.08,100.77,76.39,289.77,301.37,1.0
2018-08-26 16:21:00,89.62665,27.03238,936.958,269.11,97.6,550.5,-1.71,1.74,155.24,98.63,76.57,289.75,301.76,100.98,76.49,289.81,301.45,1.0
2018-08-26 16:21:00,89.62665,27.03234,936.936,269.12,97.6,550.7,-2.23,2.05,153.46,100.0,76.64,289.95,301.67,101.02,76.6,289.81,301.54,1.0
2018-08-26 16:21:00,89.62665,27.0323,936.966,269.11,97.6,550.4,-2.23,2.08,151.73,99.02,76.71,290.02,301.66,100.89,76.72,289.79,301.64,1.0
2018-08-26 16:21:00,89.62665,27.03227,936.965,269.11,97.6,550.4,-2.93,2.21,150.19,97.91,76.5,288.33,301.33,100.61,76.83,289.76,301.73,1.0
2018-08-26 16:21:00,89.62665,27.03223,936.967,269.11,97.6,550.4,-3.4,2.28,148.71,98.89,76.36,288.82,301.5,100.2,76.92,289.72,301.8,1.0
2018-08-26 16:21:00,89.62665,27.03219,936.974,269.11,97.6,550.4,-3.62,2.25,147.38,98.56,76.57,289.83,301.28,99.73,77.01,289.69,301.84,1.0
