Date/Time,Latitude,Longitude,PPPP [hPa],TTT grad [K],RH [%],Height [m],Pitch [deg],Roll [deg],Yaw [deg],SWD [W/m**2] (raw),SWU [W/m**2] (raw),LWD [W/m**2] (raw),LWU [W/m**2] (raw),SWD [W/m**2] (corrected),SWU [W/m**2] (corrected),LWD [W/m**2] (corrected),LWU [W/m**2] (corrected),Flag
2018-08-26 15:51:00,89.62102,26.78847,1004.543,272.5,97.3,2.5,1.82,6.04,79.65,80.76,48.65,303.54,316.06,82.63,51.15,301.69,315.43,0.0
2018-08-26 15:51:00,89.62102,26.78845,1004.554,272.51,97.3,2.4,1.34,5.91,79.16,80.76,48.93,303.42,315.94,83.03,51.17,301.67,315.4,0.0
2018-08-26 15:51:00,89.62102,26.78843,1004.554,272.51,97.3,2.4,0.95,5.75,78.77,81.35,49.0,303.2,316.0,83.25,51.17,301.66,315.38,0.0
2018-08-26 15:51:00,89.62102,26.78842,1004.563,272.51,97.3,2.3,0.59,5.56,78.5,80.56,49.07,303.2,316.1,83.31,51.15,301.65,315.35,0.0
2018-08-26 15:51:00,89.62102,26.7884,1004.596,272.51,97.3,2.1,0.25,5.39,78.34,81.68,49.07,303.11,316.1,83.22,51.12,301.64,315.32,0.0
2018-08-26 15:51:00,89.62102,26.78838,1004.599,272.51,97.3,2.0,0.17,5.37,78.23,81.74,49.14,303.39,315.81,83.01,51.09,301.64,315.29,0.0
2018-08-26 15:51:00,89.62102,26.78836,1004.59,272.5,97.3,2.1,-0.02,4.98,78.22,80.43,49.27,303.11,315.9,82.72,51.04,301.62,315.25,0.0
2018-08-26 15:51:00,89.62102,26.78834,1004.572,272.5,97.3,2.3,-0.38,4.99,78.31,81.22,49.27,303.48,316.1,82.42,51.0,301.63,315.23,0.0
2018-08-26 15:51:00,89.62102,26.78832,1004.563,272.5,97.3,2.3,-0.7,4.99,78.45,80.37,49.27,303.21,316.19,82.13,50.97,301.64,315.18,0.0
2018-08-26 15:51:00,89.62102,26.7883,1004.568,272.5,97.3,2.3,-1.05,4.95,78.65,80.43,49.27,303.22,315.81,81.9,50.96,301.65,315.14,0.0
2018-08-26 15:51:00,89.62102,26.78828,1004.563,272.51,97.3,2.3,-1.66,5.19,78.91,82.72,49.48,302.84,315.81,81.74,50.96,301.66,315.11,0.0
2018-08-26 15:51:00,89.62102,26.78826,1004.559,272.51,97.3,2.4,-1.94,4.98,79.21,81.54,49.27,303.2,316.11,81.66,50.99,301.66,315.08,0.0
2018-08-26 15:51:00,89.62102,26.78824,1004.551,272.51,97.3,2.4,-2.12,5.13,79.46,80.63,49.48,302.92,316.11,81.67,51.04,301.64,315.05,0.0
2018-08-26 15:51:00,89.62102,26.78822,1004.538,272.51,97.3,2.5,-2.39,5.25,79.89,81.35,49.27,302.95,315.93,81.74,51.12,301.69,315.0,0.0
2018-08-26 15:51:00,89.62102,26.78821,1004.526,272.51,97.3,2.6,-2.58,5.31,80.46,80.24,49.41,302.96,315.5,81.86,51.23,301.7,314.88,0.0
2018-08-26 15:51:00,89.62102,26.7882,1004.523,272.51,97.3,2.6,-2.58,5.44,80.99,80.63,49.55,302.83,316.1,82.01,51.36,301.64,314.71,0.0
2018-08-26 15:51:00,89.62102,26.78819,1004.524,272.52,97.3,2.6,-3.09,5.61,81.61,81.94,49.69,302.74,315.61,82.17,51.52,301.57,314.63,0.0
2018-08-26 15:51:00,89.62102,26.78818,1004.536,272.51,97.3,2.5,-3.32,5.52,82.27,81.81,49.76,302.55,315.82,82.32,51.7,301.49,314.52,0.0
2018-08-26 15:51:00,89.62102,26.78816,1004.525,272.52,97.3,2.6,-3.56,5.5,83.01,82.4,49.76,303.58,315.7,82.44,51.89,301.41,314.41,0.0
2018-08-26 15:51:00,89.62102,26.78815,1004.514,272.52,97.3,2.7,-3.58,5.6,83.8,80.82,49.76,303.32,314.65,82.52,52.1,301.34,314.31,0.0
2018-08-26 15:51:00,89.62102,26.78814,1004.519,272.51,97.3,2.7,-3.42,5.77,84.66,81.15,49.55,302.45,314.36,82.56,52.32,301.28,314.21,0.0
2018-08-26 15:51:00,89.62102,26.78813,1004.514,272.52,97.3,2.7,-3.48,5.78,85.59,81.15,49.96,302.55,315.61,82.57,52.55,301.26,314.1,0.0
2018-08-26 15:51:00,89.62102,26.78812,1004.511,272.52,97.3,2.7,-3.11,5.94,86.48,80.89,49.96,302.74,315.81,82.53,52.78,301.26,314.01,0.0
2018-08-26 15:51:00,89.62102,26.78811,1004.5,272.52,97.3,2.8,-3.16,5.88,87.47,80.76,50.1,302.47,315.61,82.47,53.02,301.29,313.94,0.0
2018-08-26 15:51:00,89.62102,26.7881,1004.491,272.52,97.3,2.9,-3.12,5.88,88.58,81.81,49.96,302.56,315.71,82.38,53.26,301.28,313.9,0.0
2018-08-26 15:51:00,89.62102,26.78809,1004.485,272.52,97.3,2.9,-2.89,5.97,89.77,81.54,50.1,302.64,315.23,82.29,53.51,301.29,313.94,0.0
2018-08-26 15:51:00,89.62102,26.78808,1004.48,272.52,97.3,3.0,-2.54,6.07,91.11,82.53,50.31,302.64,315.63,82.19,53.77,301.37,314.04,0.0
2018-08-26 15:51:00,89.62102,26.78806,1004.498,272.52,97.3,2.8,-2.19,6.19,92.64,82.59,50.45,302.36,315.32,82.1,54.03,301.44,314.04,0.0
2018-08-26 15:51:00,89.62102,26.78805,1004.471,272.53,97.3,3.1,-1.81,6.35,94.36,80.5,50.52,302.27,315.24,82.01,54.32,301.49,314.05,0.0
2018-08-26 15:51:00,89.62102,26.78804,1004.477,272.53,97.3,3.0,-1.54,6.55,96.17,81.94,50.45,302.27,315.34,81.95,54.61,301.51,314.05,0.0
2018-08-26 15:51:00,89.62102,26.78803,1004.49,272.53,97.3,2.9,-1.25,6.76,98.08,80.69,50.73,302.46,315.34,81.89,54.93,301.51,314.04,0.0
2018-08-26 15:51:00,89.62102,26.78801,1004.477,272.53,97.3,3.0,-0.98,6.88,100.02,81.35,50.73,302.55,315.05,81.83,55.27,301.47,314.02,0.0
2018-08-26 15:51:00,89.62102,26.788,1004.464,272.53,97.3,3.1,-0.95,6.79,102.09,81.74,50.93,302.1,315.61,81.78,55.63,301.4,313.99,0.0
2018-08-26 15:51:00,89.62102,26.78799,1004.451,272.53,97.3,3.2,-0.71,6.9,104.14,81.81,51.0,302.27,315.23,81.72,56.0,301.32,313.95,0.0
2018-08-26 15:51:00,89.62102,26.78797,1004.441,272.53,97.3,3.3,-0.97,6.76,106.35,82.4,51.21,302.18,315.05,81.64,56.38,301.24,313.9,0.0
2018-08-26 15:51:00,89.62102,26.78796,1004.433,272.53,97.3,3.4,-1.18,6.62,108.57,80.69,51.14,302.08,315.34,81.55,56.77,301.15,313.85,0.0
2018-08-26 15:51:00,89.62102,26.78795,1004.429,272.53,97.3,3.4,-1.27,6.48,110.83,81.61,51.42,302.55,314.86,81.44,57.14,301.08,313.81,0.0
2018-08-26 15:51:00,89.62102,26.78793,1004.435,272.53,97.3,3.3,-1.37,6.26,113.09,80.89,51.62,302.08,315.44,81.33,57.51,301.04,313.77,0.0
2018-08-26 15:51:00,89.62102,26.78792,1004.439,272.53,97.3,3.3,-1.62,5.84,115.38,81.81,51.56,302.18,314.76,81.23,57.84,301.02,313.74,0.0
2018-08-26 15:51:00,89.62102,26.7879,1004.449,272.53,97.3,3.2,-2.14,5.62,117.71,82.2,51.97,302.28,315.05,81.14,58.16,301.03,313.7,0.0
2018-08-26 15:51:00,89.62102,26.78789,1004.449,272.53,97.3,3.2,-2.77,5.34,120.06,82.0,52.04,302.28,314.95,81.09,58.44,301.16,313.57,0.0
2018-08-26 15:51:00,89.62103,26.78787,1004.452,272.53,97.3,3.2,-3.31,4.96,122.46,81.94,52.32,302.18,314.95,81.09,58.7,301.3,313.47,0.0
2018-08-26 15:51:00,89.62103,26.78786,1004.466,272.53,97.3,3.1,-3.7,4.57,124.83,81.41,52.45,302.0,315.05,81.15,58.95,301.35,313.45,0.0
2018-08-26 15:51:00,89.62103,26.78784,1004.437,272.53,97.3,3.3,-4.2,4.34,127.25,80.17,52.73,302.19,314.85,81.25,59.2,301.4,313.44,0.0
2018-08-26 15:51:00,89.62103,26.78783,1004.404,272.53,97.3,3.6,-4.34,4.01,129.71,82.13,52.8,301.8,314.93,81.38,59.45,301.44,313.43,0.0
2018-08-26 15:51:00,89.62103,26.78781,1004.396,272.52,97.3,3.6,-4.71,3.85,132.2,80.56,52.8,303.24,313.6,81.52,59.71,301.56,313.39,0.0
2018-08-26 15:51:00,89.62103,26.7878,1004.398,272.52,97.3,3.6,-4.77,3.7,134.59,81.94,52.87,302.8,313.85,81.65,60.01,301.61,313.35,0.0
2018-08-26 15:51:00,89.62103,26.78778,1004.398,272.52,97.3,3.6,-4.78,3.57,136.96,81.41,53.14,301.91,314.78,81.73,60.32,301.57,313.32,0.0
2018-08-26 15:51:00,89.62103,26.78777,1004.41,272.52,97.3,3.5,-5.59,3.57,139.33,82.2,53.49,301.91,314.97,81.74,60.67,301.5,313.28,0.0
2018-08-26 15:51:00,89.62103,26.78775,1004.384,272.51,97.2,3.7,-5.56,3.51,141.63,81.48,53.63,301.72,314.38,81.67,61.03,301.42,313.23,0.0
2018-08-26 15:51:00,89.62103,26.78774,1004.38,272.51,97.2,3.8,-6.24,3.53,143.83,80.63,53.84,303.03,314.3,81.52,61.39,301.32,313.17,0.0
2018-08-26 15:51:00,89.62103,26.78772,1004.385,272.51,97.2,3.7,-6.74,3.58,145.98,82.0,53.9,302.59,314.21,81.32,61.73,301.12,313.19,0.0
2018-08-26 15:51:00,89.62103,26.78771,1004.374,272.51,97.2,3.8,-7.33,3.64,148.03,81.81,54.25,301.7,314.76,81.07,62.04,300.93,313.18,0.0
2018-08-26 15:51:00,89.62103,26.7877,1004.325,272.51,97.2,4.2,-8.28,3.72,149.99,82.0,54.53,301.8,314.76,80.84,62.3,300.84,313.06,0.0
2018-08-26 15:51:00,89.62103,26.78769,1004.308,272.51,97.2,4.3,-8.46,3.84,151.63,80.96,54.53,301.91,314.76,80.65,62.5,300.75,312.94,0.0
2018-08-26 15:51:00,89.62103,26.78768,1004.306,272.51,97.2,4.4,-9.28,3.98,153.28,82.4,54.94,301.8,314.57,80.54,62.63,300.68,312.82,0.0
2018-08-26 15:51:00,89.62103,26.78766,1004.304,272.51,97.2,4.4,-9.74,4.3,154.76,81.22,54.94,301.72,314.47,80.53,62.7,300.53,312.73,0.0
2018-08-26 15:51:00,89.62103,26.78765,1004.296,272.51,97.2,4.4,-10.56,4.62,156.1,80.24,55.22,301.81,314.38,80.64,62.7,300.43,312.66,0.0
2018-08-26 15:51:00,89.62103,26.78764,1004.285,272.5,97.2,4.5,-11.63,4.9,157.34,81.94,55.29,301.89,314.38,80.84,62.65,300.42,312.6,0.0
2018-08-26 15:51:00,89.62103,26.78763,1004.294,272.51,97.2,4.5,-11.58,5.24,158.38,81.02,55.7,301.71,314.38,81.1,62.58,300.42,312.57,0.0
2018-08-26 15:51:00,89.62103,26.78761,1004.274,272.5,97.2,4.6,-12.95,5.84,159.29,81.15,55.77,301.63,314.18,81.37,62.5,300.43,312.57,0.0
2018-08-26 15:51:00,89.62103,26.7876,1004.261,272.51,97.2,4.7,-13.19,6.26,159.93,81.35,56.05,301.82,314.38,81.58,62.43,300.45,312.59,0.0
2018-08-26 15:51:00,89.62103,26.78759,1004.263,272.51,97.2,4.7,-13.86,6.77,160.46,80.63,56.05,301.63,314.47,81.7,62.39,300.57,312.63,0.0
2018-08-26 15:51:00,89.62103,26.7876,1004.269,272.51,97.2,4.7,-14.76,7.32,160.93,82.79,56.25,301.72,314.18,81.67,62.39,300.62,312.66,0.0
2018-08-26 15:51:00,89.62103,26.78761,1004.211,272.51,97.2,5.1,-14.38,7.54,161.24,80.82,56.39,301.53,314.39,81.47,62.45,300.49,312.68,0.0
2018-08-26 15:51:00,89.62103,26.78763,1004.23,272.51,97.2,5.0,-15.32,8.05,161.53,82.33,56.67,301.45,314.18,81.11,62.56,300.51,312.69,0.0
2018-08-26 15:51:00,89.62103,26.78764,1004.248,272.52,97.2,4.8,-14.84,8.19,161.63,81.54,56.46,301.44,313.77,80.61,62.73,300.51,312.67,0.0
2018-08-26 15:51:00,89.62103,26.78765,1004.266,272.52,97.2,4.7,-14.84,8.5,161.62,81.28,56.6,302.06,313.65,80.03,62.94,300.51,312.69,0.0
2018-08-26 15:51:00,89.62103,26.78767,1004.274,272.52,97.2,4.6,-14.67,8.78,161.46,81.54,56.88,301.46,313.92,79.43,63.17,300.5,312.68,0.0
2018-08-26 15:51:00,89.62103,26.78768,1004.268,272.52,97.2,4.7,-13.9,8.84,161.14,80.24,57.02,299.36,313.61,78.88,63.42,300.48,312.6,0.0
2018-08-26 15:51:00,89.62103,26.78769,1004.29,272.52,97.2,4.5,-13.86,8.82,160.81,81.94,57.5,301.43,313.89,78.45,63.66,300.42,312.45,0.0
2018-08-26 15:51:00,89.62103,26.78771,1004.232,272.53,97.2,4.9,-13.1,8.79,160.24,81.02,57.5,300.93,313.88,78.17,63.89,300.4,312.39,0.0
2018-08-26 15:51:00,89.62103,26.78772,1004.197,272.53,97.2,5.2,-13.15,8.7,159.66,80.69,57.71,300.96,314.54,78.07,64.08,300.4,312.36,0.0
2018-08-26 15:51:00,89.62103,26.78774,1004.2,272.53,97.2,5.2,-13.0,8.51,158.97,81.02,57.84,301.15,313.91,78.15,64.24,300.33,312.34,0.0
2018-08-26 15:51:00,89.62103,26.78775,1004.221,272.53,97.2,5.0,-12.38,8.22,158.12,80.89,57.91,301.36,313.67,78.37,64.34,300.34,312.35,0.0
2018-08-26 15:51:00,89.62103,26.78774,1004.185,272.54,97.2,5.3,-12.29,7.91,157.28,80.69,57.91,300.43,312.76,78.67,64.41,300.55,312.39,0.0
2018-08-26 15:51:00,89.62103,26.7877,1004.196,272.53,97.2,5.2,-12.18,7.33,156.49,80.82,58.47,301.0,313.81,78.99,64.43,300.62,312.43,0.0
2018-08-26 15:51:00,89.62103,26.78765,1004.197,272.54,97.2,5.2,-11.88,6.8,155.68,81.61,58.33,301.24,313.69,79.28,64.42,300.73,312.47,0.0
2018-08-26 15:51:00,89.62103,26.78761,1004.202,272.54,97.2,5.2,-11.43,6.19,154.8,79.39,58.67,301.34,313.89,79.46,64.39,300.83,312.45,0.0
2018-08-26 15:51:00,89.62103,26.78757,1004.21,272.54,97.2,5.1,-11.53,5.71,153.89,80.37,58.6,301.44,313.6,79.52,64.36,300.92,312.41,0.0
2018-08-26 15:51:00,89.62103,26.78752,1004.207,272.54,97.2,5.1,-12.38,5.51,152.93,81.54,58.88,301.26,313.5,79.44,64.33,301.02,312.44,0.0
2018-08-26 15:51:00,89.62103,26.78748,1004.214,272.53,97.2,5.1,-12.02,5.3,151.88,80.3,58.95,301.24,313.49,79.22,64.32,301.15,312.51,0.0
2018-08-26 15:51:00,89.62103,26.78744,1004.191,272.52,97.2,5.3,-13.48,5.02,150.94,81.02,59.16,301.34,313.4,78.92,64.33,301.2,312.49,0.0
2018-08-26 15:51:00,89.62103,26.78739,1004.173,272.52,97.2,5.4,-14.0,4.72,150.02,80.1,59.43,301.24,313.79,78.56,64.37,301.21,312.46,0.0
2018-08-26 15:51:00,89.62103,26.78735,1004.165,272.52,97.2,5.5,-14.06,4.5,149.15,81.28,59.3,301.44,313.5,78.22,64.42,301.2,312.42,0.0
2018-08-26 15:51:00,89.62103,26.78731,1004.16,272.52,97.1,5.5,-14.26,4.35,148.37,79.91,59.5,301.16,313.5,77.95,64.5,301.15,312.38,0.0
2018-08-26 15:51:00,89.62103,26.78726,1004.127,272.51,97.1,5.8,-14.79,4.06,147.83,80.63,59.57,301.43,313.49,77.78,64.58,301.08,312.34,0.0
2018-08-26 15:51:00,89.62103,26.78722,1004.125,272.51,97.1,5.8,-13.88,4.24,147.02,80.43,59.71,301.14,313.49,77.74,64.66,301.0,312.31,0.0
2018-08-26 15:51:00,89.62103,26.78718,1004.114,272.51,97.1,5.9,-13.7,4.08,146.44,80.37,59.85,301.24,313.31,77.84,64.73,300.92,312.28,0.0
2018-08-26 15:51:00,89.62104,26.78713,1004.099,272.51,97.1,6.0,-13.32,4.01,145.89,79.19,59.99,301.14,313.12,78.08,64.79,300.85,312.26,0.0
2018-08-26 15:51:00,89.62104,26.78708,1004.089,272.51,97.1,6.1,-12.85,4.07,145.32,80.89,59.92,301.05,313.4,78.42,64.82,300.78,312.23,0.0
2018-08-26 15:51:00,89.62104,26.78701,1004.086,272.51,97.1,6.1,-12.79,4.04,144.8,79.78,60.26,301.34,313.12,78.84,64.84,300.74,312.21,0.0
2018-08-26 15:51:00,89.62104,26.78693,1004.064,272.51,97.1,6.3,-12.22,3.7,144.54,79.78,60.4,301.06,313.02,79.3,64.85,300.72,312.18,0.0
2018-08-26 15:51:00,89.62104,26.78685,1004.071,272.5,97.1,6.2,-11.93,3.87,144.25,79.84,60.54,301.15,313.4,79.78,64.86,300.71,312.2,0.0
2018-08-26 15:51:00,89.62104,26.78678,1004.076,272.5,97.1,6.2,-11.6,3.78,144.08,78.93,60.68,301.24,313.02,80.23,64.87,300.72,312.2,0.0
2018-08-26 15:51:00,89.62104,26.7867,1004.08,272.5,97.1,6.1,-11.42,3.63,143.97,80.82,60.68,301.24,313.4,80.65,64.91,300.75,312.18,0.0
2018-08-26 15:51:00,89.62104,26.78662,1004.093,272.51,97.1,6.0,-11.38,3.64,143.86,81.02,60.88,301.06,313.31,81.01,64.97,300.77,312.18,0.0
2018-08-26 15:51:00,89.62104,26.78655,1004.081,272.5,97.1,6.1,-10.7,3.59,143.78,80.17,60.88,301.35,312.93,81.3,65.06,300.78,312.19,0.0
2018-08-26 15:51:00,89.62104,26.78647,1004.061,272.5,97.1,6.3,-10.99,3.54,143.9,79.58,60.82,300.94,313.37,81.51,65.19,300.79,312.21,0.0
2018-08-26 15:51:00,89.62104,26.7864,1004.054,272.49,97.1,6.3,-11.35,3.54,144.15,80.24,60.75,300.73,313.12,81.62,65.33,300.78,312.23,0.0
2018-08-26 15:51:00,89.62104,26.78634,1004.043,272.49,97.0,6.4,-11.62,3.57,144.48,80.43,61.23,301.17,313.02,81.63,65.48,300.76,312.27,0.0
2018-08-26 15:51:00,89.62104,26.78628,1004.018,272.49,97.0,6.6,-11.86,3.64,144.86,80.04,61.37,300.97,313.01,81.52,65.63,300.74,312.31,0.0
2018-08-26 15:51:00,89.62104,26.78622,1004.014,272.48,97.0,6.7,-12.16,3.74,145.29,80.43,61.44,301.15,313.21,81.29,65.77,300.71,312.34,0.0
2018-08-26 15:51:00,89.62104,26.78615,1004.0,272.48,97.0,6.8,-12.04,3.77,145.81,80.89,61.58,300.87,312.92,80.92,65.88,300.68,312.37,0.0
2018-08-26 15:51:00,89.62104,26.78609,1003.991,272.48,97.0,6.8,-12.57,4.03,146.37,79.58,61.58,300.96,313.32,80.45,65.94,300.66,312.35,0.0
2018-08-26 15:51:00,89.62104,26.78603,1003.979,272.48,97.0,6.9,-12.92,4.28,147.03,80.56,61.85,301.16,312.74,79.89,65.97,300.65,312.34,0.0
2018-08-26 15:51:00,89.62104,26.78597,1003.965,272.48,97.0,7.1,-13.12,4.55,147.75,79.84,61.71,301.35,313.02,79.29,65.94,300.65,312.34,0.0
2018-08-26 15:51:00,89.62104,26.78591,1003.958,272.48,97.0,7.1,-13.37,4.91,148.45,80.69,62.06,301.06,312.82,78.69,65.88,300.65,312.32,0.0
2018-08-26 15:51:00,89.62104,26.78584,1003.948,272.48,97.0,7.2,-13.64,5.11,149.27,81.02,62.13,300.98,313.02,78.17,65.78,300.66,312.3,0.0
2018-08-26 15:51:00,89.62104,26.78578,1003.948,272.48,97.0,7.2,-13.48,5.36,150.1,80.3,62.2,301.17,312.95,77.77,65.65,300.68,312.26,0.0
2018-08-26 15:51:00,89.62104,26.78572,1003.949,272.48,97.0,7.2,-13.16,5.64,151.06,79.71,62.27,300.88,312.65,77.54,65.52,300.69,312.22,0.0
2018-08-26 15:51:00,89.62104,26.78566,1003.943,272.47,97.0,7.2,-12.58,5.84,152.13,80.37,62.34,301.15,312.65,77.51,65.38,300.7,312.18,0.0
2018-08-26 15:51:00,89.62104,26.78561,1003.932,272.47,97.0,7.3,-11.81,5.97,153.31,80.37,62.2,300.87,313.14,77.69,65.25,300.7,312.15,0.0
2018-08-26 15:51:00,89.62104,26.78558,1003.926,272.47,97.0,7.4,-11.27,6.18,154.46,78.99,62.34,300.96,312.92,78.07,65.15,300.69,312.12,0.0
2018-08-26 15:51:00,89.62104,26.78555,1003.922,272.47,97.0,7.4,-9.96,6.29,155.52,78.86,62.68,300.96,312.94,78.59,65.08,300.68,312.09,0.0
2018-08-26 15:51:00,89.62103,26.78552,1003.913,272.47,97.0,7.5,-9.61,6.35,156.64,80.1,62.47,301.06,312.84,79.2,65.05,300.65,312.07,0.0
2018-08-26 15:51:00,89.62103,26.78549,1003.91,272.47,97.0,7.5,-9.05,6.43,157.73,79.91,62.68,301.16,312.74,79.84,65.06,300.62,312.06,0.0
2018-08-26 15:51:00,89.62103,26.78546,1003.912,272.48,97.0,7.5,-8.54,6.55,158.79,79.71,62.68,300.88,312.94,80.44,65.11,300.59,312.05,0.0
2018-08-26 15:51:00,89.62103,26.78542,1003.902,272.48,97.0,7.6,-8.83,6.64,159.83,79.97,62.68,300.86,312.64,80.95,65.2,300.58,312.05,0.0
2018-08-26 15:51:00,89.62103,26.78539,1003.906,272.48,97.0,7.5,-8.21,6.6,160.74,79.32,62.75,300.86,312.93,81.35,65.33,300.64,312.05,0.0
2018-08-26 15:51:00,89.62103,26.78536,1003.905,272.48,97.0,7.5,-8.11,6.47,161.61,80.5,62.89,300.87,312.44,81.62,65.49,300.63,312.05,0.0
2018-08-26 15:51:00,89.62103,26.78533,1003.89,272.48,97.0,7.6,-8.34,6.23,162.51,80.17,63.1,300.88,312.74,81.77,65.66,300.62,312.04,0.0
2018-08-26 15:51:00,89.62103,26.7853,1003.88,272.48,97.0,7.7,-8.27,6.07,163.37,80.17,62.82,300.79,312.55,81.84,65.83,300.62,312.03,0.0
2018-08-26 15:51:00,89.62103,26.78527,1003.9,272.48,97.0,7.6,-7.78,6.04,164.14,79.97,63.23,301.26,312.94,81.86,65.99,300.64,312.01,0.0
2018-08-26 15:51:00,89.62103,26.78521,1003.879,272.48,96.9,7.7,-8.38,5.79,165.05,81.09,62.96,302.05,312.65,81.86,66.12,300.67,311.99,0.0
2018-08-26 15:51:00,89.62103,26.78515,1003.862,272.48,96.9,7.9,-7.59,5.78,165.71,79.78,63.1,300.75,312.44,81.88,66.21,300.71,311.97,0.0
2018-08-26 15:51:00,89.62103,26.7851,1003.851,272.47,96.9,8.0,-7.66,5.66,166.4,80.1,63.3,300.79,312.55,81.91,66.26,300.77,311.95,0.0
2018-08-26 15:51:00,89.62103,26.78504,1003.839,272.47,96.9,8.0,-7.77,5.58,167.09,79.65,63.37,300.97,312.74,81.94,66.25,300.83,311.94,0.0
2018-08-26 15:51:00,89.62104,26.78498,1003.827,272.47,96.9,8.1,-7.54,5.57,167.73,80.56,63.51,300.78,312.65,81.94,66.19,300.9,311.94,0.0
2018-08-26 15:51:00,89.62104,26.78492,1003.832,272.47,96.9,8.1,-7.22,5.54,168.35,79.78,63.58,300.78,312.45,81.87,66.1,300.95,311.95,0.0
2018-08-26 15:51:00,89.62104,26.78486,1003.815,272.47,96.9,8.2,-7.16,5.5,169.09,80.37,63.79,300.87,312.44,81.69,65.98,300.92,311.97,0.0
2018-08-26 15:51:00,89.62104,26.78481,1003.817,272.46,96.9,8.2,-6.7,5.75,169.74,81.35,63.65,300.88,312.25,81.37,65.86,300.94,311.99,0.0
2018-08-26 15:51:00,89.62104,26.78475,1003.805,272.46,96.9,8.3,-6.41,5.91,170.42,79.84,63.92,300.78,312.74,80.92,65.76,300.95,312.02,0.0
2018-08-26 15:51:00,89.62104,26.78469,1003.782,272.47,96.9,8.5,-6.08,6.02,171.11,80.89,63.58,300.87,312.45,80.34,65.69,300.94,312.03,0.0
2018-08-26 15:51:00,89.62104,26.78463,1003.78,272.46,96.9,8.5,-5.44,6.2,171.76,80.5,63.79,300.87,312.64,79.68,65.67,300.89,312.03,0.0
2018-08-26 15:51:00,89.62104,26.78457,1003.781,272.47,96.9,8.5,-5.21,6.18,172.48,81.41,63.79,300.78,312.65,79.01,65.7,300.82,312.01,0.0
2018-08-26 15:51:00,89.62104,26.78455,1003.764,272.47,96.9,8.6,-4.52,6.29,173.07,80.04,63.58,300.87,312.26,78.41,65.78,300.73,311.98,0.0
2018-08-26 15:51:00,89.62104,26.78454,1003.752,272.47,96.9,8.7,-4.18,6.29,173.69,80.24,63.92,300.68,312.44,77.95,65.9,300.63,311.92,0.0
2018-08-26 15:51:00,89.62104,26.78453,1003.752,272.47,96.9,8.7,-3.94,6.22,174.3,80.63,63.92,300.96,312.35,77.69,66.05,300.53,311.85,0.0
2018-08-26 15:51:00,89.62104,26.78452,1003.761,272.47,96.9,8.7,-3.61,6.13,174.91,79.25,64.13,300.97,312.36,77.68,66.19,300.45,311.77,0.0
2018-08-26 15:51:00,89.62104,26.78452,1003.768,272.47,96.9,8.6,-3.14,5.96,175.56,80.43,64.13,300.88,312.64,77.9,66.33,300.4,311.71,0.0
2018-08-26 15:51:00,89.62104,26.78451,1003.773,272.46,96.9,8.6,-2.81,5.97,176.13,79.65,64.2,300.88,312.35,78.33,66.42,300.37,311.67,0.0
2018-08-26 15:51:00,89.62104,26.7845,1003.737,272.47,96.9,8.9,-2.73,5.68,176.75,79.25,64.06,300.98,312.45,78.91,66.47,300.37,311.65,0.0
2018-08-26 15:51:00,89.62104,26.78449,1003.706,272.47,96.9,9.1,-2.63,5.53,177.37,79.78,64.34,300.98,312.45,79.54,66.46,300.39,311.67,0.0
2018-08-26 15:51:00,89.62104,26.78448,1003.693,272.47,96.9,9.2,-2.49,5.45,177.98,80.37,64.2,300.88,312.64,80.15,66.4,300.42,311.7,0.0
2018-08-26 15:51:00,89.62104,26.78447,1003.673,272.47,96.9,9.4,-2.48,5.18,178.56,79.97,64.41,301.15,312.16,80.67,66.29,300.46,311.74,0.0
2018-08-26 15:51:00,89.62104,26.78446,1003.675,272.47,96.9,9.3,-2.49,5.06,179.15,79.84,64.62,300.88,312.54,81.03,66.14,300.49,311.72,0.0
2018-08-26 15:51:00,89.62104,26.78446,1003.681,272.47,96.9,9.3,-2.36,4.91,179.71,80.96,64.55,300.69,312.16,81.23,65.98,300.49,311.76,0.0
2018-08-26 15:51:00,89.62104,26.78445,1003.678,272.47,96.9,9.3,-2.41,4.96,-8.8,79.78,64.55,300.79,312.26,81.27,65.82,300.48,311.79,0.0
2018-08-26 15:51:00,89.62104,26.78444,1003.666,272.46,96.9,9.4,-2.32,5.08,-179.07,80.37,64.41,300.88,312.55,81.2,65.69,300.44,311.79,0.0
2018-08-26 15:51:00,89.62104,26.78443,1003.65,272.47,96.9,9.5,-1.88,5.1,-178.48,79.65,64.62,300.68,311.9,81.08,65.58,300.38,311.76,0.0
2018-08-26 15:51:00,89.62104,26.78442,1003.624,272.46,96.9,9.7,-1.3,5.07,-177.85,79.58,64.34,300.49,311.29,80.97,65.52,300.31,311.7,0.0
2018-08-26 15:51:00,89.62104,26.78426,1003.65,272.46,96.8,9.5,-1.44,5.25,-177.05,81.41,64.48,300.3,311.81,80.93,65.5,300.23,311.63,0.0
2018-08-26 15:51:00,89.62104,26.7841,1003.635,272.46,96.8,9.7,-0.29,5.59,-176.41,80.82,64.62,300.5,312.17,80.99,65.53,300.19,311.56,0.0
2018-08-26 15:51:00,89.62104,26.78395,1003.618,272.46,96.8,9.8,-0.24,5.36,-175.74,79.39,64.82,300.6,312.13,81.15,65.6,300.17,311.5,0.0
2018-08-26 15:51:00,89.62104,26.78379,1003.626,272.47,96.8,9.7,-1.29,4.92,-175.03,80.1,64.62,300.78,312.1,81.39,65.71,300.16,311.45,0.0
2018-08-26 15:51:00,89.62104,26.78364,1003.606,272.47,96.8,9.9,-1.22,5.46,-174.49,80.17,64.62,300.68,312.13,81.65,65.83,300.19,311.43,0.0
2018-08-26 15:51:00,89.62104,26.78348,1003.618,272.47,96.8,9.8,-1.84,5.16,-173.95,80.04,64.69,300.59,312.16,81.86,65.97,300.24,311.54,0.0
2018-08-26 15:51:00,89.62104,26.78333,1003.599,272.47,96.8,9.9,-1.52,5.28,-173.41,80.04,64.82,300.98,312.27,81.96,66.1,300.31,311.62,0.0
2018-08-26 15:51:00,89.62104,26.78317,1003.57,272.47,96.8,10.2,-1.11,5.29,-172.97,80.1,64.82,300.82,312.27,81.89,66.23,300.38,311.71,0.0
2018-08-26 15:51:00,89.62104,26.78301,1003.552,272.47,96.8,10.3,-0.75,5.08,-172.58,80.82,64.82,300.62,311.91,81.63,66.33,300.45,311.8,0.0
2018-08-26 15:51:00,89.62104,26.78288,1003.567,272.47,96.8,10.2,-0.47,4.8,-172.16,81.15,64.62,300.56,311.94,81.19,66.41,300.51,311.9,0.0
2018-08-26 15:51:00,89.62104,26.78276,1003.557,272.47,96.8,10.3,-1.45,4.3,-171.94,80.89,64.76,300.5,312.06,80.61,66.46,300.55,312.01,0.0
2018-08-26 15:51:00,89.62104,26.78264,1003.561,272.47,96.8,10.2,-0.96,4.38,-171.79,80.76,65.03,300.59,312.07,79.96,66.47,300.56,312.05,0.0
2018-08-26 15:51:00,89.62104,26.78253,1003.553,272.47,96.8,10.3,-0.19,4.24,-171.64,81.09,65.1,300.68,312.07,79.34,66.44,300.53,312.1,0.0
2018-08-26 15:51:00,89.62104,26.78241,1003.537,272.47,96.8,10.4,0.54,4.2,-171.62,79.45,65.03,300.68,311.96,78.83,66.39,300.49,312.09,0.0
2018-08-26 15:51:00,89.62104,26.7823,1003.522,272.47,96.8,10.6,0.99,4.35,-171.77,80.04,65.17,300.77,312.76,78.52,66.3,300.45,312.05,0.0
2018-08-26 15:51:00,89.62104,26.78218,1003.502,272.47,96.8,10.7,1.08,4.26,-172.05,81.15,65.03,300.48,312.57,78.46,66.2,300.42,312.01,0.0
2018-08-26 15:51:00,89.62104,26.78207,1003.51,272.47,96.8,10.7,2.44,4.36,-172.53,79.58,65.24,300.79,312.06,78.68,66.09,300.47,311.94,0.0
2018-08-26 15:51:00,89.62104,26.78195,1003.506,272.47,96.8,10.7,3.91,4.67,-173.08,79.97,65.17,300.6,312.51,79.17,65.98,300.47,311.87,0.0
2018-08-26 15:51:00,89.62105,26.78183,1003.509,272.47,96.8,10.7,5.45,4.9,-173.62,80.24,65.1,300.78,312.58,79.86,65.89,300.45,311.83,0.0
2018-08-26 15:51:00,89.62105,26.78172,1003.519,272.47,96.8,10.6,6.45,4.95,-174.22,80.56,65.03,300.61,311.98,80.69,65.83,300.44,311.8,0.0
2018-08-26 15:51:00,89.62105,26.7816,1003.509,272.47,96.8,10.7,6.12,4.94,-174.98,79.39,65.1,300.82,312.07,81.56,65.8,300.43,311.79,0.0
2018-08-26 15:51:00,89.62105,26.78153,1003.464,272.48,96.8,11.0,6.41,5.73,-175.51,79.58,65.17,301.47,312.18,82.39,65.83,300.42,311.75,0.0
2018-08-26 15:51:00,89.62105,26.78147,1003.471,272.48,96.8,11.0,7.21,5.73,-176.57,80.5,65.31,300.76,312.17,83.09,65.89,300.4,311.73,0.0
2018-08-26 15:51:00,89.62105,26.78142,1003.483,272.48,96.8,10.9,8.44,5.82,-177.72,80.04,65.24,300.5,312.17,83.6,65.99,300.38,311.69,0.0
2018-08-26 15:51:00,89.62105,26.78136,1003.484,272.49,96.8,10.9,9.36,6.19,-178.68,81.28,65.17,300.78,312.36,83.89,66.13,300.34,311.66,0.0
2018-08-26 15:51:00,89.62105,26.7813,1003.477,272.5,96.8,10.9,9.75,6.69,-136.72,81.48,65.38,300.41,312.07,83.95,66.27,300.3,311.64,0.0
2018-08-26 15:51:00,89.62105,26.78124,1003.458,272.49,96.8,11.1,11.25,6.78,153.83,80.96,65.17,300.41,311.98,83.8,66.42,300.24,311.58,0.0
2018-08-26 15:51:00,89.62105,26.78119,1003.454,272.5,96.8,11.1,10.43,7.17,177.64,81.02,65.24,300.51,311.24,83.48,66.54,300.09,311.61,0.0
2018-08-26 15:51:00,89.62105,26.78113,1003.449,272.49,96.8,11.1,11.86,7.67,176.04,80.5,65.24,300.32,311.71,83.03,66.63,300.03,311.6,0.0
2018-08-26 15:51:00,89.62105,26.78107,1003.44,272.49,96.8,11.2,13.41,7.92,174.3,80.56,65.38,300.59,311.87,82.5,66.68,300.04,311.63,0.0
2018-08-26 15:51:00,89.62105,26.78102,1003.426,272.5,96.8,11.3,13.42,7.83,172.55,79.84,65.58,300.59,311.9,81.95,66.67,300.07,311.67,0.0
2018-08-26 15:51:00,89.62105,26.78096,1003.416,272.5,96.8,11.4,12.01,7.58,170.56,82.07,65.52,300.31,311.38,81.41,66.63,300.07,311.66,0.0
2018-08-26 15:51:00,89.62106,26.7809,1003.427,272.5,96.8,11.3,12.28,8.29,168.92,80.24,65.58,300.35,312.64,80.93,66.53,300.01,311.58,0.0
2018-08-26 15:51:00,89.62106,26.78084,1003.416,272.51,96.8,11.4,13.54,8.81,167.12,82.13,65.52,300.55,312.15,80.51,66.41,300.09,311.74,0.0
2018-08-26 15:51:00,89.62106,26.78078,1003.398,272.51,96.8,11.5,12.46,8.87,165.26,80.43,65.58,300.69,312.25,80.2,66.28,300.16,311.86,0.0
2018-08-26 15:51:00,89.62106,26.78071,1003.388,272.5,96.8,11.6,9.81,8.42,163.33,80.82,65.45,300.77,312.47,79.98,66.14,300.19,311.89,0.0
2018-08-26 15:51:00,89.62106,26.78065,1003.393,272.5,96.8,11.6,8.03,7.83,161.48,81.41,65.58,300.38,311.84,79.89,66.01,300.21,311.94,0.0
2018-08-26 15:51:00,89.62106,26.78058,1003.378,272.5,96.8,11.7,9.07,9.3,160.39,81.02,65.58,299.41,310.8,79.9,65.9,300.21,312.01,0.0
2018-08-26 15:51:00,89.62106,26.78052,1003.386,272.5,96.8,11.6,10.32,9.8,159.13,80.63,65.58,300.86,312.77,80.03,65.81,300.15,312.06,0.0
2018-08-26 15:51:00,89.62106,26.78046,1003.395,272.5,96.8,11.6,9.24,10.09,157.76,80.82,65.52,300.62,312.6,80.27,65.76,300.01,312.03,0.0
2018-08-26 15:51:00,89.62106,26.78039,1003.386,272.5,96.8,11.6,8.04,10.12,156.3,79.91,65.52,300.31,311.88,80.59,65.72,299.88,311.95,0.0
2018-08-26 15:51:00,89.62106,26.78033,1003.35,272.49,96.8,11.9,8.47,10.11,154.79,80.04,65.65,300.69,311.97,80.96,65.72,299.83,311.89,0.0
2018-08-26 15:51:00,89.62106,26.78026,1003.364,272.49,96.8,11.8,9.21,11.02,153.19,81.09,65.58,300.56,312.1,81.37,65.73,299.81,311.89,0.0
2018-08-26 15:51:00,89.62106,26.7802,1003.356,272.49,96.8,11.9,6.89,9.55,151.65,80.63,65.58,299.56,312.93,81.76,65.75,299.73,312.0,0.0
2018-08-26 15:51:00,89.62106,26.78013,1003.325,272.48,96.8,12.1,7.27,9.53,150.1,81.15,65.72,299.08,311.92,82.1,65.78,299.66,311.91,0.0
2018-08-26 15:51:00,89.62106,26.78007,1003.309,272.48,96.8,12.2,6.82,9.53,149.17,81.02,65.45,299.54,311.63,82.35,65.82,299.65,311.87,0.0
2018-08-26 15:51:00,89.62106,26.78003,1003.311,272.48,96.8,12.2,5.58,9.12,148.64,81.74,65.58,300.14,311.78,82.5,65.86,299.7,311.91,0.0
2018-08-26 15:51:00,89.62106,26.77998,1003.274,272.48,96.8,12.5,5.93,8.92,147.94,80.63,65.58,300.1,311.99,82.52,65.91,299.76,311.95,0.0
2018-08-26 15:51:00,89.62106,26.77993,1003.292,272.47,96.8,12.4,3.06,9.56,147.72,81.22,65.58,298.61,312.37,82.4,65.96,299.83,312.0,0.0
2018-08-26 15:51:00,89.62106,26.77988,1003.291,272.47,96.8,12.4,4.82,10.08,146.83,80.24,65.58,299.85,312.01,82.18,66.02,299.97,311.95,0.0
2018-08-26 15:51:00,89.62106,26.77984,1003.297,272.47,96.8,12.3,5.8,10.76,146.18,81.02,65.65,300.52,311.76,81.86,66.09,300.16,312.0,0.0
2018-08-26 15:51:00,89.62106,26.77979,1003.304,272.48,96.8,12.3,5.49,10.95,145.66,82.0,65.79,300.33,311.96,81.49,66.16,300.3,312.05,0.0
2018-08-26 15:51:00,89.62106,26.77974,1003.292,272.47,96.8,12.4,4.57,10.32,145.1,80.76,65.58,300.51,311.75,81.09,66.23,300.34,312.02,0.0
2018-08-26 15:51:00,89.62106,26.7797,1003.269,272.47,96.8,12.6,3.48,10.38,144.88,80.96,65.58,300.05,311.76,80.72,66.29,300.38,311.97,0.0
2018-08-26 15:51:00,89.62106,26.77965,1003.258,272.48,96.8,12.6,3.53,9.96,144.67,80.96,65.79,300.51,311.87,80.41,66.35,300.51,311.88,0.0
2018-08-26 15:51:00,89.62106,26.7796,1003.252,272.48,96.8,12.7,2.1,9.34,144.54,81.02,65.79,300.25,312.21,80.17,66.4,300.53,311.8,0.0
2018-08-26 15:51:00,89.62106,26.77955,1003.247,272.48,96.8,12.7,1.38,9.01,144.39,81.09,65.58,300.34,312.02,80.02,66.42,300.52,311.71,0.0
2018-08-26 15:51:00,89.62106,26.77951,1003.239,272.48,96.8,12.8,1.97,9.13,144.23,81.02,65.72,300.33,311.78,79.98,66.43,300.5,311.63,0.0
2018-08-26 15:51:00,89.62106,26.77946,1003.247,272.48,96.8,12.7,1.43,9.26,144.2,81.81,65.79,300.5,311.97,80.04,66.43,300.49,311.57,0.0
2018-08-26 15:51:00,89.62106,26.77941,1003.23,272.48,96.8,12.9,0.96,8.31,144.27,81.02,65.79,299.87,311.88,80.18,66.41,300.48,311.53,0.0
2018-08-26 15:51:00,89.62106,26.77936,1003.231,272.48,96.8,12.9,-0.53,8.5,144.94,79.97,65.79,300.08,311.97,80.4,66.38,300.47,311.52,0.0
2018-08-26 15:51:00,89.62106,26.77931,1003.233,272.48,96.8,12.8,0.82,8.36,145.3,80.43,65.86,300.33,311.88,80.69,66.36,300.48,311.53,0.0
2018-08-26 15:51:00,89.62106,26.77922,1003.228,272.48,96.8,12.9,2.62,7.93,145.49,80.96,65.93,300.61,311.78,81.02,66.33,300.49,311.55,0.0
2018-08-26 15:51:00,89.62106,26.77912,1003.222,272.48,96.8,12.9,0.74,7.83,146.0,80.89,65.72,300.61,312.07,81.39,66.31,300.51,311.61,0.0
2018-08-26 15:51:00,89.62106,26.77903,1003.201,272.47,96.7,13.1,-0.87,7.45,146.45,80.96,65.86,300.61,311.97,81.76,66.3,300.53,311.66,0.0
2018-08-26 15:51:00,89.62106,26.77894,1003.195,272.47,96.7,13.1,-1.83,7.14,147.14,81.48,65.86,300.52,311.89,82.14,66.29,300.6,311.72,0.0
2018-08-26 15:51:00,89.62106,26.77885,1003.192,272.47,96.7,13.2,-2.64,6.8,147.89,80.04,65.93,300.52,311.98,82.5,66.28,300.63,311.75,0.0
2018-08-26 15:51:00,89.62106,26.77875,1003.197,272.47,96.7,13.1,-3.47,6.67,148.74,81.35,65.93,300.52,311.87,82.83,66.26,300.63,311.77,0.0
2018-08-26 15:51:00,89.62106,26.77866,1003.209,272.46,96.7,13.0,-4.2,6.73,149.64,81.15,65.86,300.61,311.88,83.11,66.23,300.63,311.77,0.0
2018-08-26 15:51:00,89.62106,26.77857,1003.2,272.47,96.7,13.1,-4.38,6.11,150.38,81.22,65.72,300.33,311.88,83.32,66.18,300.61,311.75,0.0
2018-08-26 15:51:00,89.62106,26.77848,1003.193,272.46,96.7,13.2,-3.91,5.76,151.27,82.4,65.93,300.52,311.53,83.46,66.12,300.58,311.71,0.0
2018-08-26 15:51:00,89.62106,26.77841,1003.194,272.46,96.7,13.1,-4.05,5.19,152.22,80.82,66.0,300.24,311.51,83.52,66.04,300.54,311.67,0.0
2018-08-26 15:51:00,89.62106,26.77834,1003.187,272.46,96.7,13.2,-4.27,4.79,153.18,80.96,65.79,300.61,311.59,83.5,65.95,300.49,311.64,0.0
2018-08-26 15:51:00,89.62106,26.77828,1003.172,272.46,96.7,13.3,-4.5,4.78,154.19,80.17,66.07,300.33,311.88,83.39,65.86,300.45,311.62,0.0
2018-08-26 15:51:00,89.62106,26.77822,1003.184,272.46,96.7,13.2,-4.9,5.16,155.3,81.74,65.86,300.43,312.07,83.2,65.79,300.4,311.62,0.0
2018-08-26 15:51:00,89.62106,26.77815,1003.166,272.45,96.7,13.4,-3.31,4.94,156.22,82.4,65.93,300.61,311.88,82.94,65.72,300.37,311.63,0.0
2018-08-26 15:51:00,89.62106,26.77809,1003.154,272.45,96.7,13.5,-4.58,5.34,157.44,80.82,66.0,300.52,311.88,82.63,65.69,300.35,311.66,0.0
2018-08-26 15:51:00,89.62106,26.77803,1003.164,272.45,96.7,13.4,-5.23,4.98,158.34,82.79,66.0,300.33,311.69,82.28,65.69,300.34,311.69,0.0
2018-08-26 15:51:00,89.62106,26.77796,1003.175,272.45,96.7,13.3,-5.86,4.43,159.2,80.04,65.86,300.52,311.79,81.9,65.72,300.35,311.74,0.0
2018-08-26 15:51:00,89.62106,26.7779,1003.131,272.44,96.7,13.6,-7.98,4.7,160.4,82.72,65.58,300.33,311.68,81.51,65.77,300.36,311.78,0.0
2018-08-26 15:51:00,89.62106,26.77784,1003.151,272.45,96.7,13.5,-10.02,4.92,161.55,82.26,66.07,300.33,311.68,81.13,65.85,300.37,311.82,0.0
2018-08-26 15:51:00,89.62106,26.77777,1003.15,272.44,96.7,13.5,-9.07,5.62,162.27,80.82,65.58,300.51,311.78,80.76,65.94,300.39,311.86,0.0
2018-08-26 15:51:00,89.62106,26.77771,1003.132,272.44,96.7,13.6,-9.55,6.23,163.12,82.0,66.0,300.33,311.88,80.41,66.03,300.41,311.88,0.0
2018-08-26 15:51:00,89.62106,26.77768,1003.105,272.44,96.7,13.9,-9.09,6.93,163.89,81.09,65.58,300.33,311.88,80.1,66.11,300.42,311.9,0.0
2018-08-26 15:51:00,89.62106,26.77767,1003.077,272.43,96.7,14.1,-7.16,7.56,164.49,80.69,66.0,300.61,311.78,79.85,66.18,300.43,311.92,0.0
2018-08-26 15:51:00,89.62106,26.77765,1003.066,272.43,96.6,14.2,-7.51,7.39,165.3,80.56,66.07,300.33,311.97,79.65,66.23,300.43,311.94,0.0
2018-08-26 15:51:00,89.62106,26.77764,1003.043,272.43,96.6,14.3,-5.89,8.11,165.83,81.81,66.0,300.61,311.78,79.54,66.26,300.42,311.95,0.0
2018-08-26 15:51:00,89.62106,26.77762,1003.039,272.43,96.6,14.4,-5.86,8.21,166.35,82.2,66.0,300.61,311.97,79.51,66.28,300.41,311.96,0.0
2018-08-26 15:51:00,89.62107,26.77761,1003.049,272.43,96.6,14.3,-5.8,8.44,166.58,81.15,66.07,300.33,311.88,79.57,66.3,300.4,311.96,0.0
2018-08-26 15:51:00,89.62107,26.77759,1003.059,272.43,96.6,14.2,-5.28,8.71,166.57,81.02,65.86,300.33,311.79,79.74,66.3,300.38,311.96,0.0
2018-08-26 15:51:00,89.62107,26.77758,1003.041,272.43,96.6,14.4,-4.55,8.51,166.52,81.02,65.72,300.42,311.77,79.99,66.31,300.36,311.94,0.0
2018-08-26 15:51:00,89.62107,26.77756,1003.048,272.43,96.6,14.3,-4.86,8.48,166.41,81.94,65.86,300.51,311.68,80.33,66.32,300.33,311.9,0.0
2018-08-26 15:51:00,89.62107,26.77755,1003.042,272.43,96.6,14.3,-4.07,8.41,166.34,80.76,66.0,300.42,311.88,80.72,66.34,300.31,311.85,0.0
2018-08-26 15:51:00,89.62107,26.77754,1003.031,272.43,96.6,14.4,-4.07,8.24,166.2,80.43,66.07,300.61,311.7,81.16,66.35,300.28,311.79,0.0
2018-08-26 15:51:00,89.62107,26.77752,1003.012,272.44,96.6,14.6,-4.32,7.93,165.98,80.43,66.0,300.43,311.99,81.62,66.37,300.25,311.73,0.0
2018-08-26 15:51:00,89.62107,26.77752,1002.987,272.44,96.6,14.8,-4.01,7.53,165.72,81.35,65.93,300.42,311.89,82.06,66.39,300.23,311.67,0.0
2018-08-26 15:51:00,89.62107,26.77757,1003.007,272.44,96.6,14.6,-4.43,7.22,165.4,81.02,66.07,300.42,311.78,82.46,66.39,300.21,311.62,0.0
2018-08-26 15:51:00,89.62107,26.77761,1002.997,272.44,96.6,14.7,-4.57,7.31,164.93,81.15,66.0,300.33,311.78,82.8,66.4,300.19,311.59,0.0
2018-08-26 15:51:00,89.62107,26.77766,1002.996,272.43,96.6,14.7,-4.3,6.76,164.38,81.94,66.0,300.61,311.99,83.05,66.4,300.18,311.59,0.0
2018-08-26 15:51:00,89.62107,26.7777,1002.98,272.43,96.6,14.8,-4.59,6.58,163.84,81.54,66.07,300.43,311.79,83.22,66.39,300.18,311.6,0.0
2018-08-26 15:51:00,89.62107,26.77774,1002.948,272.44,96.6,15.1,-5.2,6.85,163.25,81.28,66.21,300.33,311.88,83.28,66.38,300.23,311.67,0.0
2018-08-26 15:51:00,89.62107,26.77779,1002.972,272.43,96.6,14.9,-4.89,6.78,162.42,80.89,65.93,300.33,311.79,83.25,66.38,300.37,311.79,0.0
2018-08-26 15:51:00,89.62107,26.77783,1002.943,272.43,96.6,15.1,-5.04,6.98,161.53,81.54,66.14,300.33,311.78,83.12,66.37,300.4,311.84,0.0
2018-08-26 15:51:00,89.62107,26.77787,1002.933,272.43,96.6,15.2,-5.65,6.58,160.64,82.07,66.07,300.33,311.97,82.89,66.37,300.42,311.87,0.0
2018-08-26 15:51:00,89.62108,26.77792,1002.919,272.43,96.6,15.3,-6.24,6.49,159.64,81.22,66.0,300.52,311.88,82.59,66.36,300.44,311.9,0.0
2018-08-26 15:51:00,89.62108,26.77796,1002.902,272.43,96.6,15.5,-6.53,6.51,158.57,82.13,66.0,300.72,312.11,82.21,66.35,300.46,311.9,0.0
2018-08-26 15:51:00,89.62108,26.778,1002.9,272.43,96.6,15.5,-6.33,6.18,157.53,81.22,66.0,301.65,312.38,81.79,66.33,300.49,311.89,0.0
2018-08-26 15:51:00,89.62108,26.77805,1002.904,272.43,96.6,15.4,-6.03,6.48,156.32,81.22,66.14,300.44,311.91,81.32,66.29,300.51,311.87,0.0
2018-08-26 15:51:00,89.62108,26.7781,1002.902,272.43,96.6,15.5,-6.13,6.33,155.14,81.54,66.21,300.33,311.49,80.84,66.24,300.52,311.84,0.0
2018-08-26 15:51:00,89.62108,26.77814,1002.892,272.43,96.6,15.5,-5.88,6.37,153.91,81.94,66.21,300.32,311.69,80.36,66.17,300.54,311.82,0.0
2018-08-26 15:51:00,89.62108,26.77819,1002.887,272.43,96.6,15.6,-5.89,6.37,152.69,81.74,66.07,300.32,311.88,79.9,66.08,300.56,311.81,0.0
2018-08-26 15:51:00,89.62108,26.77823,1002.893,272.43,96.6,15.5,-6.49,6.21,151.53,81.81,66.07,300.24,311.88,79.5,65.98,300.54,311.79,0.0
2018-08-26 15:51:00,89.62108,26.77828,1002.869,272.43,96.6,15.7,-7.21,6.24,150.29,80.63,66.14,300.33,311.88,79.17,65.88,300.44,311.73,0.0
2018-08-26 15:51:00,89.62108,26.77833,1002.871,272.43,96.6,15.7,-6.81,6.02,149.0,80.63,66.14,300.24,311.49,78.93,65.8,300.44,311.76,0.0
2018-08-26 15:51:00,89.62108,26.77837,1002.852,272.43,96.6,15.9,-7.42,5.81,147.87,82.4,66.07,300.43,311.88,78.8,65.73,300.46,311.8,0.0
2018-08-26 15:51:00,89.62108,26.77842,1002.845,272.43,96.6,15.9,-7.71,5.55,146.78,81.02,66.0,300.43,311.88,78.8,65.69,300.47,311.84,0.0
2018-08-26 15:51:00,89.62108,26.77846,1002.861,272.43,96.6,15.8,-7.51,5.23,145.76,81.54,66.21,300.61,311.49,78.92,65.67,300.46,311.87,0.0
2018-08-26 15:51:00,89.62108,26.77851,1002.866,272.43,96.6,15.7,-7.55,4.88,144.86,80.76,66.0,300.43,311.97,79.17,65.68,300.45,311.89,0.0
2018-08-26 15:51:00,89.62108,26.77856,1002.86,272.42,96.6,15.8,-7.85,4.87,144.06,81.15,65.86,300.33,311.88,79.53,65.71,300.42,311.89,0.0
2018-08-26 15:51:00,89.62108,26.7786,1002.842,272.43,96.6,15.9,-7.59,4.66,143.36,79.84,66.0,300.33,311.89,79.99,65.76,300.39,311.87,0.0
2018-08-26 15:51:00,89.62108,26.77865,1002.823,272.43,96.6,16.1,-7.44,4.68,142.7,80.96,66.07,300.52,311.6,80.51,65.81,300.35,311.85,0.0
2018-08-26 15:51:00,89.62108,26.7787,1002.805,272.42,96.6,16.2,-7.24,4.58,142.13,80.63,66.0,300.43,311.79,81.07,65.85,300.31,311.83,0.0
2018-08-26 15:51:00,89.62108,26.77874,1002.79,272.42,96.6,16.3,-7.05,4.13,141.66,81.41,66.0,300.43,311.68,81.63,65.88,300.27,311.81,0.0
2018-08-26 15:51:00,89.62108,26.77882,1002.803,272.42,96.6,16.2,-8.06,4.05,141.29,81.22,66.0,300.33,311.97,82.14,65.89,300.25,311.79,0.0
2018-08-26 15:51:00,89.62108,26.77891,1002.816,272.41,96.6,16.1,-7.82,3.91,140.95,81.15,66.07,300.52,311.98,82.58,65.88,300.24,311.79,0.0
2018-08-26 15:51:00,89.62108,26.779,1002.801,272.42,96.6,16.3,-8.31,3.79,140.84,80.24,66.07,300.33,311.89,82.91,65.87,300.23,311.8,0.0
2018-08-26 15:51:00,89.62108,26.77909,1002.788,272.42,96.6,16.4,-8.69,3.69,140.83,82.26,66.0,300.61,311.79,83.11,65.85,300.24,311.76,0.0
2018-08-26 15:51:00,89.62108,26.77918,1002.794,272.42,96.6,16.3,-8.88,3.67,140.89,81.35,66.07,300.33,311.78,83.17,65.84,300.27,311.71,0.0
2018-08-26 15:51:00,89.62108,26.77927,1002.769,272.41,96.6,16.5,-9.75,3.81,141.18,80.96,65.93,300.33,311.88,83.08,65.84,300.3,311.71,0.0
2018-08-26 15:51:00,89.62108,26.77936,1002.776,272.41,96.6,16.5,-9.48,3.85,141.56,80.96,66.07,300.52,311.89,82.87,65.86,300.33,311.71,0.0
2018-08-26 15:51:00,89.62108,26.77945,1002.777,272.41,96.6,16.4,-9.76,4.03,142.19,81.48,66.07,300.27,311.89,82.57,65.9,300.34,311.69,0.0
2018-08-26 15:51:00,89.62108,26.77954,1002.779,272.41,96.6,16.4,-9.83,4.17,142.99,80.82,65.79,300.14,311.02,82.22,65.95,300.34,311.66,0.0
2018-08-26 15:51:00,89.62108,26.77962,1002.781,272.41,96.6,16.4,-9.7,4.29,143.94,82.33,65.72,300.16,310.95,81.87,66.01,300.33,311.63,0.0
2018-08-26 15:51:00,89.62108,26.77969,1002.76,272.41,96.6,16.6,-9.84,4.48,145.04,81.81,66.07,300.24,311.88,81.56,66.07,300.3,311.59,0.0
2018-08-26 15:51:00,89.62109,26.77975,1002.727,272.41,96.6,16.8,-9.76,4.64,146.11,80.96,66.07,300.05,311.78,81.33,66.13,300.26,311.57,0.0
2018-08-26 15:51:00,89.62109,26.77982,1002.722,272.41,96.6,16.9,-9.69,4.5,147.3,81.48,66.0,300.33,311.89,81.21,66.16,300.21,311.55,0.0
2018-08-26 15:51:00,89.62109,26.77989,1002.732,272.41,96.6,16.8,-10.16,4.64,148.57,80.63,66.07,300.33,311.89,81.2,66.16,300.18,311.54,0.0
2018-08-26 15:51:00,89.62109,26.77996,1002.729,272.41,96.6,16.8,-10.41,4.81,149.9,81.81,66.0,300.33,311.7,81.3,66.14,300.16,311.58,0.0
2018-08-26 15:51:00,89.62109,26.78002,1002.703,272.41,96.6,17.0,-10.25,4.89,151.28,81.54,66.07,300.52,311.6,81.48,66.09,300.13,311.65,0.0
2018-08-26 15:51:00,89.62109,26.78009,1002.714,272.41,96.6,16.9,-10.86,5.2,152.8,81.48,66.07,300.33,311.97,81.67,66.03,300.12,311.65,0.0
2018-08-26 15:51:00,89.62109,26.78016,1002.701,272.4,96.6,17.0,-10.34,5.23,154.37,80.82,66.07,300.33,311.77,81.84,65.95,300.13,311.65,0.0
2018-08-26 15:51:00,89.62109,26.78022,1002.703,272.41,96.5,17.0,-10.52,5.52,155.97,81.48,66.07,300.33,311.68,81.91,65.88,300.15,311.64,0.0
2018-08-26 15:51:00,89.62109,26.78029,1002.695,272.41,96.5,17.1,-10.5,5.7,157.64,82.46,65.79,300.52,311.79,81.85,65.81,300.17,311.61,0.0
2018-08-26 15:51:00,89.62109,26.78036,1002.668,272.4,96.5,17.3,-10.21,5.73,159.32,80.43,66.07,300.24,311.69,81.61,65.76,300.2,311.57,0.0
2018-08-26 15:51:00,89.62109,26.78042,1002.652,272.4,96.5,17.4,-10.28,5.86,160.97,80.76,65.86,300.42,311.87,81.19,65.73,300.22,311.53,0.0
2018-08-26 15:51:00,89.62109,26.78049,1002.646,272.41,96.5,17.5,-10.51,5.85,162.54,81.28,66.0,300.22,311.59,80.61,65.72,300.23,311.55,0.0
2018-08-26 15:51:00,89.62109,26.78055,1002.658,272.41,96.5,17.4,-10.58,5.93,164.0,81.94,66.0,300.52,311.88,79.9,65.72,300.24,311.57,0.0
2018-08-26 15:51:00,89.62109,26.78062,1002.668,272.41,96.5,17.3,-10.93,5.99,165.43,82.26,65.86,300.61,311.6,79.12,65.74,300.14,311.61,0.0
2018-08-26 15:51:00,89.62109,26.78068,1002.669,272.41,96.5,17.3,-11.23,6.07,166.75,81.35,66.07,300.33,311.99,78.34,65.76,300.04,311.65,0.0
2018-08-26 15:51:00,89.62109,26.78075,1002.66,272.41,96.5,17.4,-11.25,6.23,167.93,82.07,66.07,300.43,311.91,77.63,65.79,300.03,311.68,0.0
2018-08-26 15:51:00,89.62109,26.78081,1002.658,272.41,96.5,17.4,-11.86,6.38,169.11,81.15,66.07,299.98,312.53,77.06,65.81,300.01,311.72,0.0
2018-08-26 15:51:00,89.62109,26.78088,1002.632,272.41,96.5,17.6,-11.74,6.44,170.12,80.17,65.93,300.25,312.24,76.68,65.84,300.0,311.77,0.0
2018-08-26 15:51:00,89.62109,26.78094,1002.623,272.4,96.5,17.7,-12.18,6.56,171.07,80.24,65.86,299.25,312.36,76.51,65.85,299.89,311.81,0.0
2018-08-26 15:51:00,89.62109,26.78101,1002.623,272.4,96.5,17.7,-12.65,6.7,171.93,80.56,65.65,299.61,312.03,76.56,65.87,299.77,311.77,0.0
2018-08-26 15:51:00,89.62109,26.78107,1002.618,272.4,96.5,17.7,-12.91,6.85,172.67,80.76,66.0,300.05,311.51,76.79,65.89,299.69,311.69,0.0
2018-08-26 15:51:00,89.62109,26.78114,1002.617,272.4,96.5,17.7,-13.24,7.14,173.36,80.69,66.0,300.24,311.9,77.19,65.91,299.69,311.68,0.0
2018-08-26 15:51:00,89.62109,26.7812,1002.616,272.39,96.5,17.7,-13.01,7.25,173.93,79.97,66.0,300.33,311.5,77.68,65.94,299.69,311.6,0.0
2018-08-26 15:51:00,89.62109,26.78128,1002.624,272.4,96.5,17.7,-13.01,7.3,174.44,80.04,66.07,299.35,311.88,78.23,65.98,299.69,311.52,0.0
2018-08-26 15:51:00,89.62109,26.78136,1002.622,272.4,96.5,17.7,-13.12,7.36,174.8,80.43,66.0,298.75,310.72,78.77,66.02,299.79,311.43,0.0
2018-08-26 15:51:00,89.6211,26.78143,1002.608,272.4,96.5,17.8,-13.28,7.39,175.02,80.37,65.86,299.34,310.51,79.26,66.07,299.88,311.36,0.0
2018-08-26 15:51:00,89.6211,26.7815,1002.598,272.4,96.5,17.9,-13.41,7.32,175.12,80.3,65.79,300.33,311.51,79.66,66.12,299.9,311.35,0.0
2018-08-26 15:51:00,89.6211,26.78158,1002.58,272.4,96.5,18.0,-13.27,7.35,175.0,80.76,66.07,300.05,311.8,79.94,66.17,299.92,311.35,0.0
2018-08-26 15:51:00,89.6211,26.78165,1002.577,272.4,96.5,18.0,-13.32,7.28,174.8,79.97,65.79,300.23,311.31,80.11,66.22,299.95,311.37,0.0
2018-08-26 15:51:00,89.6211,26.78173,1002.573,272.4,96.5,18.1,-13.26,7.17,174.51,80.82,66.07,300.33,311.8,80.16,66.27,300.06,311.36,0.0
2018-08-26 15:51:00,89.6211,26.7818,1002.574,272.4,96.5,18.1,-13.17,7.01,174.15,80.69,66.07,300.33,311.9,80.09,66.32,300.21,311.45,0.0
2018-08-26 15:51:00,89.6211,26.78188,1002.582,272.41,96.5,18.0,-13.13,6.83,173.7,79.39,65.93,300.33,311.8,79.94,66.35,300.32,311.59,0.0
2018-08-26 15:51:00,89.6211,26.78195,1002.558,272.4,96.5,18.2,-13.13,6.69,173.2,80.04,66.07,300.43,311.71,79.72,66.38,300.35,311.64,0.0
2018-08-26 15:51:00,89.6211,26.78203,1002.568,272.41,96.5,18.1,-12.81,6.51,172.57,80.04,66.0,300.23,311.9,79.45,66.39,300.37,311.67,0.0
2018-08-26 15:51:00,89.6211,26.7821,1002.563,272.41,96.5,18.1,-12.88,6.47,171.85,81.48,65.93,300.26,311.05,79.17,66.39,300.38,311.69,0.0
2018-08-26 15:51:00,89.6211,26.78216,1002.549,272.41,96.5,18.3,-12.89,6.44,171.04,79.78,66.07,300.27,311.14,78.9,66.37,300.38,311.69,0.0
2018-08-26 15:51:00,89.6211,26.78221,1002.543,272.41,96.5,18.3,-12.93,6.35,170.2,79.91,65.93,300.32,311.8,78.66,66.33,300.37,311.68,0.0
2018-08-26 15:51:00,89.6211,26.78226,1002.563,272.42,96.5,18.1,-13.49,6.23,169.43,79.78,66.21,300.24,311.9,78.48,66.26,300.34,311.66,0.0
2018-08-26 15:51:00,89.6211,26.78232,1002.51,272.41,96.5,18.6,-13.71,6.16,168.61,80.89,66.07,300.33,311.51,78.37,66.17,300.32,311.64,0.0
2018-08-26 15:51:00,89.6211,26.78237,1002.53,272.41,96.5,18.4,-14.23,6.06,167.87,80.17,66.07,300.22,311.61,78.33,66.06,300.29,311.62,0.0
2018-08-26 15:51:00,89.6211,26.78242,1002.544,272.41,96.5,18.3,-14.26,5.98,167.03,79.32,66.0,300.32,311.9,78.37,65.93,300.27,311.65,0.0
2018-08-26 15:51:00,89.6211,26.78248,1002.532,272.41,96.5,18.4,-14.07,5.97,166.15,80.82,66.14,300.24,311.61,78.48,65.79,300.26,311.69,0.0
2018-08-26 15:51:00,89.6211,26.78253,1002.523,272.41,96.5,18.5,-14.13,6.04,165.26,79.65,66.0,300.24,311.9,78.64,65.67,300.25,311.7,0.0
2018-08-26 15:51:00,89.6211,26.78258,1002.523,272.41,96.5,18.5,-13.96,5.93,164.49,79.45,66.07,300.43,311.51,78.82,65.55,300.25,311.71,0.0
2018-08-26 15:51:00,89.6211,26.78264,1002.52,272.41,96.5,18.5,-13.84,5.8,163.84,80.17,66.0,300.32,311.9,79.01,65.48,300.26,311.73,0.0
2018-08-26 15:51:00,89.6211,26.78269,1002.508,272.41,96.5,18.6,-13.99,5.65,163.23,78.99,65.93,300.22,311.71,79.18,65.44,300.27,311.75,0.0
2018-08-26 15:51:00,89.6211,26.78274,1002.498,272.41,96.5,18.7,-14.04,5.54,162.64,80.24,66.07,300.23,311.61,79.32,65.45,300.28,311.77,0.0
2018-08-26 15:51:00,89.6211,26.78279,1002.505,272.4,96.5,18.6,-13.94,5.51,162.06,79.45,65.93,300.33,311.41,79.43,65.51,300.29,311.78,0.0
2018-08-26 15:51:00,89.6211,26.78285,1002.516,272.41,96.5,18.5,-14.25,5.59,161.59,80.24,66.07,300.24,311.78,79.5,65.61,300.29,311.79,0.0
2018-08-26 15:51:00,89.6211,26.7829,1002.494,272.41,96.5,18.7,-13.76,5.51,161.29,79.45,65.86,300.33,311.54,79.54,65.74,300.29,311.8,0.0
2018-08-26 15:51:00,89.6211,26.78297,1002.472,272.4,96.5,18.9,-13.73,5.5,161.06,80.04,65.79,300.33,311.68,79.58,65.9,300.3,311.8,0.0
2018-08-26 15:51:00,89.62111,26.78305,1002.459,272.39,96.4,19.0,-13.75,5.49,160.97,79.91,65.65,299.96,311.61,79.6,66.05,300.31,311.81,0.0
2018-08-26 15:51:00,89.62111,26.78314,1002.459,272.4,96.4,19.0,-13.64,5.44,161.0,79.97,66.0,300.15,311.6,79.61,66.19,300.33,311.81,0.0
2018-08-26 15:51:00,89.62111,26.78322,1002.486,272.4,96.4,18.7,-13.77,5.44,161.15,80.89,66.07,300.33,311.8,79.61,66.31,300.34,311.82,0.0
2018-08-26 15:51:00,89.62111,26.7833,1002.478,272.4,96.4,18.8,-13.04,5.45,161.23,79.71,66.07,300.32,311.71,79.58,66.38,300.32,311.83,0.0
2018-08-26 15:51:00,89.62111,26.78339,1002.467,272.39,96.4,18.9,-13.07,5.55,161.44,78.34,66.07,300.14,311.8,79.48,66.41,300.35,311.86,0.0
2018-08-26 15:51:00,89.62111,26.78347,1002.474,272.39,96.4,18.8,-12.61,5.45,161.72,80.3,66.07,300.61,311.9,79.29,66.4,300.4,311.88,0.0
2018-08-26 15:51:00,89.62111,26.78356,1002.481,272.4,96.4,18.8,-12.11,5.33,162.06,79.12,66.0,300.33,311.8,78.99,66.35,300.45,311.9,0.0
2018-08-26 15:51:00,89.62111,26.78364,1002.457,272.39,96.4,19.0,-12.11,5.33,162.55,80.04,66.0,300.37,311.49,78.56,66.27,300.49,311.92,0.0
2018-08-26 15:51:00,89.62111,26.78371,1002.443,272.39,96.4,19.1,-12.02,5.21,163.16,79.25,65.86,299.6,311.64,78.01,66.19,300.5,311.93,0.0
2018-08-26 15:51:00,89.62111,26.78375,1002.433,272.39,96.4,19.2,-12.03,5.27,163.79,80.17,66.07,299.91,311.68,77.37,66.09,300.49,311.93,0.0
2018-08-26 15:51:00,89.62111,26.78379,1002.42,272.39,96.4,19.3,-12.22,5.36,164.47,79.84,66.0,300.15,311.69,76.68,66.01,300.45,311.92,0.0
2018-08-26 15:51:00,89.62111,26.78384,1002.414,272.39,96.4,19.3,-12.22,5.52,165.28,79.65,66.07,300.15,311.89,76.03,65.93,300.39,311.88,0.0
2018-08-26 15:51:00,89.62111,26.78388,1002.41,272.39,96.4,19.4,-11.94,5.78,166.18,80.17,66.07,300.52,311.9,75.49,65.87,300.31,311.83,0.0
2018-08-26 15:51:00,89.62111,26.78392,1002.377,272.39,96.4,19.6,-11.48,6.07,167.15,79.78,66.21,300.41,311.9,75.13,65.81,300.24,311.77,0.0
2018-08-26 15:51:00,89.62111,26.78396,1002.361,272.39,96.4,19.7,-11.22,6.09,168.37,78.86,65.93,300.32,311.8,75.03,65.77,300.23,311.7,0.0
2018-08-26 15:51:00,89.62111,26.784,1002.379,272.39,96.4,19.6,-11.11,6.46,169.5,78.8,65.79,300.42,311.71,75.21,65.73,300.17,311.63,0.0
2018-08-26 15:51:00,89.62111,26.78404,1002.391,272.39,96.4,19.5,-11.03,6.76,170.64,78.53,66.07,300.52,311.8,75.7,65.69,300.12,311.56,0.0
2018-08-26 15:51:00,89.62111,26.78408,1002.386,272.39,96.4,19.5,-10.99,7.04,171.81,78.4,66.0,300.33,311.71,76.45,65.65,300.1,311.51,0.0
2018-08-26 15:51:00,89.62112,26.78412,1002.379,272.39,96.4,19.6,-11.02,7.41,172.93,78.67,65.93,300.52,311.9,77.41,65.61,300.11,311.48,0.0
2018-08-26 15:51:00,89.62112,26.78416,1002.356,272.39,96.4,19.8,-10.94,7.68,173.99,78.73,66.0,300.43,311.61,78.5,65.58,300.15,311.48,0.0
2018-08-26 15:51:00,89.62112,26.78418,1002.365,272.39,96.4,19.7,-10.88,7.85,175.14,77.62,65.79,300.23,311.61,79.6,65.56,300.2,311.5,0.0
2018-08-26 15:51:00,89.62112,26.78419,1002.382,272.39,96.4,19.6,-10.77,8.08,176.33,79.06,66.0,300.41,311.8,80.61,65.56,300.26,311.52,0.0
2018-08-26 15:51:00,89.62112,26.7842,1002.383,272.39,96.4,19.6,-10.58,8.32,177.54,78.86,66.14,300.32,312.0,81.43,65.58,300.32,311.56,0.0
2018-08-26 15:51:00,89.62112,26.78422,1002.36,272.39,96.4,19.7,-10.32,8.52,111.07,79.39,65.93,300.32,311.9,82.0,65.63,300.37,311.63,0.0
2018-08-26 15:51:00,89.62112,26.78423,1002.349,272.39,96.4,19.8,-10.0,8.66,-179.92,79.78,66.07,300.22,311.61,82.26,65.71,300.4,311.7,0.0
2018-08-26 15:51:00,89.62112,26.78424,1002.348,272.39,96.4,19.8,-9.43,8.84,-178.7,79.84,65.65,300.32,311.8,82.2,65.8,300.41,311.75,0.0
2018-08-26 15:51:00,89.62112,26.78425,1002.345,272.39,96.4,19.9,-8.95,8.93,-177.5,79.45,65.86,300.23,311.11,81.83,65.91,300.4,311.77,0.0
2018-08-26 15:51:00,89.62112,26.78426,1002.337,272.39,96.4,19.9,-8.82,8.99,-176.37,79.78,65.79,300.14,311.09,81.19,66.01,300.38,311.76,0.0
2018-08-26 15:51:00,89.62112,26.78428,1002.32,272.39,96.4,20.1,-8.82,9.03,-175.34,78.8,65.86,300.05,311.51,80.36,66.1,300.35,311.72,0.0
2018-08-26 15:51:00,89.62112,26.78429,1002.283,272.4,96.4,20.4,-8.52,8.95,-174.38,78.93,65.86,300.14,311.61,79.39,66.15,300.32,311.66,0.0
2018-08-26 15:51:00,89.62112,26.7843,1002.295,272.4,96.4,20.3,-8.83,8.82,-173.53,79.65,66.0,300.33,311.71,78.37,66.17,300.3,311.6,0.0
2018-08-26 15:51:00,89.62112,26.78431,1002.271,272.39,96.4,20.5,-9.03,8.73,-172.75,78.99,66.14,300.24,311.71,77.38,66.15,300.29,311.53,0.0
2018-08-26 15:51:00,89.62112,26.78432,1002.248,272.39,96.4,20.6,-9.25,8.58,-172.01,79.65,66.07,300.33,311.89,76.51,66.09,300.3,311.53,0.0
2018-08-26 15:51:00,89.62112,26.7843,1002.243,272.39,96.4,20.7,-9.41,8.38,-171.29,79.06,65.93,300.33,311.6,75.8,66.0,300.34,311.56,0.0
2018-08-26 15:51:00,89.62112,26.78423,1002.255,272.39,96.4,20.6,-9.48,8.15,-170.62,79.45,65.79,300.24,311.51,75.33,65.88,300.38,311.59,0.0
2018-08-26 15:51:00,89.62112,26.78417,1002.258,272.39,96.4,20.6,-9.6,7.97,-169.99,78.8,66.0,300.33,311.61,75.13,65.76,300.44,311.67,0.0
2018-08-26 15:51:00,89.62112,26.7841,1002.221,272.39,96.4,20.8,-9.7,7.89,-169.41,80.76,66.07,300.32,312.0,75.23,65.65,300.51,311.77,0.0
2018-08-26 15:51:00,89.62112,26.78404,1002.217,272.39,96.4,20.9,-9.32,7.73,-168.85,77.94,66.0,300.41,311.8,75.62,65.56,300.57,311.9,0.0
2018-08-26 15:51:00,89.62112,26.78397,1002.222,272.39,96.4,20.8,-8.93,7.6,-168.33,78.21,65.79,300.41,312.09,76.28,65.5,300.61,312.03,0.0
2018-08-26 15:51:00,89.62112,26.78391,1002.212,272.4,96.4,20.9,-8.64,7.51,-167.89,77.36,65.86,300.32,311.8,77.16,65.47,300.64,312.14,0.0
2018-08-26 15:51:00,89.62112,26.78384,1002.183,272.39,96.4,21.1,-8.28,7.4,-167.52,78.47,65.86,300.52,311.8,78.19,65.47,300.65,312.21,0.0
2018-08-26 15:51:00,89.62112,26.78378,1002.204,272.39,96.4,21.0,-8.3,7.35,-167.27,78.27,65.86,300.52,311.71,79.26,65.5,300.64,312.25,0.0
2018-08-26 15:51:00,89.62112,26.78371,1002.185,272.39,96.4,21.1,-8.48,7.37,-167.14,78.53,65.86,300.33,311.61,80.27,65.54,300.61,312.23,0.0
2018-08-26 15:51:00,89.62112,26.78365,1002.158,272.39,96.4,21.3,-8.48,7.43,-167.19,78.67,65.86,300.52,311.89,81.13,65.6,300.58,312.18,0.0
2018-08-26 15:51:00,89.62112,26.78358,1002.14,272.39,96.4,21.5,-8.3,7.53,-167.36,79.78,65.86,300.42,311.5,81.74,65.65,300.53,312.1,0.0
2018-08-26 15:51:00,89.62112,26.78353,1002.122,272.39,96.4,21.6,-8.06,7.65,-167.57,79.12,65.86,300.24,311.71,82.04,65.69,300.48,311.97,0.0
2018-08-26 15:51:00,89.62112,26.78348,1002.124,272.39,96.4,21.6,-7.66,7.71,-167.9,78.6,65.86,300.43,311.61,82.02,65.73,300.44,311.75,0.0
2018-08-26 15:51:00,89.62112,26.78342,1002.098,272.39,96.4,21.8,-7.47,7.88,-168.39,78.86,65.79,300.24,311.8,81.68,65.75,300.41,311.64,0.0
2018-08-26 15:51:00,89.62112,26.78336,1002.089,272.39,96.4,21.9,-7.19,7.99,-169.04,78.99,65.86,300.61,311.8,81.1,65.77,300.39,311.58,0.0
2018-08-26 15:51:00,89.62112,26.78331,1002.092,272.39,96.4,21.9,-6.94,8.09,-169.81,79.19,66.0,300.42,312.0,80.35,65.78,300.38,311.54,0.0
2018-08-26 15:51:00,89.62112,26.78326,1002.09,272.39,96.4,21.9,-6.75,8.19,-170.67,80.17,65.86,300.51,311.7,79.55,65.79,300.38,311.54,0.0
2018-08-26 15:51:00,89.62112,26.7832,1002.079,272.39,96.4,22.0,-6.58,8.23,-171.58,79.58,65.86,300.15,310.51,78.81,65.79,300.38,311.55,0.0
2018-08-26 15:51:00,89.62112,26.78314,1002.054,272.39,96.4,22.2,-6.67,8.33,-172.61,80.56,65.65,300.23,311.52,78.22,65.81,300.39,311.58,0.0
2018-08-26 15:51:00,89.62112,26.78309,1002.05,272.39,96.4,22.2,-6.5,8.32,-173.61,77.81,65.86,300.32,311.62,77.87,65.82,300.41,311.62,0.0
2018-08-26 15:51:00,89.62113,26.78303,1002.057,272.39,96.4,22.1,-6.31,8.35,-174.55,78.34,65.72,300.42,312.0,77.76,65.83,300.42,311.65,0.0
2018-08-26 15:51:00,89.62113,26.78298,1002.053,272.39,96.4,22.2,-6.12,8.45,-175.43,79.25,65.86,300.51,311.8,77.88,65.83,300.43,311.67,0.0
2018-08-26 15:51:00,89.62113,26.78292,1002.021,272.39,96.4,22.4,-5.82,8.52,-176.31,78.73,65.93,300.22,312.0,78.2,65.82,300.44,311.7,0.0
2018-08-26 15:51:00,89.62113,26.78287,1002.036,272.39,96.4,22.3,-5.56,8.45,-177.1,78.34,65.93,300.5,311.8,78.62,65.81,300.45,311.81,0.0
2018-08-26 15:51:00,89.62113,26.78281,1002.018,272.38,96.4,22.5,-5.63,8.43,-177.89,79.06,65.93,300.23,311.9,79.07,65.78,300.45,311.81,0.0
2018-08-26 15:51:00,89.62113,26.78276,1002.016,272.38,96.4,22.5,-5.65,8.3,-178.61,78.93,65.79,300.33,311.5,79.45,65.75,300.45,311.78,0.0
2018-08-26 15:51:00,89.62113,26.78263,1002.022,272.38,96.4,22.4,-5.62,8.13,-179.32,78.93,65.79,300.24,311.88,79.72,65.71,300.46,311.75,0.0
2018-08-26 15:51:00,89.62113,26.78247,1001.988,272.37,96.4,22.7,-5.59,7.92,-125.51,79.58,65.65,300.52,311.9,79.84,65.67,300.46,311.71,0.0
2018-08-26 15:51:00,89.62113,26.78232,1001.968,272.38,96.3,22.9,-5.65,7.4,172.04,79.19,66.0,300.32,311.69,79.81,65.64,300.46,311.66,0.0
2018-08-26 15:51:00,89.62113,26.78216,1001.976,272.37,96.3,22.8,-6.1,7.55,178.79,79.39,65.86,300.41,311.8,79.66,65.62,300.46,311.53,0.0
2018-08-26 15:51:00,89.62113,26.78201,1001.964,272.37,96.3,22.9,-6.31,7.46,178.36,79.25,65.72,300.5,311.61,79.43,65.61,300.45,311.46,0.0
2018-08-26 15:51:00,89.62113,26.78185,1001.947,272.37,96.3,23.0,-6.08,7.39,178.0,80.24,65.86,300.32,311.99,79.2,65.6,300.44,311.41,0.0
2018-08-26 15:51:00,89.62113,26.7817,1001.94,272.37,96.3,23.1,-5.63,7.43,177.74,78.01,65.86,300.51,311.5,79.0,65.59,300.42,311.36,0.0
2018-08-26 15:51:00,89.62113,26.78154,1001.927,272.37,96.3,23.2,-5.49,7.41,177.65,78.6,65.79,300.61,311.8,78.87,65.56,300.39,311.32,0.0
2018-08-26 15:51:00,89.62113,26.78139,1001.898,272.37,96.3,23.4,-5.4,7.82,177.74,79.06,65.65,300.38,310.69,78.83,65.53,300.36,311.29,0.0
2018-08-26 15:51:00,89.62113,26.78123,1001.89,272.37,96.3,23.5,-5.04,8.06,177.98,78.86,65.79,300.5,311.61,78.88,65.47,300.33,311.28,0.0
2018-08-26 15:51:00,89.62113,26.78106,1001.883,272.37,96.3,23.5,-4.37,8.28,178.28,78.99,65.86,300.23,311.5,78.98,65.4,300.25,311.28,0.0
2018-08-26 15:51:00,89.62113,26.7809,1001.878,272.36,96.3,23.6,-3.52,8.47,178.68,79.12,65.79,300.41,311.88,79.1,65.32,300.18,311.31,0.0
2018-08-26 15:51:00,89.62113,26.78073,1001.888,272.37,96.3,23.5,-2.87,8.62,179.2,79.39,65.65,300.41,311.79,79.22,65.22,300.17,311.37,0.0
2018-08-26 15:51:00,89.62113,26.78057,1001.886,272.36,96.3,23.5,-3.48,8.92,179.74,79.12,65.79,300.41,311.61,79.32,65.13,300.16,311.45,0.0
2018-08-26 15:51:00,89.62113,26.7804,1001.841,272.36,96.3,23.9,-3.09,9.1,-87.05,78.8,65.79,300.22,311.79,79.37,65.06,300.17,311.62,0.0
2018-08-26 15:51:00,89.62113,26.78024,1001.839,272.36,96.3,23.9,-2.95,9.1,-179.08,79.58,65.79,300.0,311.8,79.41,65.02,300.19,311.73,0.0
2018-08-26 15:51:00,89.62113,26.78007,1001.852,272.36,96.3,23.8,-2.8,9.1,-178.35,79.25,65.79,300.13,311.7,79.45,65.01,300.21,311.81,0.0
2018-08-26 15:51:00,89.62113,26.77991,1001.837,272.36,96.3,23.9,-2.5,9.17,-177.57,79.58,65.65,300.45,311.79,79.52,65.04,300.22,311.87,0.0
2018-08-26 15:51:00,89.62113,26.77974,1001.837,272.36,96.3,23.9,-2.34,9.21,-176.71,78.6,65.52,300.36,311.62,79.65,65.11,300.24,311.9,0.0
2018-08-26 15:51:00,89.62113,26.77958,1001.837,272.36,96.3,23.9,-1.84,9.16,-175.83,78.86,65.38,300.32,311.5,79.86,65.2,300.24,311.89,0.0
2018-08-26 15:51:00,89.62113,26.77941,1001.816,272.36,96.3,24.1,-1.38,8.91,-174.93,78.6,65.72,300.22,311.6,80.12,65.3,300.22,311.86,0.0
2018-08-26 15:51:00,89.62113,26.77925,1001.799,272.36,96.3,24.2,-0.89,8.64,-174.0,79.06,65.65,300.22,311.61,80.42,65.4,300.24,311.8,0.0
2018-08-26 15:51:00,89.62113,26.7791,1001.803,272.36,96.3,24.2,-0.52,8.38,-173.08,79.78,65.38,300.14,311.6,80.71,65.49,300.24,311.72,0.0
2018-08-26 15:51:00,89.62113,26.77897,1001.832,272.37,96.3,23.9,-0.43,8.07,-172.25,79.58,65.79,300.24,311.8,80.94,65.56,300.18,311.64,0.0
2018-08-26 15:51:00,89.62113,26.77884,1001.777,272.36,96.3,24.4,0.91,7.74,-171.59,79.06,65.65,300.43,311.8,81.03,65.59,300.12,311.56,0.0
2018-08-26 15:51:00,89.62113,26.77871,1001.748,272.37,96.3,24.6,0.59,7.44,-170.78,79.19,65.72,300.52,311.71,80.97,65.6,300.06,311.5,0.0
2018-08-26 15:51:00,89.62113,26.77858,1001.746,272.37,96.3,24.6,1.2,7.23,-170.03,79.65,65.58,300.32,311.7,80.71,65.59,300.02,311.46,0.0
2018-08-26 15:51:00,89.62113,26.77845,1001.752,272.37,96.3,24.6,1.7,6.96,-169.32,78.99,65.72,300.41,311.6,80.28,65.55,299.99,311.44,0.0
2018-08-26 15:51:00,89.62113,26.77832,1001.738,272.37,96.3,24.7,1.21,6.51,-168.68,79.25,65.58,300.22,312.0,79.7,65.51,299.98,311.43,0.0
2018-08-26 15:51:00,89.62113,26.77819,1001.7,272.37,96.3,25.0,1.02,5.9,-168.22,79.45,65.65,300.32,311.61,79.05,65.47,300.0,311.44,0.0
2018-08-26 15:51:00,89.62113,26.77806,1001.713,272.38,96.3,24.9,0.88,5.36,-168.1,81.09,65.58,300.41,312.0,78.39,65.43,300.09,311.46,0.0
2018-08-26 15:51:00,89.62113,26.77793,1001.713,272.38,96.3,24.9,1.16,5.28,-168.06,80.17,65.58,300.5,311.79,77.8,65.4,300.15,311.47,0.0
2018-08-26 15:51:00,89.62113,26.7778,1001.705,272.38,96.3,24.9,1.8,5.46,-168.19,78.86,65.52,300.32,311.79,77.36,65.37,300.2,311.48,0.0
2018-08-26 15:51:00,89.62113,26.77767,1001.701,272.38,96.3,25.0,2.04,5.68,-168.49,78.86,65.52,300.53,311.79,77.1,65.34,300.25,311.47,0.0
2018-08-26 15:51:00,89.62113,26.77757,1001.696,272.38,96.3,25.0,0.69,5.74,-168.92,78.47,65.72,300.26,311.79,77.06,65.3,300.3,311.47,0.0
2018-08-26 15:51:00,89.62113,26.77748,1001.68,272.39,96.3,25.1,0.4,6.0,-169.56,78.93,65.38,301.27,311.89,77.21,65.24,300.33,311.6,0.0
2018-08-26 15:51:00,89.62113,26.77739,1001.661,272.39,96.3,25.3,0.46,5.96,-170.5,78.93,65.79,300.47,311.51,77.52,65.18,300.33,311.59,0.0
2018-08-26 15:51:00,89.62113,26.7773,1001.656,272.39,96.3,25.3,0.27,5.91,-171.58,79.39,65.65,300.32,311.5,77.95,65.1,300.32,311.54,0.0
2018-08-26 15:51:00,89.62113,26.77721,1001.657,272.39,96.3,25.3,0.04,6.01,-172.78,78.27,65.45,300.13,311.38,78.43,65.03,300.29,311.46,0.0
2018-08-26 15:51:00,89.62113,26.77712,1001.641,272.39,96.3,25.4,0.53,6.25,-174.13,78.99,65.58,300.36,311.63,78.9,64.96,300.27,311.36,0.0
2018-08-26 15:51:00,89.62113,26.77703,1001.65,272.39,96.3,25.4,3.34,6.15,-175.85,79.78,65.38,299.95,313.28,79.31,64.93,300.36,311.34,0.0
